~Version ---------------------------------------------------
VERS   .                                                                             2.0 : CWLS log ASCII Standard -VERSION 2.0
WRAP   .                                                                              NO : One Line per depth step
PROD   .                                                                    Schlumberger : LAS Producer
PROG   .                                                               DLIS to ASCII 2.2 : LAS Program name and version
CREA   .     2008/03/03 10:39                          :LAS Creation date {YYYY/MM/DD hh : mm}
SOURCE . ARever_Fidelity_Deadwood_Canyon_Ranch_43-28H_3d_Rock_Properties_Final_Data.dlis : DLIS File Name
FILE-ID.                                                  Interpretation Chain - gf_user : File Identification Number
~Well ------------------------------------------------------
STRT.F                              10532.0 : START DEPTH
STOP.F                               7652.5 : STOP DEPTH
STEP.F                                 -0.5 : STEP
NULL.                               -999.25 : NULL VALUE
COMP. FIDELITY EXPLORATION & PRODUCTION CO. : COMPANY
WELL.          Deadwood Canyon Ranch 43-28H : WELL
FLD .                               Wildcat : FIELD
LOC .                                       : LOCATION
CNTY.                             MOUNTRAIL : COUNTY
STAT.                             N. DAKOTA : STATE
CTRY.                                   USA : COUNTRY
API .                          33-061-00581 : API NUMBER
UWI .          Deadwood Canyon Ranch 43-28H : UNIQUE WELL ID
DATE.                                       : LOG DATE
SRVC.                          Schlumberger : SERVICE COMPANY
LATI.DEG                             48.129 : LATITUDE
LONG.DEG                           -102.505 : LONGITUDE
GDAT.                                       : GeoDetic Datum
~Curve Information -----------------------------------------
DEPT              .F     : DEPTH (BOREHOLE) {F10.1}
C13_C44_MULT      .      : C44 Multiplier in C13 Equation {F13.4}
C11_BED_TIV       .6PSI  : Dynamic C11 Modulus wrt Bedding - TIV Model {F13.4}
C13_BED_TIV       .6PSI  : Dynamic C13 Modulus wrt Bedding - TIV Model {F13.4}
YME_DYN_11_BED_TIV.6PSI  : Dynamic Horizontal Youngs Modulus wrt Bedding - TIV Model {F13.4}
YME_DYN_33_BED_TIV.6PSI  : Dynamic Vertical Youngs Modulus wrt Bedding - TIV model {F13.4}
PR_DYN_12_BED_TIV .      : Dynamic Horizontal Poissons Ratio wrt Bedding - TIV Model {F13.4}
PR_DYN_13_BED_TIV .      : Dynamic Vertical Poissons Ratio wrt Bedding - TIV Model {F13.4}
SMG               .6PSI  : Shear Modulus {F13.4}
BMK               .6PSI  : Bulk Modulus - K {F13.4}
YME               .6PSI  : Young's Modulus (E) {F13.4}
PR                .      : Poisson's Ratio {F13.4}
MAXXENE_OVERALL   .      : Overall estimate of maximum cross energy {F13.4}
MINXENE_OVERALL   .      : Overall estimate of minimum cross energy {F13.4}
HD2_PPC2          .IN    : PPC2 Hole Diameter 2 {F13.4}
HD1_PPC2          .IN    : PPC2 Hole Diameter 1 {F13.4}
HD2_PPC1          .IN    : PPC1 Hole Diameter 2 {F13.4}
HD1_PPC1          .IN    : PPC1 Hole Diameter 1 {F13.4}
GR_EDTC           .GAPI  : Gamma Ray {F13.4}
TENS              .LBF   : Cable Tension {F13.4}
BS                .IN    : Bit Size {F13.4}
TDEP              .F     : {F13.4}
~Params ----------------------------------------------------
RUN .               : RUN NUMBER
PDAT.  GROUND LEVEL : Permanent Datum
EPD .F       2111.0 : Elevation of Permanent Datum above Mean Sea Level
EPD .F       2111.0 : Elevation of tool zero above Mean Sea Level
LMF . KELLY BUSHING : Logging Measured From (Name of Logging Elevation Reference)
APD .F         18.0 : Elevation of Depth Reference (LMF) above Permanent Datum
~Other -----------------------------------------------------
~ASCII -----------------------------------------------------
# ...
 8997.50000    -999.25   13.25740    5.38750   10.20970   10.99300    0.29730    0.26840    4.35730    8.29670   11.12450    0.27650    9.75190    4.00800    9.09130    8.84500    9.03860    8.90480   33.61980 3960.00000    8.75000    0.00000
 8997.00000    -999.25   13.06930    5.19950   10.17490   10.97940    0.29290    0.26380    4.36760    8.11560   11.10970    0.27180    9.75830    3.75050    9.07800    8.85670    9.03860    8.90480   35.26930 3993.00000    8.75000    0.00000
 8996.50000    -999.25   12.64530    5.32830    9.59980   10.96460    0.31200    0.25960    4.39400    8.26520   11.19770    0.27420    9.77640    3.49590    9.06500    8.84500    9.03860    8.90480   30.45550 3980.00000    8.75000    0.00000
 8996.00000    -999.25   12.62130    5.30530    9.60600   11.13370    0.31300    0.25530    4.48010    8.30030   11.39100    0.27130    9.78330    3.26600    9.07820    8.86840    9.06440    8.90480   29.42040 3975.00000    8.75000    0.00000
 8995.50000    -999.25   13.37340    5.50490   10.24670   11.24370    0.30220    0.26570    4.47190    8.49160   11.41240    0.27600    9.74790    3.08630    9.07820    8.84500    9.05150    8.90480   27.42590 3999.00000    8.75000    0.00000
 8995.00000    -999.25   13.76280    5.89410   10.31240   11.25150    0.31060    0.27480    4.44350    8.86160   11.42140    0.28520    9.70900    3.01670    9.09130    8.84500    9.04190    8.90480   28.30730 3996.00000    8.75000    0.00000
 8994.50000    -999.25   13.67560    5.80590   10.28580   11.07170    0.30700    0.27690    4.36100    8.71750   11.21330    0.28560    9.70540    3.05450    9.09130    8.85670    9.03860    8.90480   28.99730 4024.00000    8.75000    0.00000
 8994.00000    -999.25   13.18600    5.58800    9.94930   10.97750    0.30950    0.26980    4.35520    8.49700   11.15910    0.28110    9.71230    3.12260    9.08710    8.85630    9.02900    8.89440   26.75190 4028.00000    8.75000    0.00000
 8993.50000    -999.25   12.68560    5.08570    9.85750   10.89170    0.29710    0.25900    4.35560    7.99500   11.05860    0.26950    9.70860    3.19530    9.07800    8.84500    9.03860    8.89300   26.59850 4061.00000    8.75000    0.00000
 8993.00000    -999.25   12.64390    5.31100    9.59830   10.73350    0.30890    0.26450    4.27920    8.16990   10.92930    0.27700    9.71660    3.26910    9.07820    8.84500    9.02570    8.89300   23.83250 4014.00000    8.75000    0.00000
 8992.50000    -999.25   13.10900    5.83410    9.61250   10.64960    0.32130    0.27800    4.20170    8.64090   10.84700    0.29080    9.71360    3.37890    9.09530    8.82230    9.02570    8.94060   27.24890 4002.00000    8.75000    0.00000
 8992.00000    -999.25   13.69920    5.82740   10.26530   10.74110    0.30410    0.28520    4.19470    8.62640   10.82880    0.29080    9.70930    3.50070    9.09130    8.85670    9.01290    8.90480   26.69690 4017.00000    8.75000    0.00000
 8991.50000    -999.25   13.21450    5.62820    9.91980   10.66750    0.30760    0.27780    4.19870    8.43140   10.80300    0.28650    9.71660    3.63190    9.08710    8.85660    9.02570    8.90480   29.28640 4048.00000    8.75000    0.00000
 8991.00000    -999.25   13.15770    5.57290    9.90010   10.54660    0.30530    0.27930    4.14320    8.33850   10.66350    0.28690    9.71540    3.75790    9.09130    8.85670    9.02900    8.90630   28.46040 4027.00000    8.75000    0.00000
 8990.50000    -999.25   12.96210    5.64250    9.63160   10.64630    0.31590    0.27440    4.21050    8.45500   10.83310    0.28650    9.71530    3.89250    9.06500    8.84500    9.03860    8.90480   28.02200 4073.00000    8.75000    0.00000
 8990.00000    -999.25   13.50330    5.63310   10.23110   10.72200    0.30000    0.28090    4.20130    8.43670   10.80970    0.28650    9.72210    4.02560    9.08220    8.83400    9.02570    8.90630   30.09130 4075.00000    8.75000    0.00000
 8989.50000    -999.25   13.69160    5.81930   10.26350   10.72810    0.30370    0.28530    4.18880    8.61430   10.81360    0.29080    9.73210    4.15280    9.09130    8.85670    9.02570    8.90480   32.68870 4091.00000    8.75000    0.00000
 8989.00000    -999.25   13.89990    6.02780   10.29790   10.76300    0.30820    0.28940    4.18960    8.82340   10.85140    0.29500    9.74290    4.29070    9.07800    8.85670    9.02570    8.90480   34.64410 4024.00000    8.75000    0.00000
 8988.50000    -999.25   13.90920    5.98740   10.36990   11.06240    0.30900    0.28210    4.33740    8.88280   11.19070    0.29000    9.74450    4.42080    9.07800    8.84500    9.02570    8.86910   36.89150 3965.00000    8.75000    0.00000
 8988.00000    -999.25   13.95210    6.01560   10.39410   11.11060    0.30960    0.28180    4.35790    8.92470   11.24350    0.29000    9.74790    4.57350    9.09130    8.84500    9.02900    8.85870   37.39430 4008.00000    8.75000    0.00000
 8987.50000    -999.25   13.52650    5.60720   10.30590   11.06290    0.30140    0.27300    4.36900    8.52400   11.19450    0.28110    9.75320    4.70910    9.07820    8.84500    9.02900    8.87050   36.09460 4032.00000    8.75000    0.00000
 8987.00000    -999.25   13.53790    5.61650   10.31100   11.07950    0.30170    0.27290    4.37630    8.53820   11.21310    0.28110    9.75060    4.85590    9.07800    8.84500    9.02730    8.86910   32.47180 4036.00000    8.75000    0.00000
 8986.50000    -999.25   13.96790    6.04870   10.38440   11.16130    0.31130    0.28110    4.38200    8.97420   11.30590    0.29000    9.73820    4.99820    9.09130    8.86840    9.02900    8.87050   32.82190 4054.00000    8.75000    0.00000
 8986.00000    -999.25   14.18310    6.26170   10.42070   11.18520    0.31550    0.28530    4.37750    9.18420   11.33210    0.29440    9.73300    5.15640    9.08710    8.86770    9.03860    8.86910   40.84730 4032.00000    8.75000    0.00000
 8985.50000    -999.25   13.54910    5.61050   10.32790   11.07170    0.30100    0.27320    4.37150    8.52890   11.20090    0.28110    9.70560    5.34160    9.06500    8.84500    9.03860    8.85720   42.74990 3996.00000    8.75000    0.00000
 8985.00000    -999.25   13.65660    5.73660   10.31810   10.93310    0.30280    0.27920    4.29350    8.60230   11.04330    0.28600    9.66170    5.55430    9.07820    8.85670    9.02900    8.87050   42.22740 3981.00000    8.75000    0.00000
 8984.50000    -999.25   13.67400    5.73590   10.33770   10.93480    0.30230    0.27940    4.29290    8.60100   11.04160    0.28600    9.60910    5.74600    9.09130    8.85670    9.02570    8.85810   35.83710 4021.00000    8.75000    0.00000
 8984.00000    -999.25   13.68370    5.74420   10.34150   10.94900    0.30260    0.27930    4.29920    8.61360   11.05780    0.28600    9.55670    5.94720    9.07800    8.86840    9.03860    8.85720   33.93030 3983.00000    8.75000    0.00000
 8983.50000    -999.25   13.54150    5.62010   10.31210   11.08570    0.30180    0.27280    4.37910    8.54360   11.22020    0.28110    9.49980    6.12590    9.07800    8.86840    9.02570    8.86910   33.93530 3979.00000    8.75000    0.00000
 8983.00000    -999.25   13.54690    5.62560   10.31360   11.09530    0.30200    0.27270    4.38340    8.55210   11.23140    0.28110    9.44950    6.28510    9.09130    8.84500    9.03860    8.86910   32.94550 3993.00000    8.75000    0.00000
 8982.50000    -999.25   13.81590    5.89310   10.33970   10.85600    0.30510    0.28480    4.24210    8.72400   10.95130    0.29080    9.41120    6.41070    9.07820    8.86840    9.03860    8.86910   32.08520 4006.00000    8.75000    0.00000
 8982.00000    -999.25   13.93790    6.01580   10.34730   10.72990    0.30610    0.29070    4.16970    8.79770   10.80250    0.29540    9.38980    6.53000    9.07800    8.85670    9.03860    8.87000   30.36870 3977.00000    8.75000    0.00000
 8981.50000    -999.25   13.93210    6.01070   10.34510   10.72180    0.30600    0.29080    4.16620    8.79020   10.79330    0.29540    9.38780    6.62110    9.07800    8.88010    9.04190    8.87050   30.36480 3978.00000    8.75000    0.00000
