~Version ---------------------------------------------------
VERS   .                                                                             2.0 : CWLS log ASCII Standard -VERSION 2.0
WRAP   .                                                                              NO : One Line per depth step
PROD   .                                                                    Schlumberger : LAS Producer
PROG   .                                                               DLIS to ASCII 2.2 : LAS Program name and version
CREA   .     2008/03/03 10:39                          :LAS Creation date {YYYY/MM/DD hh : mm}
SOURCE . ARever_Fidelity_Deadwood_Canyon_Ranch_43-28H_3d_Rock_Properties_Final_Data.dlis : DLIS File Name
FILE-ID.                                                  Interpretation Chain - gf_user : File Identification Number
~Well ------------------------------------------------------
STRT.F                              10532.0 : START DEPTH
STOP.F                               7652.5 : STOP DEPTH
STEP.F                                 -0.5 : STEP
NULL.                               -999.25 : NULL VALUE
COMP. FIDELITY EXPLORATION & PRODUCTION CO. : COMPANY
WELL.          Deadwood Canyon Ranch 43-28H : WELL
FLD .                               Wildcat : FIELD
LOC .                                       : LOCATION
CNTY.                             MOUNTRAIL : COUNTY
STAT.                             N. DAKOTA : STATE
CTRY.                                   USA : COUNTRY
API .                          33-061-00581 : API NUMBER
UWI .          Deadwood Canyon Ranch 43-28H : UNIQUE WELL ID
DATE.                                       : LOG DATE
SRVC.                          Schlumberger : SERVICE COMPANY
LATI.DEG                             48.129 : LATITUDE
LONG.DEG                           -102.505 : LONGITUDE
GDAT.                                       : GeoDetic Datum
~Curve Information -----------------------------------------
DEPT              .F     : DEPTH (BOREHOLE) {F10.1}
C13_C44_MULT      .      : C44 Multiplier in C13 Equation {F13.4}
C11_BED_TIV       .6PSI  : Dynamic C11 Modulus wrt Bedding - TIV Model {F13.4}
C13_BED_TIV       .6PSI  : Dynamic C13 Modulus wrt Bedding - TIV Model {F13.4}
YME_DYN_11_BED_TIV.6PSI  : Dynamic Horizontal Youngs Modulus wrt Bedding - TIV Model {F13.4}
YME_DYN_33_BED_TIV.6PSI  : Dynamic Vertical Youngs Modulus wrt Bedding - TIV model {F13.4}
PR_DYN_12_BED_TIV .      : Dynamic Horizontal Poissons Ratio wrt Bedding - TIV Model {F13.4}
PR_DYN_13_BED_TIV .      : Dynamic Vertical Poissons Ratio wrt Bedding - TIV Model {F13.4}
SMG               .6PSI  : Shear Modulus {F13.4}
BMK               .6PSI  : Bulk Modulus - K {F13.4}
YME               .6PSI  : Young's Modulus (E) {F13.4}
PR                .      : Poisson's Ratio {F13.4}
MAXXENE_OVERALL   .      : Overall estimate of maximum cross energy {F13.4}
MINXENE_OVERALL   .      : Overall estimate of minimum cross energy {F13.4}
HD2_PPC2          .IN    : PPC2 Hole Diameter 2 {F13.4}
HD1_PPC2          .IN    : PPC2 Hole Diameter 1 {F13.4}
HD2_PPC1          .IN    : PPC1 Hole Diameter 2 {F13.4}
HD1_PPC1          .IN    : PPC1 Hole Diameter 1 {F13.4}
GR_EDTC           .GAPI  : Gamma Ray {F13.4}
TENS              .LBF   : Cable Tension {F13.4}
BS                .IN    : Bit Size {F13.4}
TDEP              .F     : {F13.4}
~Params ----------------------------------------------------
RUN .               : RUN NUMBER
PDAT.  GROUND LEVEL : Permanent Datum
EPD .F       2111.0 : Elevation of Permanent Datum above Mean Sea Level
EPD .F       2111.0 : Elevation of tool zero above Mean Sea Level
LMF . KELLY BUSHING : Logging Measured From (Name of Logging Elevation Reference)
APD .F         18.0 : Elevation of Depth Reference (LMF) above Permanent Datum
~Other -----------------------------------------------------
~ASCII -----------------------------------------------------
# ...
 8040.50000    -999.25    6.03110    2.46030    4.63140    4.93530    0.29700    0.27190    1.95000    3.76090    4.98800    0.27900   11.27880    0.29930    9.43670    9.19580    9.45150    9.35620    6.72800 3737.00000    8.75000    0.00000
 8040.00000    -999.25    6.01210    2.16380    4.87140    4.93450    0.26590    0.26130    1.95790    3.46920    4.94380    0.26250   11.25120    0.29820    9.69770    9.23070    9.60440    9.35630    7.61590 3827.00000    8.75000    0.00000
 8039.50000    -999.25    5.62920    1.80210    4.76270    4.88710    0.24450    0.23630    1.97940    3.12200    4.90220    0.23830   11.19410    0.29290    9.60640    9.33530    9.60700    9.41610    8.47650 3903.00000    8.75000    0.00000
 8039.00000    -999.25    5.35070    1.52750    4.68220    4.88170    0.22470    0.21300    2.01610    2.87190    4.90140    0.21560   11.17760    0.28680    9.63610    9.33550    9.61710    9.42700    9.16850 3765.00000    8.75000    0.00000
 8038.50000    -999.25    5.13620    1.34120    4.59150    4.84460    0.20990    0.19620    2.02920    2.69440    4.86600    0.19900   11.11910    0.28380    9.65850    9.40490    9.56890    9.51020    9.31570 3742.00000    8.75000    0.00000
 8038.00000    -999.25    5.15830    1.39730    4.57420    4.82880    0.21620    0.20190    2.01330    2.74000    4.85170    0.20490   11.00250    0.28800    9.52810    9.50910    9.47710    9.61520    9.83620 3803.00000    8.75000    0.00000
 8037.50000    -999.25    5.43880    1.68170    4.65810    4.90050    0.23980    0.22450    2.00640    3.01970    4.92770    0.22800   10.86730    0.29910    9.44970    9.45130    9.37790    9.62770    9.66140 3895.00000    8.75000    0.00000
 8037.00000    -999.25    5.66390    1.91370    4.71060    4.91650    0.25610    0.24200    1.98450    3.23710    4.94330    0.24550   10.75130    0.31500    9.46280    9.47440    9.33670    9.65040    8.79720 3879.00000    8.75000    0.00000
 8036.50000    -999.25    5.77360    2.00860    4.74380    4.84520    0.26000    0.25270    1.93660    3.29990    4.85920    0.25460   10.63860    0.33500    9.41440    9.45140    9.32390    9.60360    8.60640 3784.00000    8.75000    0.00000
 8036.00000    -999.25    5.83510    2.06250    4.76240    4.82650    0.26240    0.25770    1.92060    3.34300    4.83560    0.25890   10.58630    0.34620    9.33170    9.35850    9.33670    9.57990    9.29880 3759.00000    8.75000    0.00000
 8035.50000    -999.25    5.71120    2.03800    4.65620    4.89690    0.26760    0.25010    1.96520    3.34860    4.93100    0.25460   10.53910    0.35350    9.41050    9.18420    9.32690    9.45130   12.06060 3878.00000    8.75000    0.00000
 8035.00000    -999.25    5.45740    1.97100    4.44910    5.01520    0.27610    0.23540    2.04450    3.33510    5.09290    0.24550   10.47680    0.37980    9.24900    9.16050    9.39070    9.63940   13.80090 3923.00000    8.75000    0.00000
 8034.50000    -999.25    5.63720    1.97920    4.64200    5.15850    0.26900    0.23380    2.10350    3.38250    5.22700    0.24240   10.15650    0.38040    9.22670    9.18420    9.41330    9.49770   15.25390 3754.00000    8.75000    0.00000
 8034.00000    -999.25    5.87960    2.08500    4.81740    5.25790    0.26960    0.23990    2.13190    3.50710    5.31800    0.24730   10.16240    0.38430    9.42350    9.28880    9.39070    9.51020   14.39130 3794.00000    8.75000    0.00000
 8033.50000    -999.25    5.88030    2.05340    4.84190    5.21200    0.26520    0.24040    2.11040    3.46100    5.26180    0.24660   10.09880    0.38060    9.41050    9.21910    9.33660    9.41520   11.11360 3817.00000    8.75000    0.00000
 8033.00000    -999.25    5.91940    2.06290    4.86760    5.08000    0.26220    0.24760    2.04150    3.42430    5.10920    0.25130   10.05680    0.37350    9.40670    9.20710    9.32380    9.33260    7.76310 3926.00000    8.75000    0.00000
 8032.50000    -999.25    5.92100    2.06050    4.86520    4.98140    0.26030    0.25210    1.99230    3.38890    4.99750    0.25420    9.83770    0.35300    9.41050    9.20740    9.32680    9.32190    6.21050 3763.00000    8.75000    0.00000
 8032.00000    -999.25    5.90950    2.04470    4.86300    4.92910    0.25820    0.25360    1.96770    3.35660    4.93820    0.25480    9.71330    0.33180    9.50240    9.17260    9.30120    9.31010    5.94410 3677.00000    8.75000    0.00000
 8031.50000    -999.25    5.68910    2.09920    4.57870    4.86900    0.27550    0.25350    1.95050    3.40010    4.91210    0.25920    9.70680    0.31820    9.61000    9.21950    9.50250    9.29720    6.97910 3702.00000    8.75000    0.00000
 8031.00000    -999.25    5.59370    2.08310    4.47490    4.62820    0.27470    0.26240    1.83770    3.30850    4.65170    0.26570    9.68450    0.30480    9.60640    9.28890    9.84570    9.55640    9.56680 3818.00000    8.75000    0.00000
 8030.50000    -999.25    5.17340    1.78440    4.27710    4.56490    0.26200    0.24030    1.84760    3.01670    4.60310    0.24570    9.68520    0.29550    9.65850    9.38170    9.83300    9.55640   13.28340 3860.00000    8.75000    0.00000
 8030.00000    -999.25    5.10920    1.72380    4.26490    4.67890    0.25980    0.23000    1.91200    2.99930    4.73080    0.23710    9.69460    0.29760    9.65850    9.37010    9.83540    9.56910   16.56110 3726.00000    8.75000    0.00000
 8029.50000    -999.25    5.06050    1.68490    4.25240    4.83210    0.25980    0.21980    1.99390    3.01520    4.90140    0.22910    9.71110    0.29350    9.90920    9.52080    9.83540    9.60430   15.52290 3679.00000    8.75000    0.00000
 8029.00000    -999.25    5.44740    1.82860    4.55330    4.96070    0.25820    0.23070    2.02520    3.17950    5.01160    0.23730    9.71500    0.28730    9.43670    9.48600    9.59180    9.62700   12.59020 3756.00000    8.75000    0.00000
 8028.50000    -999.25    5.60780    1.85410    4.70120    4.93910    0.25240    0.23650    2.00300    3.18990    4.96890    0.24040    9.72030    0.27870    9.34510    9.43970    9.33670    9.63870    9.83270 3815.00000    8.75000    0.00000
 8028.00000    -999.25    5.65460    1.90430    4.70470    4.85120    0.25450    0.24430    1.95310    3.20660    4.87040    0.24690    9.72060    0.28020    9.35810    9.41650    9.32400    9.65040    9.31550 3774.00000    8.75000    0.00000
 8027.50000    -999.25    5.71140    1.96110    4.71690    4.83580    0.25780    0.24930    1.93850    3.25360    4.85190    0.25150    9.72720    0.28560    9.35810    9.39330    9.32530    9.65040    8.85800 3711.00000    8.75000    0.00000
 8027.00000    -999.25    5.69060    1.91460    4.73580    4.87820    0.25420    0.24440    1.96370    3.22400    4.89680    0.24690    9.72680    0.29590    9.39730    9.26560    9.32690    9.56910    6.95770 3800.00000    8.75000    0.00000
 8026.50000    -999.25    6.00700    2.15910    4.86930    4.92490    0.26550    0.26140    1.95370    3.46170    4.93310    0.26250    9.70700    0.32110    9.37150    9.12600    9.31410    9.35730    4.71780 3846.00000    8.75000    0.00000
 8026.00000    -999.25    6.02640    2.14400    4.90680    4.98390    0.26390    0.25840    1.98250    3.46580    4.99500    0.25980    9.68540    0.33770    9.32800    9.06720    9.30130    9.26280    3.96780 3846.00000    8.75000    0.00000
 8025.50000    -999.25    6.21500    2.33260    4.94550    4.99110    0.27380    0.27040    1.96570    3.64320    4.99830    0.27130    9.65490    0.34980    9.33210    9.07940    9.31410    9.26290    3.96780 3740.00000    8.75000    0.00000
 8025.00000    -999.25    6.21790    2.31250    4.96260    4.94230    0.27070    0.27220    1.94180    3.60700    4.93910    0.27180    9.61540    0.36620    9.35810    9.11430    9.29830    9.20270    4.31280 3655.00000    8.75000    0.00000
 8024.50000    -999.25    5.92270    2.01730    4.89620    4.87470    0.25370    0.25520    1.94130    3.31140    4.87180    0.25480    9.58110    0.36100    9.35850    9.11430    9.27270    9.20280    4.65790 3691.00000    8.75000    0.00000
