~Version ---------------------------------------------------
VERS   .                                                                             2.0 : CWLS log ASCII Standard -VERSION 2.0
WRAP   .                                                                              NO : One Line per depth step
PROD   .                                                                    Schlumberger : LAS Producer
PROG   .                                                               DLIS to ASCII 2.2 : LAS Program name and version
CREA   .     2008/03/03 10:39                          :LAS Creation date {YYYY/MM/DD hh : mm}
SOURCE . ARever_Fidelity_Deadwood_Canyon_Ranch_43-28H_3d_Rock_Properties_Final_Data.dlis : DLIS File Name
FILE-ID.                                                  Interpretation Chain - gf_user : File Identification Number
~Well ------------------------------------------------------
STRT.F                              10532.0 : START DEPTH
STOP.F                               7652.5 : STOP DEPTH
STEP.F                                 -0.5 : STEP
NULL.                               -999.25 : NULL VALUE
COMP. FIDELITY EXPLORATION & PRODUCTION CO. : COMPANY
WELL.          Deadwood Canyon Ranch 43-28H : WELL
FLD .                               Wildcat : FIELD
LOC .                                       : LOCATION
CNTY.                             MOUNTRAIL : COUNTY
STAT.                             N. DAKOTA : STATE
CTRY.                                   USA : COUNTRY
API .                          33-061-00581 : API NUMBER
UWI .          Deadwood Canyon Ranch 43-28H : UNIQUE WELL ID
DATE.                                       : LOG DATE
SRVC.                          Schlumberger : SERVICE COMPANY
LATI.DEG                             48.129 : LATITUDE
LONG.DEG                           -102.505 : LONGITUDE
GDAT.                                       : GeoDetic Datum
~Curve Information -----------------------------------------
DEPT              .F     : DEPTH (BOREHOLE) {F10.1}
C13_C44_MULT      .      : C44 Multiplier in C13 Equation {F13.4}
C11_BED_TIV       .6PSI  : Dynamic C11 Modulus wrt Bedding - TIV Model {F13.4}
C13_BED_TIV       .6PSI  : Dynamic C13 Modulus wrt Bedding - TIV Model {F13.4}
YME_DYN_11_BED_TIV.6PSI  : Dynamic Horizontal Youngs Modulus wrt Bedding - TIV Model {F13.4}
YME_DYN_33_BED_TIV.6PSI  : Dynamic Vertical Youngs Modulus wrt Bedding - TIV model {F13.4}
PR_DYN_12_BED_TIV .      : Dynamic Horizontal Poissons Ratio wrt Bedding - TIV Model {F13.4}
PR_DYN_13_BED_TIV .      : Dynamic Vertical Poissons Ratio wrt Bedding - TIV Model {F13.4}
SMG               .6PSI  : Shear Modulus {F13.4}
BMK               .6PSI  : Bulk Modulus - K {F13.4}
YME               .6PSI  : Young's Modulus (E) {F13.4}
PR                .      : Poisson's Ratio {F13.4}
MAXXENE_OVERALL   .      : Overall estimate of maximum cross energy {F13.4}
MINXENE_OVERALL   .      : Overall estimate of minimum cross energy {F13.4}
HD2_PPC2          .IN    : PPC2 Hole Diameter 2 {F13.4}
HD1_PPC2          .IN    : PPC2 Hole Diameter 1 {F13.4}
HD2_PPC1          .IN    : PPC1 Hole Diameter 2 {F13.4}
HD1_PPC1          .IN    : PPC1 Hole Diameter 1 {F13.4}
GR_EDTC           .GAPI  : Gamma Ray {F13.4}
TENS              .LBF   : Cable Tension {F13.4}
BS                .IN    : Bit Size {F13.4}
TDEP              .F     : {F13.4}
~Params ----------------------------------------------------
RUN .               : RUN NUMBER
PDAT.  GROUND LEVEL : Permanent Datum
EPD .F       2111.0 : Elevation of Permanent Datum above Mean Sea Level
EPD .F       2111.0 : Elevation of tool zero above Mean Sea Level
LMF . KELLY BUSHING : Logging Measured From (Name of Logging Elevation Reference)
APD .F         18.0 : Elevation of Depth Reference (LMF) above Permanent Datum
~Other -----------------------------------------------------
~ASCII -----------------------------------------------------
# ...
 9954.50000    -999.25   11.87320    4.65910    9.28270    9.71480    0.28670    0.26930    3.84020    7.22050    9.78580    0.27410    8.82720    0.97080    9.07420    8.83250    9.02250    8.87970   35.18090 4325.00000    8.75000    0.00000
 9954.00000    -999.25   11.93480    4.72100    9.30420    9.86170    0.28980    0.26740    3.90770    7.32780    9.95370    0.27360    8.83450    0.95440    9.07400    8.83250    9.02250    8.87970   29.98450 4340.00000    8.75000    0.00000
 9953.50000    -999.25   12.28740    5.07540    9.37010    9.94030    0.29920    0.27550    3.91520    7.68730   10.04100    0.28230    8.84100    0.94050    9.05670    8.83180    9.02570    8.88110   32.58850 4317.00000    8.75000    0.00000
 9953.00000    -999.25   11.92140    4.69280    9.30900    9.77930    0.28780    0.26890    3.86810    7.27290    9.85680    0.27410    8.84770    0.92150    9.07420    8.83250    9.02250    8.86770   33.96860 4331.00000    8.75000    0.00000
 9952.50000    -999.25   11.62260    4.45160    9.19870    9.73190    0.28280    0.26180    3.87220    7.03460    9.81560    0.26740    8.85990    0.90680    9.06070    8.83250    9.02250    8.91530   37.42770 4270.00000    8.75000    0.00000
 9952.00000    -999.25   11.47860    4.29390    9.19520    9.93550    0.27980    0.25200    3.98870    6.95520   10.04580    0.25930    8.86040    0.89710    9.06100    8.84430    9.02250    8.90340   35.69360 4344.00000    8.75000    0.00000
 9951.50000    -999.25   11.90990    4.20640    9.74740   10.22570    0.26530    0.24880    4.10680    6.94570   10.29200    0.25300    8.87430    0.89500    9.04760    8.83250    9.02250    8.91530   26.90590 4278.00000    8.75000    0.00000
 9951.00000    -999.25   12.70650    4.97110    9.95970   10.56840    0.28750    0.26500    4.19570    7.77000   10.66700    0.27120    8.87910    0.89680    9.03430    8.83250    9.02250    8.89150   19.84280 4309.00000    8.75000    0.00000
 9950.50000    -999.25   13.24740    5.51230   10.07150   10.79790    0.30210    0.27410    4.26140    8.35540   10.92670    0.28200    8.88380    0.89890    9.06100    8.82080    9.02250    8.89150   13.33070 4312.00000    8.75000    0.00000
 9950.00000    -999.25   13.09000    5.35570   10.06380   11.07420    0.30120    0.26390    4.41280    8.30050   11.24560    0.27420    8.88500    0.89670    9.06100    8.82080    9.02250    8.89150   15.91280 4284.00000    8.75000    0.00000
 9949.50000    -999.25   12.17840    4.44450    9.88190   11.05670    0.27770    0.23900    4.49270    7.44300   11.22050    0.24870    8.88970    0.89850    9.05670    8.83180    9.02250    8.89150   18.60300 4301.00000    8.75000    0.00000
 9949.00000    -999.25   11.61110    4.40000    9.29870   10.82600    0.28950    0.23600    4.42000    7.35110   11.04610    0.24960    8.88570    0.90410    9.06100    8.83250    9.02250    8.87970   19.76930 4275.00000    8.75000    0.00000
 9948.50000    -999.25   11.76700    4.55580    9.33000   10.80100    0.29380    0.24110    4.39210    7.48810   11.02130    0.25470    8.87700    0.91440    9.06100    8.83250    9.00960    8.87970   19.59200 4307.00000    8.75000    0.00000
 9948.00000    -999.25   12.74360    4.99210    9.98650   10.64920    0.28830    0.26400    4.23270    7.81580   10.75640    0.27060    8.87370    0.91930    9.04340    8.83180    9.02250    8.87970   18.11170 4247.00000    8.75000    0.00000
 9947.50000    -999.25   12.91360    5.16200   10.01760   10.64760    0.29230    0.26870    4.21600    7.97450   10.75310    0.27530    8.86520    0.92570    9.07420    8.83250    9.02250    8.87970   17.85400 4328.00000    8.75000    0.00000
 9947.00000    -999.25   12.45250    4.70170    9.94110   10.83130    0.28260    0.25160    4.35220    7.60570   10.96510    0.25970    8.85370    0.94060    9.06100    8.83250    9.02250    8.87970   18.89460 4213.00000    8.75000    0.00000
 9946.50000    -999.25   12.06360    4.31330    9.86570   10.98080    0.27290    0.23660    4.46820    7.29530   11.13190    0.24570    8.83930    0.95860    9.06100    8.83250    9.02250    8.87970   15.27930 4288.00000    8.75000    0.00000
 9946.00000    -999.25   12.28840    4.53760    9.90730   10.83890    0.27820    0.24650    4.37300    7.45560   10.97360    0.25470    8.82130    0.97780    9.06520    8.83330    9.02250    8.87970   15.53700 4258.00000    8.75000    0.00000
 9945.50000    -999.25   12.87650    5.10900   10.04650   10.95510    0.29340    0.26050    4.37300    8.02700   11.10280    0.26950    8.80870    1.00080    9.07400    8.83250    9.02250    8.86770   12.77140 4321.00000    8.75000    0.00000
 9945.00000    -999.25   12.84650    5.09560   10.02430   10.92680    0.29330    0.26050    4.36150    8.00580   11.07360    0.26950    8.79900    1.02120    9.06100    8.82080    9.02250    8.87970   16.41400 4288.00000    8.75000    0.00000
 9944.50000    -999.25   12.73900    4.97070    9.99780   10.61100    0.28700    0.26450    4.21440    7.78210   10.71000    0.27060    8.79270    1.04660    9.06520    8.82160    9.02250    8.86770   20.72880 4303.00000    8.75000    0.00000
 9944.00000    -999.25   12.59580    4.84330    9.93300   10.27410    0.28130    0.26850    4.06000    7.55100   10.32890    0.27200    8.77210    1.07250    9.05670    8.83210    9.00960    8.87970   27.28420 4318.00000    8.75000    0.00000
 9943.50000    -999.25   12.21290    4.46020    9.84520   10.09210    0.26990    0.26100    4.00870    7.13340   10.12890    0.26330    8.75840    1.09600    9.06100    8.83250    9.02250    8.87970   29.29450 4294.00000    8.75000    0.00000
 9943.00000    -999.25   12.08760    4.30150    9.84620   10.07600    0.26460    0.25650    4.01590    6.97940   10.10880    0.25860    8.74630    1.11720    9.06100    8.82080    9.02250    8.85570   31.52780 4302.00000    8.75000    0.00000
 9942.50000    -999.25   11.74230    4.52840    9.26270    9.78050    0.28400    0.26360    3.88570    7.12030    9.86290    0.26910    8.75190    1.14760    9.06100    8.83250    9.02250    8.87970   33.08040 4231.00000    8.75000    0.00000
 9942.00000    -999.25   12.39860    4.64500    9.85940    9.76750    0.27160    0.27510    3.82730    7.19620    9.75290    0.27410    8.75630    1.16930    9.07420    8.83250    9.02250    8.87970   34.52930 4350.00000    8.75000    0.00000
 9941.50000    -999.25   12.28030    4.52690    9.84270    9.85460    0.26950    0.26900    3.88310    7.11570    9.85650    0.26910    8.76030    1.18270    9.06100    8.83250    9.02250    8.87970   32.81350 4281.00000    8.75000    0.00000
 9941.00000    -999.25   12.29900    4.54510    9.83530    9.70000    0.26840    0.27360    3.80410    7.08080    9.67890    0.27220    8.76240    1.17750    9.06100    8.82080    9.02250    8.87970   35.91870 4379.00000    8.75000    0.00000
 9940.50000    -999.25   12.18510    4.41440    9.81670    9.55470    0.26330    0.27320    3.74450    6.91000    9.51480    0.27050    8.76810    1.18520    9.06520    8.83330    9.02250    8.86770   39.57170 4308.00000    8.75000    0.00000
 9940.00000    -999.25   11.71950    3.96540    9.69800    9.46270    0.25070    0.25910    3.75150    6.46580    9.43060    0.25690    8.78060    1.20380    9.07400    8.83250    9.02250    8.87970   43.35600 4356.00000    8.75000    0.00000
 9939.50000    -999.25   11.59180    3.82110    9.68050    9.43310    0.24580    0.25440    3.75370    6.32290    9.40070    0.25220    8.80370    1.23610    9.06100    8.83250    9.00960    8.86770   42.14850 4314.00000    8.75000    0.00000
 9939.00000    -999.25   11.76450    4.01070    9.71700    9.60160    0.25320    0.25730    3.81530    6.55390    9.58570    0.25620    8.80740    1.24740    9.06100    8.82080    9.00960    8.87970   40.70180 4314.00000    8.75000    0.00000
 9938.50000    -999.25   12.54050    4.78670    9.88290    9.72850    0.27460    0.28060    3.79350    7.31520    9.70310    0.27890    8.81450    1.26610    9.05670    8.83180    9.02250    8.87970   35.10450 4293.00000    8.75000    0.00000
