~Version ---------------------------------------------------
VERS   .                                                                             2.0 : CWLS log ASCII Standard -VERSION 2.0
WRAP   .                                                                              NO : One Line per depth step
PROD   .                                                                    Schlumberger : LAS Producer
PROG   .                                                               DLIS to ASCII 2.2 : LAS Program name and version
CREA   .     2008/03/03 10:39                          :LAS Creation date {YYYY/MM/DD hh : mm}
SOURCE . ARever_Fidelity_Deadwood_Canyon_Ranch_43-28H_3d_Rock_Properties_Final_Data.dlis : DLIS File Name
FILE-ID.                                                  Interpretation Chain - gf_user : File Identification Number
~Well ------------------------------------------------------
STRT.F                              10532.0 : START DEPTH
STOP.F                               7652.5 : STOP DEPTH
STEP.F                                 -0.5 : STEP
NULL.                               -999.25 : NULL VALUE
COMP. FIDELITY EXPLORATION & PRODUCTION CO. : COMPANY
WELL.          Deadwood Canyon Ranch 43-28H : WELL
FLD .                               Wildcat : FIELD
LOC .                                       : LOCATION
CNTY.                             MOUNTRAIL : COUNTY
STAT.                             N. DAKOTA : STATE
CTRY.                                   USA : COUNTRY
API .                          33-061-00581 : API NUMBER
UWI .          Deadwood Canyon Ranch 43-28H : UNIQUE WELL ID
DATE.                                       : LOG DATE
SRVC.                          Schlumberger : SERVICE COMPANY
LATI.DEG                             48.129 : LATITUDE
LONG.DEG                           -102.505 : LONGITUDE
GDAT.                                       : GeoDetic Datum
~Curve Information -----------------------------------------
DEPT              .F     : DEPTH (BOREHOLE) {F10.1}
C13_C44_MULT      .      : C44 Multiplier in C13 Equation {F13.4}
C11_BED_TIV       .6PSI  : Dynamic C11 Modulus wrt Bedding - TIV Model {F13.4}
C13_BED_TIV       .6PSI  : Dynamic C13 Modulus wrt Bedding - TIV Model {F13.4}
YME_DYN_11_BED_TIV.6PSI  : Dynamic Horizontal Youngs Modulus wrt Bedding - TIV Model {F13.4}
YME_DYN_33_BED_TIV.6PSI  : Dynamic Vertical Youngs Modulus wrt Bedding - TIV model {F13.4}
PR_DYN_12_BED_TIV .      : Dynamic Horizontal Poissons Ratio wrt Bedding - TIV Model {F13.4}
PR_DYN_13_BED_TIV .      : Dynamic Vertical Poissons Ratio wrt Bedding - TIV Model {F13.4}
SMG               .6PSI  : Shear Modulus {F13.4}
BMK               .6PSI  : Bulk Modulus - K {F13.4}
YME               .6PSI  : Young's Modulus (E) {F13.4}
PR                .      : Poisson's Ratio {F13.4}
MAXXENE_OVERALL   .      : Overall estimate of maximum cross energy {F13.4}
MINXENE_OVERALL   .      : Overall estimate of minimum cross energy {F13.4}
HD2_PPC2          .IN    : PPC2 Hole Diameter 2 {F13.4}
HD1_PPC2          .IN    : PPC2 Hole Diameter 1 {F13.4}
HD2_PPC1          .IN    : PPC1 Hole Diameter 2 {F13.4}
HD1_PPC1          .IN    : PPC1 Hole Diameter 1 {F13.4}
GR_EDTC           .GAPI  : Gamma Ray {F13.4}
TENS              .LBF   : Cable Tension {F13.4}
BS                .IN    : Bit Size {F13.4}
TDEP              .F     : {F13.4}
~Params ----------------------------------------------------
RUN .               : RUN NUMBER
PDAT.  GROUND LEVEL : Permanent Datum
EPD .F       2111.0 : Elevation of Permanent Datum above Mean Sea Level
EPD .F       2111.0 : Elevation of tool zero above Mean Sea Level
LMF . KELLY BUSHING : Logging Measured From (Name of Logging Elevation Reference)
APD .F         18.0 : Elevation of Depth Reference (LMF) above Permanent Datum
~Other -----------------------------------------------------
~ASCII -----------------------------------------------------
# ...
 7859.00000    -999.25   10.42660    4.33700    8.02190    9.93690    0.31730    0.23710    4.07280    7.05460   10.24660    0.25790    9.95590    0.20200    9.09570    9.11440    9.08370    9.06180   28.82640 3691.00000    8.75000    0.00000
 7858.50000    -999.25   10.78190    4.69190    8.06410    9.58410    0.32410    0.25510    3.86780    7.27230    9.85600    0.27410    9.92620    0.18720    9.09570    9.07940    9.08050    9.06180   30.55150 3706.00000    8.75000    0.00000
 7858.00000    -999.25   10.99590    5.23620    7.75420    9.17030    0.34630    0.27280    3.65520    7.67490    9.46340    0.29450    9.88220    0.17930    9.09150    9.09060    9.09650    9.04990   27.78470 3728.00000    8.75000    0.00000
 7857.50000    -999.25   10.52190    5.10120    7.35720    9.12830    0.35720    0.26320    3.67800    7.55550    9.49360    0.29060    9.79940    0.17730    9.10900    9.07940    9.08370    9.09730   22.14710 3679.00000    8.75000    0.00000
 7857.00000    -999.25   10.06420    4.91650    7.02000    9.01750    0.36370    0.25550    3.66280    7.36090    9.42500    0.28660    9.70620    0.17460    9.08240    9.11440    9.09650    9.09730   21.45700 3671.00000    8.75000    0.00000
 7856.50000    -999.25    9.80740    4.78630    6.85420    8.92330    0.36510    0.25190    3.63700    7.21360    9.34110    0.28420    9.70760    0.20420    9.08260    9.11440    9.08370    9.09730   20.06660 3699.00000    8.75000    0.00000
 7856.00000    -999.25    9.70250    4.55450    6.95630    8.83070    0.35130    0.25170    3.59190    6.95150    9.19240    0.27960    9.70810    0.22910    9.09570    9.09100    9.09330    9.09730   19.66630 3724.00000    8.75000    0.00000
 7855.50000    -999.25    9.62380    4.46830    6.94250    8.68440    0.34660    0.25350    3.52380    6.81970    9.01810    0.27960    9.71050    0.25540    9.09150    9.10220    9.09650    9.08550   17.21860 3700.00000    8.75000    0.00000
 7855.00000    -999.25    9.94850    4.52650    7.24750    8.71570    0.33670    0.26000    3.50920    6.86780    8.99540    0.28170    9.70620    0.27300    9.09570    9.09100    9.09330    9.09600   18.08120 3699.00000    8.75000    0.00000
 7854.50000    -999.25    9.82300    4.68970    6.95070    8.69220    0.35410    0.25840    3.51560    7.03570    9.04100    0.28580    9.71200    0.28890    9.10900    9.10270    9.10930    9.12100   17.04920 3664.00000    8.75000    0.00000
 7854.00000    -999.25    9.96900    4.85040    6.95800    8.71210    0.35940    0.26140    3.51730    7.19750    9.07380    0.28990    9.72880    0.30290    9.10900    9.09100    9.09650    9.14460   14.66300 3679.00000    8.75000    0.00000
 7853.50000    -999.25   10.27790    5.17380    6.98600    8.74120    0.36870    0.26760    3.51500    7.51930    9.12330    0.29780    9.75010    0.31410    9.12200    9.11440    9.09650    9.16830   12.24780 3687.00000    8.75000    0.00000
 7853.00000    -999.25   10.25920    5.15440    6.99160    8.84500    0.36960    0.26430    3.56780    7.53530    9.24450    0.29550    9.77350    0.32200    9.10900    9.12600    9.11900    9.16710   12.04550 3742.00000    8.75000    0.00000
 7852.50000    -999.25   10.21880    5.11480    6.99030    8.91230    0.36960    0.26160    3.60370    7.51960    9.32200    0.29340    9.78490    0.32940    9.10900    9.11440    9.09650    9.16830   11.01410 3699.00000    8.75000    0.00000
 7852.00000    -999.25   10.40190    5.29790    7.01580    8.94920    0.37460    0.26450    3.61220    7.70840    9.37270    0.29730    9.81050    0.33300    9.10900    9.12600    9.09650    9.16830   11.70420 3681.00000    8.75000    0.00000
 7851.50000    -999.25   10.40610    5.30210    7.01680    8.95540    0.37480    0.26450    3.61510    7.71450    9.38010    0.29730    9.83310    0.33330    9.09570    9.12600    9.10780    9.16830   10.69570 3732.00000    8.75000    0.00000
 7851.00000    -999.25   10.30080    5.19620    7.01120    9.05630    0.37350    0.25960    3.67110    7.64610    9.49380    0.29310    9.86570    0.33190    9.09990    9.13810    9.09330    9.16710   11.21330 3729.00000    8.75000    0.00000
 7850.50000    -999.25   10.18460    5.08080    7.00130    9.14780    0.37180    0.25470    3.72320    7.56560    9.59560    0.28860    9.88470    0.32830    9.09990    9.13810    9.09650    9.16830   11.81610 3688.00000    8.75000    0.00000
 7850.00000    -999.25   10.34580    4.96450    7.30600    9.30210    0.35760    0.25470    3.77740    7.48510    9.70030    0.28400    9.90320    0.32350    9.09990    9.11480    9.08050    9.15530   15.78390 3597.00000    8.75000    0.00000
 7849.50000    -999.25   10.22030    4.84770    7.28560    9.40020    0.35600    0.24930    3.83460    7.40660    9.81060    0.27920    9.92790    0.31810    9.09570    9.11440    9.08370    9.16830   16.99140 3611.00000    8.75000    0.00000
 7849.00000    -999.25   10.62260    4.89040    7.68930    9.38160    0.34140    0.25840    3.78620    7.41660    9.70690    0.28190    9.93180    0.31180    9.07850    9.03270    9.06930    9.08550   19.11620 3625.00000    8.75000    0.00000
 7848.50000    -999.25   10.28390    4.53360    7.64540    9.26710    0.32960    0.25240    3.75290    7.03750    9.55930    0.27360    9.93560    0.30540    9.09570    8.99770    9.07080    9.06180   16.70110 3639.00000    8.75000    0.00000
 7848.00000    -999.25   10.27740    4.50860    7.65690    9.19440    0.32730    0.25390    3.71670    6.98830    9.47110    0.27410    9.94600    0.29930    9.09570    8.99770    9.07080    9.03810   17.56360 3583.00000    8.75000    0.00000
 7847.50000    -999.25   10.16740    4.68710    7.35690    9.02450    0.34240    0.25720    3.64660    7.12030    9.34450    0.28130    9.95170    0.28820    9.08260    8.99770    9.06760    9.01310   14.45870 3649.00000    8.75000    0.00000
 7847.00000    -999.25   10.42990    4.95790    7.38220    8.95510    0.34910    0.26560    3.59500    7.35660    9.27440    0.28990    9.95570    0.27020    9.08260    8.99770    9.06750    9.02490   14.80370 3669.00000    8.75000    0.00000
 7846.50000    -999.25   10.10710    5.05670    6.91270    8.76530    0.36870    0.26300    3.53940    7.41860    9.16130    0.29420    9.95770    0.25230    9.12640    9.04490    9.08040    9.04990   11.35350 3730.00000    8.75000    0.00000
 7846.00000    -999.25    9.57170    4.98960    6.36110    8.54060    0.38820    0.25520    3.48380    7.31500    9.01960    0.29450    9.95180    0.21580    9.12220    9.07940    9.09640    9.07360    9.66070 3679.00000    8.75000    0.00000
 7845.50000    -999.25    9.35380    4.78950    6.31080    8.45590    0.38260    0.25270    3.45370    7.09480    8.91470    0.29060    9.94460    0.18640    9.13940    9.10320    9.11890    9.10780    9.42360 3578.00000    8.75000    0.00000
 7845.00000    -999.25    9.30260    4.75100    6.28750    8.39350    0.38140    0.25320    3.42600    7.03780    8.84310    0.29060    9.94150    0.16280    9.14850    9.13770    9.12200    9.13270    9.94110 3634.00000    8.75000    0.00000
 7844.50000    -999.25    9.33260    4.81060    6.25160    8.24120    0.38250    0.25800    3.35030    7.04670    8.67590    0.29480    9.94130    0.14770    9.13530    9.17260    9.13490    9.19190   11.83880 3702.00000    8.75000    0.00000
 7844.00000    -999.25    9.29400    4.80560    6.21180    8.22620    0.38400    0.25740    3.34690    7.03960    8.66710    0.29480    9.93520    0.13560    9.13960    9.16140    9.14460    9.26170   10.35070 3605.00000    8.75000    0.00000
 7843.50000    -999.25    9.27520    4.79800    6.19740    8.21220    0.38420    0.25730    3.34150    7.02830    8.65330    0.29480    9.93610    0.12560    9.12220    9.23080    9.13170    9.28520    9.20470 3659.00000    8.75000    0.00000
 7843.00000    -999.25    9.24090    4.79140    6.16410    8.19600    0.38530    0.25680    3.33700    7.01880    8.64150    0.29480    9.93380    0.12110    9.12220    9.30050    9.13490    9.34530    8.34210 3652.00000    8.75000    0.00000
