~Version ---------------------------------------------------
VERS   .                                                                             2.0 : CWLS log ASCII Standard -VERSION 2.0
WRAP   .                                                                              NO : One Line per depth step
PROD   .                                                                    Schlumberger : LAS Producer
PROG   .                                                               DLIS to ASCII 2.2 : LAS Program name and version
CREA   .     2008/03/03 10:39                          :LAS Creation date {YYYY/MM/DD hh : mm}
SOURCE . ARever_Fidelity_Deadwood_Canyon_Ranch_43-28H_3d_Rock_Properties_Final_Data.dlis : DLIS File Name
FILE-ID.                                                  Interpretation Chain - gf_user : File Identification Number
~Well ------------------------------------------------------
STRT.F                              10532.0 : START DEPTH
STOP.F                               7652.5 : STOP DEPTH
STEP.F                                 -0.5 : STEP
NULL.                               -999.25 : NULL VALUE
COMP. FIDELITY EXPLORATION & PRODUCTION CO. : COMPANY
WELL.          Deadwood Canyon Ranch 43-28H : WELL
FLD .                               Wildcat : FIELD
LOC .                                       : LOCATION
CNTY.                             MOUNTRAIL : COUNTY
STAT.                             N. DAKOTA : STATE
CTRY.                                   USA : COUNTRY
API .                          33-061-00581 : API NUMBER
UWI .          Deadwood Canyon Ranch 43-28H : UNIQUE WELL ID
DATE.                                       : LOG DATE
SRVC.                          Schlumberger : SERVICE COMPANY
LATI.DEG                             48.129 : LATITUDE
LONG.DEG                           -102.505 : LONGITUDE
GDAT.                                       : GeoDetic Datum
~Curve Information -----------------------------------------
DEPT              .F     : DEPTH (BOREHOLE) {F10.1}
C13_C44_MULT      .      : C44 Multiplier in C13 Equation {F13.4}
C11_BED_TIV       .6PSI  : Dynamic C11 Modulus wrt Bedding - TIV Model {F13.4}
C13_BED_TIV       .6PSI  : Dynamic C13 Modulus wrt Bedding - TIV Model {F13.4}
YME_DYN_11_BED_TIV.6PSI  : Dynamic Horizontal Youngs Modulus wrt Bedding - TIV Model {F13.4}
YME_DYN_33_BED_TIV.6PSI  : Dynamic Vertical Youngs Modulus wrt Bedding - TIV model {F13.4}
PR_DYN_12_BED_TIV .      : Dynamic Horizontal Poissons Ratio wrt Bedding - TIV Model {F13.4}
PR_DYN_13_BED_TIV .      : Dynamic Vertical Poissons Ratio wrt Bedding - TIV Model {F13.4}
SMG               .6PSI  : Shear Modulus {F13.4}
BMK               .6PSI  : Bulk Modulus - K {F13.4}
YME               .6PSI  : Young's Modulus (E) {F13.4}
PR                .      : Poisson's Ratio {F13.4}
MAXXENE_OVERALL   .      : Overall estimate of maximum cross energy {F13.4}
MINXENE_OVERALL   .      : Overall estimate of minimum cross energy {F13.4}
HD2_PPC2          .IN    : PPC2 Hole Diameter 2 {F13.4}
HD1_PPC2          .IN    : PPC2 Hole Diameter 1 {F13.4}
HD2_PPC1          .IN    : PPC1 Hole Diameter 2 {F13.4}
HD1_PPC1          .IN    : PPC1 Hole Diameter 1 {F13.4}
GR_EDTC           .GAPI  : Gamma Ray {F13.4}
TENS              .LBF   : Cable Tension {F13.4}
BS                .IN    : Bit Size {F13.4}
TDEP              .F     : {F13.4}
~Params ----------------------------------------------------
RUN .               : RUN NUMBER
PDAT.  GROUND LEVEL : Permanent Datum
EPD .F       2111.0 : Elevation of Permanent Datum above Mean Sea Level
EPD .F       2111.0 : Elevation of tool zero above Mean Sea Level
LMF . KELLY BUSHING : Logging Measured From (Name of Logging Elevation Reference)
APD .F         18.0 : Elevation of Depth Reference (LMF) above Permanent Datum
~Other -----------------------------------------------------
~ASCII -----------------------------------------------------
# ...
 9195.50000    -999.25   14.36430    5.83930   11.07740   12.14940    0.29940    0.26350    4.83960    9.07190   12.32680    0.27350   20.56970    1.77800    9.06100    8.83250    9.03860    8.89300   17.72790 4085.00000    8.75000    0.00000
 9195.00000    -999.25   14.92060    6.39640   11.18990   12.41090    0.31270    0.27050    4.92300    9.68550   12.62920    0.28270   20.56750    1.76150    9.06520    8.84500    9.03860    8.89300   16.19570 4057.00000    8.75000    0.00000
 9194.50000    -999.25   14.18840    5.66420   11.05220   12.26270    0.29660    0.25710    4.91180    8.94570   12.45570    0.26790   20.56380    1.74040    9.06520    8.84500    9.01280    8.89300   15.76550 4007.00000    8.75000    0.00000
 9194.00000    -999.25   13.58540    5.06230   10.93760   12.38440    0.28330    0.23980    5.03110    8.42480   12.58770    0.25100   20.55300    1.70340    9.06940    8.82230    9.03860    8.89300   14.40580 4073.00000    8.75000    0.00000
 9193.50000    -999.25   13.74410    5.22010   10.96230   12.22340    0.28600    0.24690    4.93490    8.51730   12.40820    0.25720   20.52570    1.66620    9.07850    8.83330    9.03860    8.89300   12.84300 4052.00000    8.75000    0.00000
 9193.00000    -999.25   13.52630    4.98270   10.92820   12.14270    0.27910    0.24230    4.91790    8.26830   12.31250    0.25180   20.20430    1.63400    9.05210    8.82160    9.02570    8.88100   11.02040 4076.00000    8.75000    0.00000
 9192.50000    -999.25   11.99870    3.47530   10.50140   11.86440    0.23210    0.19880    4.97120    6.79710   11.99050    0.20600   19.58320    1.61130    9.06520    8.83330    9.02570    8.89300   10.84610 4050.00000    8.75000    0.00000
 9192.00000    -999.25   12.20080    3.65840   10.58330   12.01410    0.23890    0.20320    5.01780    7.01160   12.15400    0.21110   18.84790    1.59000    9.04790    8.80910    9.02570    8.88110   11.37380 4073.00000    8.75000    0.00000
 9191.50000    -999.25   12.52960    4.00540   10.65740   11.88670    0.25020    0.21720    4.90740    7.28400   12.02240    0.22490   18.07560    1.57420    9.06520    8.82160    9.02570    8.89300   15.74320 4069.00000    8.75000    0.00000
 9191.00000    -999.25   13.09050    4.56500   10.79550   11.80310    0.26630    0.23650    4.79650    7.76850   11.93350    0.24400   17.19480    1.56600    9.06520    8.80980    9.01280    8.89300   17.64270 4057.00000    8.75000    0.00000
 9190.50000    -999.25   13.29890    4.75350   10.85650   11.74600    0.27040    0.24340    4.74540    7.92210   11.86670    0.25030   16.27970    1.56010    9.07850    8.82160    9.02570    8.88110   20.93820 4056.00000    8.75000    0.00000
 9190.00000    -999.25   12.41580    3.89000   10.61290   11.57810    0.24480    0.21870    4.76940    7.07500   11.68290    0.22480   15.35120    1.50050    9.06520    8.82160    9.03860    8.89300   19.11990 4068.00000    8.75000    0.00000
 9189.50000    -999.25   12.06670    3.52170   10.52220   11.47330    0.23140    0.20720    4.76880    6.70610   11.56500    0.21260   14.38700    1.48820    9.06520    8.83330    9.02570    8.88110   17.91240 4064.00000    8.75000    0.00000
 9189.00000    -999.25   13.08410    4.55840   10.78920   11.71690    0.26550    0.23790    4.75440    7.73330   11.83740    0.24490   13.44410    1.48780    9.06100    8.83250    9.02570    8.89300   16.82000 4122.00000    8.75000    0.00000
 9188.50000    -999.25   13.28120    4.75550   10.83610   11.74790    0.27100    0.24320    4.74750    7.92560   11.87200    0.25030   12.57870    1.48980    9.06100    8.80910    9.02570    8.89300   17.21410 4091.00000    8.75000    0.00000
 9188.00000    -999.25   14.10730    4.83160   11.66930   12.07470    0.25800    0.24650    4.85300    8.06920   12.12780    0.24950   11.73660    1.54150    9.09150    8.82160    9.02900    8.89440   18.42310 4104.00000    8.75000    0.00000
 9187.50000    -999.25   13.63970    4.36190   11.55810   12.10040    0.24580    0.23140    4.92470    7.64810   12.16330    0.23490   10.93540    1.56270    9.07850    8.80980    9.02570    8.89300   17.25130 4098.00000    8.75000    0.00000
 9187.00000    -999.25   13.75150    4.47370   11.58720   12.11100    0.24890    0.23490    4.91530    7.75350   12.17350    0.23830   10.15460    1.55210    9.07850    8.82160    9.01280    8.89300   15.58050 4075.00000    8.75000    0.00000
 9186.50000    -999.25   14.20970    4.90960   11.72400   12.25530    0.26060    0.24570    4.93210    8.20060   12.32530    0.24950    9.66440    1.56060    9.07850    8.79810    9.03860    8.88110   13.93920 4084.00000    8.75000    0.00000
 9186.00000    -999.25   14.04620    4.74680   11.69330   12.39770    0.25740    0.23820    5.02250    8.09910   12.48630    0.24310    9.68010    1.61040    9.06520    8.80980    9.01280    8.88110   12.04420 4092.00000    8.75000    0.00000
 9185.50000    -999.25   14.21830    4.91820   11.72720   12.27490    0.26100    0.24550    4.94080    8.21520   12.34720    0.24950    9.72540    1.64770    9.07420    8.80910    9.02570    8.88110   12.50510 4085.00000    8.75000    0.00000
 9185.00000    -999.25   14.21710    4.91700   11.72670   12.27200    0.26090    0.24560    4.93950    8.21300   12.34400    0.24950    9.76430    1.65450    9.06520    8.80980    9.02570    8.88110   13.41780 4058.00000    8.75000    0.00000
 9184.50000    -999.25   13.94160    5.37890   11.04190   12.31810    0.28950    0.24960    4.96350    8.69510   12.51010    0.26020    9.80630    1.65650    9.11790    8.83330    9.03860    8.86920   14.79730 4067.00000    8.75000    0.00000
 9184.00000    -999.25   14.17590    5.63320   11.07590   12.40980    0.29650    0.25380    4.98650    8.96500   12.61970    0.26540    9.85610    1.64770    9.10460    8.82160    9.05150    8.88110   14.52040 4083.00000    8.75000    0.00000
 9183.50000    -999.25   14.94350    5.64400   11.89810   12.53840    0.27940    0.26010    4.99270    8.97610   12.63530    0.26540    9.91220    1.63220    9.11790    8.83330    9.03860    8.88110   11.79730 4075.00000    8.75000    0.00000
 9183.00000    -999.25   13.92220    4.64530   11.64170   12.34280    0.25490    0.23600    5.00900    7.98860   12.42920    0.24070    9.97410    1.61330    9.11790    8.82160    9.02570    8.89300   11.62490 4063.00000    8.75000    0.00000
 9182.50000    -999.25   12.45480    3.91250   10.66190   12.13160    0.24810    0.21010    5.04080    7.28110   12.28690    0.21870   10.02480    1.58860    9.10480    8.82160    9.03860    8.88110   10.34990 4000.00000    8.75000    0.00000
 9182.00000    -999.25   12.30300    3.75970   10.60880   11.89120    0.24180    0.20880    4.94230    7.06160   12.02210    0.21630   10.07530    1.55520    9.10480    8.84500    9.05150    8.88110   12.42210 4081.00000    8.75000    0.00000
 9181.50000    -999.25   12.65120    4.10700   10.70080   11.78720    0.25240    0.22250    4.84360    7.34210   11.91150    0.22960   10.11180    1.51820    9.08730    8.83250    9.02570    8.88110   12.64330 4061.00000    8.75000    0.00000
 9181.00000    -999.25   13.15100    4.62620   10.81700   11.94710    0.26890    0.23560    4.86120    7.87330   12.09450    0.24400   10.15130    1.46480    9.11790    8.83330    9.03860    8.89300   13.67590 4043.00000    8.75000    0.00000
 9180.50000    -999.25   13.16090    4.61880   10.82890   11.86030    0.26770    0.23720    4.81780    7.83640   11.99520    0.24490   10.18510    1.39340    9.11790    8.83330    9.05470    8.88260   12.68590 4079.00000    8.75000    0.00000
 9180.00000    -999.25   14.37610    5.83170   11.09600   12.13770    0.29860    0.26380    4.83300    9.05960   12.31010    0.27350   10.22110    1.28150    9.09150    8.83330    9.02570    8.88110   11.04840 4038.00000    8.75000    0.00000
 9179.50000    -999.25   14.26450    5.72020   11.07480   12.12350    0.29620    0.26150    4.83600    8.95000   12.29380    0.27110   10.26090    1.16560    9.10880    8.83370    9.03860    8.88110   11.22090 4027.00000    8.75000    0.00000
