~Version ---------------------------------------------------
VERS   .                                                                             2.0 : CWLS log ASCII Standard -VERSION 2.0
WRAP   .                                                                              NO : One Line per depth step
PROD   .                                                                    Schlumberger : LAS Producer
PROG   .                                                               DLIS to ASCII 2.2 : LAS Program name and version
CREA   .     2008/03/03 10:39                          :LAS Creation date {YYYY/MM/DD hh : mm}
SOURCE . ARever_Fidelity_Deadwood_Canyon_Ranch_43-28H_3d_Rock_Properties_Final_Data.dlis : DLIS File Name
FILE-ID.                                                  Interpretation Chain - gf_user : File Identification Number
~Well ------------------------------------------------------
STRT.F                              10532.0 : START DEPTH
STOP.F                               7652.5 : STOP DEPTH
STEP.F                                 -0.5 : STEP
NULL.                               -999.25 : NULL VALUE
COMP. FIDELITY EXPLORATION & PRODUCTION CO. : COMPANY
WELL.          Deadwood Canyon Ranch 43-28H : WELL
FLD .                               Wildcat : FIELD
LOC .                                       : LOCATION
CNTY.                             MOUNTRAIL : COUNTY
STAT.                             N. DAKOTA : STATE
CTRY.                                   USA : COUNTRY
API .                          33-061-00581 : API NUMBER
UWI .          Deadwood Canyon Ranch 43-28H : UNIQUE WELL ID
DATE.                                       : LOG DATE
SRVC.                          Schlumberger : SERVICE COMPANY
LATI.DEG                             48.129 : LATITUDE
LONG.DEG                           -102.505 : LONGITUDE
GDAT.                                       : GeoDetic Datum
~Curve Information -----------------------------------------
DEPT              .F     : DEPTH (BOREHOLE) {F10.1}
C13_C44_MULT      .      : C44 Multiplier in C13 Equation {F13.4}
C11_BED_TIV       .6PSI  : Dynamic C11 Modulus wrt Bedding - TIV Model {F13.4}
C13_BED_TIV       .6PSI  : Dynamic C13 Modulus wrt Bedding - TIV Model {F13.4}
YME_DYN_11_BED_TIV.6PSI  : Dynamic Horizontal Youngs Modulus wrt Bedding - TIV Model {F13.4}
YME_DYN_33_BED_TIV.6PSI  : Dynamic Vertical Youngs Modulus wrt Bedding - TIV model {F13.4}
PR_DYN_12_BED_TIV .      : Dynamic Horizontal Poissons Ratio wrt Bedding - TIV Model {F13.4}
PR_DYN_13_BED_TIV .      : Dynamic Vertical Poissons Ratio wrt Bedding - TIV Model {F13.4}
SMG               .6PSI  : Shear Modulus {F13.4}
BMK               .6PSI  : Bulk Modulus - K {F13.4}
YME               .6PSI  : Young's Modulus (E) {F13.4}
PR                .      : Poisson's Ratio {F13.4}
MAXXENE_OVERALL   .      : Overall estimate of maximum cross energy {F13.4}
MINXENE_OVERALL   .      : Overall estimate of minimum cross energy {F13.4}
HD2_PPC2          .IN    : PPC2 Hole Diameter 2 {F13.4}
HD1_PPC2          .IN    : PPC2 Hole Diameter 1 {F13.4}
HD2_PPC1          .IN    : PPC1 Hole Diameter 2 {F13.4}
HD1_PPC1          .IN    : PPC1 Hole Diameter 1 {F13.4}
GR_EDTC           .GAPI  : Gamma Ray {F13.4}
TENS              .LBF   : Cable Tension {F13.4}
BS                .IN    : Bit Size {F13.4}
TDEP              .F     : {F13.4}
~Params ----------------------------------------------------
RUN .               : RUN NUMBER
PDAT.  GROUND LEVEL : Permanent Datum
EPD .F       2111.0 : Elevation of Permanent Datum above Mean Sea Level
EPD .F       2111.0 : Elevation of tool zero above Mean Sea Level
LMF . KELLY BUSHING : Logging Measured From (Name of Logging Elevation Reference)
APD .F         18.0 : Elevation of Depth Reference (LMF) above Permanent Datum
~Other -----------------------------------------------------
~ASCII -----------------------------------------------------
# ...
 10334.00000    -999.25   11.51010    3.51430    9.78350    8.54710    0.22360    0.26770    3.33920    5.73880    8.39030    0.25630    9.05440    0.78850    9.03460    8.80910    9.03860    8.83350   52.74650 4629.00000    8.75000    0.00000
 10333.50000    -999.25   11.45160    3.45330    9.75830    8.36440    0.22000    0.27030    3.25650    5.62260    8.18870    0.25730    9.07390    0.76000    9.03430    8.83250    9.04820    8.83200   59.45780 4605.00000    8.75000    0.00000
 10333.00000    -999.25   11.20330    3.20720    9.68810    8.26600    0.21160    0.26090    3.24410    5.36820    8.10050    0.24850    9.10360    0.74730    9.03460    8.82080    9.03860    8.83350   71.85570 4625.00000    8.75000    0.00000
 10332.50000    -999.25   10.87400    2.87540    9.58130    7.96180    0.19790    0.25170    3.14550    4.97040    7.79270    0.23870    9.11600    0.73060    9.04760    8.83250    9.03530    8.83200   76.48150 4592.00000    8.75000    0.00000
 10332.00000    -999.25   10.44370    2.47990    9.40740    7.62920    0.18130    0.23660    3.05160    4.51210    7.47070    0.22410    9.16020    0.71790    9.03480    8.80910    9.03530    8.85580   72.16020 4556.00000    8.75000    0.00000
 10331.50000    -999.25   10.48990    2.49120    9.45140    7.71030    0.18160    0.23520    3.08870    4.54820    7.55570    0.22310    9.18260    0.70410    9.04760    8.84430    9.03530    8.83200   64.17330 4582.00000    8.75000    0.00000
 10331.00000    -999.25   10.57750    2.57900    9.49130    7.93360    0.18660    0.23450    3.18380    4.69960    7.79190    0.22370    9.21640    0.67620    9.02150    8.80910    9.03530    8.83200   60.44130 4539.00000    8.75000    0.00000
 10330.50000    -999.25   10.67630    2.68030    9.53590    8.21700    0.19260    0.23290    3.30700    4.88330    8.09400    0.22380    9.25560    0.65080    9.04760    8.82080    9.03860    8.83350   57.15740 4537.00000    8.75000    0.00000
 10330.00000    -999.25   11.92110    3.25750   10.40890    8.50170    0.20150    0.26280    3.32240    5.47000    8.28900    0.24740    9.27700    0.62280    9.03480    8.79730    9.03530    8.83200   55.31160 4561.00000    8.75000    0.00000
 10329.50000    -999.25   12.28930    3.62550   10.49780    8.46700    0.21170    0.28240    3.24800    5.78820    8.20850    0.26360    9.28060    0.59830    9.03460    8.78560    9.03530    8.83200   54.42430 4546.00000    8.75000    0.00000
 10329.00000    -999.25   11.56550    3.56690    9.77610    8.24700    0.22220    0.27940    3.18180    5.68610    8.04490    0.26420    9.29550    0.58450    9.00810    8.79730    9.03530    8.83200   60.38260 4647.00000    8.75000    0.00000
 10328.50000    -999.25   10.51710    3.09240    9.03610    7.83990    0.21700    0.26190    3.07720    5.14230    7.69640    0.25060    9.31880    0.57410    9.03430    8.78560    9.03860    8.83350   65.51280 4645.00000    8.75000    0.00000
 10328.00000    -999.25   10.04410    2.61740    8.89750    7.66240    0.19800    0.24000    3.06440    4.65870    7.54000    0.23030    9.33600    0.55600    9.02150    8.82080    9.03530    8.83200   68.93990 4587.00000    8.75000    0.00000
 10327.50000    -999.25   10.05430    2.62760    8.90210    7.69000    0.19870    0.23990    3.07640    4.67700    7.56950    0.23030    9.35780    0.53360    9.04760    8.79730    9.03860    8.83200   64.47120 4528.00000    8.75000    0.00000
 10327.00000    -999.25   10.85820    2.85950    9.57440    7.92120    0.19700    0.25200    3.12800    4.94270    7.74920    0.23870    9.37710    0.50820    9.03460    8.79730    9.03530    8.83200   63.76140 4624.00000    8.75000    0.00000
 10326.50000    -999.25   10.97710    2.97850    9.61170    7.98900    0.20170    0.25680    3.14200    5.07100    7.81250    0.24320    9.40280    0.47940    9.02120    8.82080    9.03530    8.83200   65.91440 4519.00000    8.75000    0.00000
 10326.00000    -999.25   11.13140    3.13260    9.65240    7.98770    0.20670    0.26540    3.11660    5.20820    7.79500    0.25060    9.41970    0.45470    9.02150    8.79730    9.03530    8.83200   73.80920 4558.00000    8.75000    0.00000
 10325.50000    -999.25   11.17180    3.17290    9.64850    7.79170    0.20620    0.27390    3.01240    5.17870    7.56950    0.25640    9.44110    0.42780    9.02120    8.82080    9.02250    8.83200   76.95010 4618.00000    8.75000    0.00000
 10325.00000    -999.25   10.26860    2.84360    8.95510    7.59230    0.20610    0.25580    2.99190    4.83650    7.44130    0.24360    9.45980    0.40800    9.00830    8.79730    9.02570    8.83350   78.95110 4635.00000    8.75000    0.00000
 10324.50000    -999.25   10.00250    2.57750    8.87170    7.45240    0.19480    0.24390    2.96650    4.55330    7.31160    0.23240    9.47730    0.39040    9.02150    8.82080    9.02250    8.83350   74.93680 4658.00000    8.75000    0.00000
 10324.00000    -999.25    9.90330    2.47830    8.83910    7.40480    0.19050    0.23890    2.96020    4.44990    7.26890    0.22780    9.48310    0.38680    9.02150    8.79730    9.01290    8.83350   62.82000 4637.00000    8.75000    0.00000
 10323.50000    -999.25    9.70300    2.27820    8.77900    7.47850    0.18240    0.22320    3.03420    4.29930    7.36900    0.21430    9.47380    0.39760    9.00810    8.79730    9.02570    8.83350   53.43890 4557.00000    8.75000    0.00000
 10323.00000    -999.25   10.63700    2.63820    9.50020    7.76340    0.18770    0.24320    3.08800    4.69460    7.59800    0.23030    9.46920    0.42140    9.02150    8.80910    9.00960    8.83200   52.47630 4582.00000    8.75000    0.00000
 10322.50000    -999.25   11.20480    3.20830    9.66620    7.94570    0.20880    0.27080    3.08400    5.26200    7.73980    0.25490    9.42070    0.45790    9.03460    8.80910    9.01290    8.83350   60.86400 4631.00000    8.75000    0.00000
 10322.00000    -999.25   11.49560    3.49740    9.72320    7.79140    0.21570    0.29110    2.96410    5.47090    7.53210    0.27050    9.36920    0.50670    9.02150    8.78560    9.01290    8.83260   76.65940 4653.00000    8.75000    0.00000
 10321.50000    -999.25   10.67720    3.25000    9.04830    7.46290    0.21830    0.28290    2.86590    5.15860    7.25430    0.26560    9.28950    0.56180    9.03460    8.80910    9.02250    8.83200   89.93470 4613.00000    8.75000    0.00000
 10321.00000    -999.25    8.54040    2.60940    7.29660    6.92980    0.23020    0.24640    2.77110    4.45630    6.88600    0.24250    9.21600    0.61580    9.02150    8.79730    9.03860    8.83350  108.22100 4601.00000    8.75000    0.00000
 10320.50000    -999.25    8.02020    2.08900    7.13590    6.69850    0.20310    0.22010    2.73670    3.91290    6.65790    0.21640    9.15330    0.66600    9.04760    8.82080    9.01290    8.83350  104.22330 4685.00000    8.75000    0.00000
 10320.00000    -999.25    7.77770    1.84650    7.04800    6.53570    0.18830    0.20690    2.69920    3.64530    6.49460    0.20310    9.08440    0.71310    9.03480    8.79730    9.02570    8.83350  102.93720 4633.00000    8.75000    0.00000
 10319.50000    -999.25    8.47570    1.77020    7.81710    6.54650    0.16580    0.20630    2.69480    3.56510    6.45740    0.19810    9.03530    0.75890    9.02120    8.80910    9.02250    8.83200   95.77070 4652.00000    8.75000    0.00000
 10319.00000    -999.25    8.86090    2.15630    7.95730    6.70890    0.18690    0.23210    2.69910    3.95420    6.59650    0.22200    8.98250    0.80860    9.03480    8.79730    9.00960    8.83290   99.33260 4672.00000    8.75000    0.00000
 10318.50000    -999.25    9.21920    2.51380    8.07700    6.92710    0.20460    0.24980    2.74600    4.34300    6.80390    0.23890    8.92840    0.85780    9.02120    8.82080    9.02250    8.83200   92.90110 4680.00000    8.75000    0.00000
 10318.00000    -999.25    9.40720    2.70200    8.14390    7.18310    0.21460    0.25300    2.84400    4.59680    7.07340    0.24350    8.87520    0.90280    9.03480    8.80910    9.00960    8.83200   82.81630 4686.00000    8.75000    0.00000
