~Version ---------------------------------------------------
VERS   .                                                                             2.0 : CWLS log ASCII Standard -VERSION 2.0
WRAP   .                                                                              NO : One Line per depth step
PROD   .                                                                    Schlumberger : LAS Producer
PROG   .                                                               DLIS to ASCII 2.2 : LAS Program name and version
CREA   .     2008/03/03 10:39                          :LAS Creation date {YYYY/MM/DD hh : mm}
SOURCE . ARever_Fidelity_Deadwood_Canyon_Ranch_43-28H_3d_Rock_Properties_Final_Data.dlis : DLIS File Name
FILE-ID.                                                  Interpretation Chain - gf_user : File Identification Number
~Well ------------------------------------------------------
STRT.F                              10532.0 : START DEPTH
STOP.F                               7652.5 : STOP DEPTH
STEP.F                                 -0.5 : STEP
NULL.                               -999.25 : NULL VALUE
COMP. FIDELITY EXPLORATION & PRODUCTION CO. : COMPANY
WELL.          Deadwood Canyon Ranch 43-28H : WELL
FLD .                               Wildcat : FIELD
LOC .                                       : LOCATION
CNTY.                             MOUNTRAIL : COUNTY
STAT.                             N. DAKOTA : STATE
CTRY.                                   USA : COUNTRY
API .                          33-061-00581 : API NUMBER
UWI .          Deadwood Canyon Ranch 43-28H : UNIQUE WELL ID
DATE.                                       : LOG DATE
SRVC.                          Schlumberger : SERVICE COMPANY
LATI.DEG                             48.129 : LATITUDE
LONG.DEG                           -102.505 : LONGITUDE
GDAT.                                       : GeoDetic Datum
~Curve Information -----------------------------------------
DEPT              .F     : DEPTH (BOREHOLE) {F10.1}
C13_C44_MULT      .      : C44 Multiplier in C13 Equation {F13.4}
C11_BED_TIV       .6PSI  : Dynamic C11 Modulus wrt Bedding - TIV Model {F13.4}
C13_BED_TIV       .6PSI  : Dynamic C13 Modulus wrt Bedding - TIV Model {F13.4}
YME_DYN_11_BED_TIV.6PSI  : Dynamic Horizontal Youngs Modulus wrt Bedding - TIV Model {F13.4}
YME_DYN_33_BED_TIV.6PSI  : Dynamic Vertical Youngs Modulus wrt Bedding - TIV model {F13.4}
PR_DYN_12_BED_TIV .      : Dynamic Horizontal Poissons Ratio wrt Bedding - TIV Model {F13.4}
PR_DYN_13_BED_TIV .      : Dynamic Vertical Poissons Ratio wrt Bedding - TIV Model {F13.4}
SMG               .6PSI  : Shear Modulus {F13.4}
BMK               .6PSI  : Bulk Modulus - K {F13.4}
YME               .6PSI  : Young's Modulus (E) {F13.4}
PR                .      : Poisson's Ratio {F13.4}
MAXXENE_OVERALL   .      : Overall estimate of maximum cross energy {F13.4}
MINXENE_OVERALL   .      : Overall estimate of minimum cross energy {F13.4}
HD2_PPC2          .IN    : PPC2 Hole Diameter 2 {F13.4}
HD1_PPC2          .IN    : PPC2 Hole Diameter 1 {F13.4}
HD2_PPC1          .IN    : PPC1 Hole Diameter 2 {F13.4}
HD1_PPC1          .IN    : PPC1 Hole Diameter 1 {F13.4}
GR_EDTC           .GAPI  : Gamma Ray {F13.4}
TENS              .LBF   : Cable Tension {F13.4}
BS                .IN    : Bit Size {F13.4}
TDEP              .F     : {F13.4}
~Params ----------------------------------------------------
RUN .               : RUN NUMBER
PDAT.  GROUND LEVEL : Permanent Datum
EPD .F       2111.0 : Elevation of Permanent Datum above Mean Sea Level
EPD .F       2111.0 : Elevation of tool zero above Mean Sea Level
LMF . KELLY BUSHING : Logging Measured From (Name of Logging Elevation Reference)
APD .F         18.0 : Elevation of Depth Reference (LMF) above Permanent Datum
~Other -----------------------------------------------------
~ASCII -----------------------------------------------------
 10532.00000    -999.25    -999.25    -999.25    -999.25    -999.25    -999.25    -999.25    -999.25    -999.25    -999.25    -999.25   19.46320    6.47860    9.02550    8.76290    8.85840    8.71450   88.81330 2892.00000    8.75000    0.00000
 10531.50000    -999.25    -999.25    -999.25    -999.25    -999.25    -999.25    -999.25    -999.25    -999.25    -999.25    -999.25   19.46320    6.47860    9.02550    8.76290    8.85840    8.71450   88.81330 2989.00000    8.75000    0.00000
 10531.00000    -999.25    -999.25    -999.25    -999.25    -999.25    -999.25    -999.25    -999.25    -999.25    -999.25    -999.25   19.46320    6.47860    9.02550    8.76290    8.85840    8.71450   88.81330 3087.00000    8.75000    0.00000
 10530.50000    -999.25    -999.25    -999.25    -999.25    -999.25    -999.25    -999.25    -999.25    -999.25    -999.25    -999.25   19.46320    6.47860    9.02550    8.76290    8.85840    8.71450   88.81330 3129.00000    8.75000    0.00000
 10530.00000    -999.25    -999.25    -999.25    -999.25    -999.25    -999.25    -999.25    -999.25    -999.25    -999.25    -999.25   19.46320    6.47860    9.02550    8.76290    8.85840    8.71450   88.81330 3212.00000    8.75000    0.00000
 10529.50000    -999.25    -999.25    -999.25    -999.25    -999.25    -999.25    -999.25    -999.25    -999.25    -999.25    -999.25   19.46320    6.47860    9.02550    8.76290    8.85840    8.71450   88.81330 3255.00000    8.75000    0.00000
 10529.00000    -999.25    -999.25    -999.25    -999.25    -999.25    -999.25    -999.25    -999.25    -999.25    -999.25    -999.25   19.46320    6.47860    9.02550    8.76290    8.85840    8.71450   88.81330 3334.00000    8.75000    0.00000
 10528.50000    -999.25    -999.25    -999.25    -999.25    -999.25    -999.25    -999.25    -999.25    -999.25    -999.25    -999.25   19.46320    6.47860    9.02550    8.76290    8.85840    8.71450   88.81330 3367.00000    8.75000    0.00000
 10528.00000    -999.25    -999.25    -999.25    -999.25    -999.25    -999.25    -999.25    -999.25    -999.25    -999.25    -999.25   19.46320    6.47860    9.02550    8.76290    8.85840    8.71450   88.81330 3376.00000    8.75000    0.00000
 10527.50000    -999.25    -999.25    -999.25    -999.25    -999.25    -999.25    -999.25    -999.25    -999.25    -999.25    -999.25   19.46320    6.47860    9.02550    8.76290    8.85840    8.71450   88.81330 3485.00000    8.75000    0.00000
 10527.00000    -999.25    -999.25    -999.25    -999.25    -999.25    -999.25    -999.25    -999.25    -999.25    -999.25    -999.25   19.46140    6.47820    9.02550    8.76290    8.85840    8.71450   88.81330 3482.00000    8.75000    0.00000
 10526.50000    -999.25    -999.25    -999.25    -999.25    -999.25    -999.25    -999.25    -999.25    -999.25    -999.25    -999.25   19.45960    6.47770    9.02550    8.76290    8.85840    8.71450   88.81330 3594.00000    8.75000    0.00000
 10526.00000    -999.25    -999.25    -999.25    -999.25    -999.25    -999.25    -999.25    -999.25    -999.25    -999.25    -999.25   19.45770    6.47730    9.02550    8.76290    8.85840    8.71450   88.81330 3645.00000    8.75000    0.00000
 10525.50000    -999.25    -999.25    -999.25    -999.25    -999.25    -999.25    -999.25    -999.25    -999.25    -999.25    -999.25   19.45590    6.47690    9.02550    8.76290    8.85840    8.71450   88.81330 3666.00000    8.75000    0.00000
 10525.00000    -999.25    -999.25    -999.25    -999.25    -999.25    -999.25    -999.25    4.10660    8.78990   10.65980    0.29790   19.45410    6.47650    9.02550    8.76290    8.85840    8.71450   88.81330 3762.00000    8.75000    0.00000
 10524.50000    -999.25    -999.25    -999.25    -999.25    -999.25    -999.25    -999.25    4.10660    8.78990   10.65980    0.29790   19.45230    6.47610    9.02550    8.76290    8.85840    8.71450   88.81330 3798.00000    8.75000    0.00000
 10524.00000    -999.25    -999.25    -999.25    -999.25    -999.25    -999.25    -999.25    4.10830    8.79350   10.66420    0.29790   19.45050    6.47570    9.02550    8.76290    8.85840    8.71450   88.81330 3836.00000    8.75000    0.00000
 10523.50000    -999.25    -999.25    -999.25    -999.25    -999.25    -999.25    -999.25    4.11000    8.79700   10.66840    0.29790   19.44870    6.47530    9.02550    8.76290    8.85840    8.71450   88.81330 3904.00000    8.75000    0.00000
 10523.00000    -999.25    -999.25    -999.25    -999.25    -999.25    -999.25    -999.25    4.11010    8.79730   10.66880    0.29790   19.44690    6.47490    9.02550    8.76290    8.85840    8.71450   88.81330 3944.00000    8.75000    0.00000
 10522.50000    -999.25    -999.25    -999.25    -999.25    -999.25    -999.25    -999.25    4.11020    8.79750   10.66900    0.29790   19.44510    6.47450    9.02550    8.76290    8.85840    8.71450   88.81330 4007.00000    8.75000    0.00000
 10522.00000    -999.25    -999.25    -999.25    -999.25    -999.25    -999.25    -999.25    4.11030    8.79770   10.66930    0.29790   19.44320    6.47400    9.02550    8.76290    8.85840    8.71450   88.81330 4073.00000    8.75000    0.00000
 10521.50000    -999.25    -999.25    -999.25    -999.25    -999.25    -999.25    -999.25    4.11030    8.79770   10.66930    0.29790   19.44140    6.47360    9.02550    8.76290    8.85840    8.71450   88.81330 4084.00000    8.75000    0.00000
 10521.00000    -999.25    -999.25    -999.25    -999.25    -999.25    -999.25    -999.25    4.11030    8.79780   10.66930    0.29790   19.43960    6.47320    9.02550    8.76290    8.85840    8.71450   88.81330 4176.00000    8.75000    0.00000
 10520.50000    -999.25    -999.25    -999.25    -999.25    -999.25    -999.25    -999.25    4.11030    8.79780   10.66940    0.29790   19.43780    6.47280    9.02550    8.76290    8.85840    8.71450   88.81330 4232.00000    8.75000    0.00000
 10520.00000    -999.25    -999.25    -999.25    -999.25    -999.25    -999.25    -999.25    4.11030    8.79780   10.66940    0.29790   19.43600    6.47240    9.02550    8.76290    8.85840    8.71450   88.81330 4299.00000    8.75000    0.00000
 10519.50000    -999.25    -999.25    -999.25    -999.25    -999.25    -999.25    -999.25    4.11030    8.79780   10.66940    0.29790   19.43420    6.47200    9.02550    8.76290    8.85840    8.71450   88.81330 4372.00000    8.75000    0.00000
 10519.00000    -999.25    -999.25    -999.25    -999.25    -999.25    -999.25    -999.25    4.11030    8.79780   10.66940    0.29790   19.43240    6.47160    9.02550    8.76290    8.85840    8.71450   88.81330 4416.00000    8.75000    0.00000
 10518.50000    -999.25    -999.25    -999.25    -999.25    -999.25    -999.25    -999.25    4.11030    8.79780   10.66940    0.29790   19.43060    6.47120    9.02550    8.76290    8.85840    8.71450   88.81330 4461.00000    8.75000    0.00000
 10518.00000    -999.25    -999.25    -999.25    -999.25    -999.25    -999.25    -999.25    4.11030    8.79780   10.66940    0.29790   19.42870    6.47080    9.02550    8.76290    8.85840    8.71450   88.81330 4561.00000    8.75000    0.00000
 10517.50000    -999.25    -999.25    -999.25    -999.25    -999.25    -999.25    -999.25    4.11030    8.79780   10.66940    0.29790   19.42690    6.47030    9.02550    8.76290    8.85840    8.71450   88.81330 4510.00000    8.75000    0.00000
 10517.00000    -999.25    -999.25    -999.25    -999.25    -999.25    -999.25    -999.25    4.11030    8.79780   10.66940    0.29790   19.42510    6.46990    9.02550    8.76290    8.85840    8.71450   88.81330 4532.00000    8.75000    0.00000
 10516.50000    -999.25    -999.25    -999.25    -999.25    -999.25    -999.25    -999.25    4.11030    8.79780   10.66940    0.29790   19.42510    6.46990    9.02550    8.76290    8.85840    8.71450   88.81330 4515.00000    8.75000    0.00000
 10516.00000    -999.25    -999.25    -999.25    -999.25    -999.25    -999.25    -999.25    4.11030    8.79780   10.66940    0.29790   19.42510    6.46990    9.02550    8.76290    8.85840    8.71450   88.81330 4461.00000    8.75000    0.00000
