~Version ---------------------------------------------------
VERS   .                                                                             2.0 : CWLS log ASCII Standard -VERSION 2.0
WRAP   .                                                                              NO : One Line per depth step
PROD   .                                                                    Schlumberger : LAS Producer
PROG   .                                                               DLIS to ASCII 2.2 : LAS Program name and version
CREA   .     2008/03/03 10:39                          :LAS Creation date {YYYY/MM/DD hh : mm}
SOURCE . ARever_Fidelity_Deadwood_Canyon_Ranch_43-28H_3d_Rock_Properties_Final_Data.dlis : DLIS File Name
FILE-ID.                                                  Interpretation Chain - gf_user : File Identification Number
~Well ------------------------------------------------------
STRT.F                              10532.0 : START DEPTH
STOP.F                               7652.5 : STOP DEPTH
STEP.F                                 -0.5 : STEP
NULL.                               -999.25 : NULL VALUE
COMP. FIDELITY EXPLORATION & PRODUCTION CO. : COMPANY
WELL.          Deadwood Canyon Ranch 43-28H : WELL
FLD .                               Wildcat : FIELD
LOC .                                       : LOCATION
CNTY.                             MOUNTRAIL : COUNTY
STAT.                             N. DAKOTA : STATE
CTRY.                                   USA : COUNTRY
API .                          33-061-00581 : API NUMBER
UWI .          Deadwood Canyon Ranch 43-28H : UNIQUE WELL ID
DATE.                                       : LOG DATE
SRVC.                          Schlumberger : SERVICE COMPANY
LATI.DEG                             48.129 : LATITUDE
LONG.DEG                           -102.505 : LONGITUDE
GDAT.                                       : GeoDetic Datum
~Curve Information -----------------------------------------
DEPT              .F     : DEPTH (BOREHOLE) {F10.1}
C13_C44_MULT      .      : C44 Multiplier in C13 Equation {F13.4}
C11_BED_TIV       .6PSI  : Dynamic C11 Modulus wrt Bedding - TIV Model {F13.4}
C13_BED_TIV       .6PSI  : Dynamic C13 Modulus wrt Bedding - TIV Model {F13.4}
YME_DYN_11_BED_TIV.6PSI  : Dynamic Horizontal Youngs Modulus wrt Bedding - TIV Model {F13.4}
YME_DYN_33_BED_TIV.6PSI  : Dynamic Vertical Youngs Modulus wrt Bedding - TIV model {F13.4}
PR_DYN_12_BED_TIV .      : Dynamic Horizontal Poissons Ratio wrt Bedding - TIV Model {F13.4}
PR_DYN_13_BED_TIV .      : Dynamic Vertical Poissons Ratio wrt Bedding - TIV Model {F13.4}
SMG               .6PSI  : Shear Modulus {F13.4}
BMK               .6PSI  : Bulk Modulus - K {F13.4}
YME               .6PSI  : Young's Modulus (E) {F13.4}
PR                .      : Poisson's Ratio {F13.4}
MAXXENE_OVERALL   .      : Overall estimate of maximum cross energy {F13.4}
MINXENE_OVERALL   .      : Overall estimate of minimum cross energy {F13.4}
HD2_PPC2          .IN    : PPC2 Hole Diameter 2 {F13.4}
HD1_PPC2          .IN    : PPC2 Hole Diameter 1 {F13.4}
HD2_PPC1          .IN    : PPC1 Hole Diameter 2 {F13.4}
HD1_PPC1          .IN    : PPC1 Hole Diameter 1 {F13.4}
GR_EDTC           .GAPI  : Gamma Ray {F13.4}
TENS              .LBF   : Cable Tension {F13.4}
BS                .IN    : Bit Size {F13.4}
TDEP              .F     : {F13.4}
~Params ----------------------------------------------------
RUN .               : RUN NUMBER
PDAT.  GROUND LEVEL : Permanent Datum
EPD .F       2111.0 : Elevation of Permanent Datum above Mean Sea Level
EPD .F       2111.0 : Elevation of tool zero above Mean Sea Level
LMF . KELLY BUSHING : Logging Measured From (Name of Logging Elevation Reference)
APD .F         18.0 : Elevation of Depth Reference (LMF) above Permanent Datum
~Other -----------------------------------------------------
~ASCII -----------------------------------------------------
# ...
 7661.00000    -999.25    -999.25    -999.25    -999.25    -999.25    -999.25    -999.25    2.68370    4.79170    6.78450    0.26400    9.26480    1.03450    9.11290    8.91660    9.08360    8.96710   77.76620 3589.00000    8.75000    0.00000
 7660.50000    -999.25    -999.25    -999.25    -999.25    -999.25    -999.25    -999.25    2.71490    4.64850    6.81750    0.25560    9.26480    1.03450    9.10460    8.91530    9.08360    8.95520   78.25770 3544.00000    8.75000    0.00000
 7660.00000    -999.25    -999.25    -999.25    -999.25    -999.25    -999.25    -999.25    2.71650    4.38300    6.75420    0.24320    9.26480    1.03450    9.11290    8.90490    9.09640    8.95520   81.78400 3583.00000    8.75000    0.00000
 7659.50000    -999.25    -999.25    -999.25    -999.25    -999.25    -999.25    -999.25    2.67160    4.28200    6.63490    0.24180    9.26480    1.03450    9.12180    8.90420    9.08350    8.94340   84.35950 3639.00000    8.75000    0.00000
 7659.00000    -999.25    -999.25    -999.25    -999.25    -999.25    -999.25    -999.25    -999.25    -999.25    -999.25    -999.25    9.26480    1.03450    9.12180    8.89250    9.09640    8.93160   86.16190 3644.00000    8.75000    0.00000
 7658.50000    -999.25    -999.25    -999.25    -999.25    -999.25    -999.25    -999.25    -999.25    -999.25    -999.25    -999.25    9.26480    1.03450    9.09570    8.89250    9.09640    8.93160   88.10680 3607.00000    8.75000    0.00000
 7658.00000    -999.25    -999.25    -999.25    -999.25    -999.25    -999.25    -999.25    -999.25    -999.25    -999.25    -999.25    9.26480    1.03450    9.12180    8.88080    9.09640    8.93160   85.51200 3682.00000    8.75000    0.00000
 7657.50000    -999.25    -999.25    -999.25    -999.25    -999.25    -999.25    -999.25    -999.25    -999.25    -999.25    -999.25    9.26480    1.03450    9.08220    8.88080    9.09640    8.93160   81.27060 3650.00000    8.75000    0.00000
 7657.00000    -999.25    -999.25    -999.25    -999.25    -999.25    -999.25    -999.25    -999.25    -999.25    -999.25    -999.25    9.26480    1.03450    9.12180    8.90420    9.09640    8.93160   73.90170 3606.00000    8.75000    0.00000
 7656.50000    -999.25    -999.25    -999.25    -999.25    -999.25    -999.25    -999.25    -999.25    -999.25    -999.25    -999.25    9.26480    1.03450    9.12180    8.93930    9.09640    8.93160   71.79100 3689.00000    8.75000    0.00000
 7656.00000    -999.25    -999.25    -999.25    -999.25    -999.25    -999.25    -999.25    -999.25    -999.25    -999.25    -999.25    9.26480    1.03450    9.13510    9.07940    9.09640    8.94340   65.54580 3724.00000    8.75000    0.00000
 7655.50000    -999.25    -999.25    -999.25    -999.25    -999.25    -999.25    -999.25    -999.25    -999.25    -999.25    -999.25    9.26480    1.03450    9.12600    9.07990    9.09640    9.00270   58.34350 3652.00000    8.75000    0.00000
 7655.00000    -999.25    -999.25    -999.25    -999.25    -999.25    -999.25    -999.25    -999.25    -999.25    -999.25    -999.25    9.26480    1.03450    9.12180    9.07940    9.09640    9.05010   49.64800 3703.00000    8.75000    0.00000
 7654.50000    -999.25    -999.25    -999.25    -999.25    -999.25    -999.25    -999.25    -999.25    -999.25    -999.25    -999.25    9.26480    1.03450    9.12180    9.07940    9.08350    9.06200   43.43110 3710.00000    8.75000    0.00000
 7654.00000    -999.25    -999.25    -999.25    -999.25    -999.25    -999.25    -999.25    -999.25    -999.25    -999.25    -999.25    9.26480    1.03450    9.12180    8.91590    9.09640    9.06200   37.52250 3659.00000    8.75000    0.00000
 7653.50000    -999.25    -999.25    -999.25    -999.25    -999.25    -999.25    -999.25    -999.25    -999.25    -999.25    -999.25    9.26480    1.03450    9.09570    8.90420    9.07080    9.00270   29.83270 3565.00000    8.75000    0.00000
 7653.00000    -999.25    -999.25    -999.25    -999.25    -999.25    -999.25    -999.25    -999.25    -999.25    -999.25    -999.25    9.26480    1.03450    9.12180    8.89250    9.07080    9.00270   29.33170 3611.00000    8.75000    0.00000
 7652.50000    -999.25    -999.25    -999.25    -999.25    -999.25    -999.25    -999.25    -999.25    -999.25    -999.25    -999.25    9.26480    1.03450    9.12180    8.86910    9.05790    9.00270   27.86130 3676.00000    8.75000    0.00000
