~Version ---------------------------------------------------
VERS   .                                                                             2.0 : CWLS log ASCII Standard -VERSION 2.0
WRAP   .                                                                              NO : One Line per depth step
PROD   .                                                                    Schlumberger : LAS Producer
PROG   .                                                               DLIS to ASCII 2.2 : LAS Program name and version
CREA   .     2008/03/03 10:39                          :LAS Creation date {YYYY/MM/DD hh : mm}
SOURCE . ARever_Fidelity_Deadwood_Canyon_Ranch_43-28H_3d_Rock_Properties_Final_Data.dlis : DLIS File Name
FILE-ID.                                                  Interpretation Chain - gf_user : File Identification Number
~Well ------------------------------------------------------
STRT.F                              10532.0 : START DEPTH
STOP.F                               7652.5 : STOP DEPTH
STEP.F                                 -0.5 : STEP
NULL.                               -999.25 : NULL VALUE
COMP. FIDELITY EXPLORATION & PRODUCTION CO. : COMPANY
WELL.          Deadwood Canyon Ranch 43-28H : WELL
FLD .                               Wildcat : FIELD
LOC .                                       : LOCATION
CNTY.                             MOUNTRAIL : COUNTY
STAT.                             N. DAKOTA : STATE
CTRY.                                   USA : COUNTRY
API .                          33-061-00581 : API NUMBER
UWI .          Deadwood Canyon Ranch 43-28H : UNIQUE WELL ID
DATE.                                       : LOG DATE
SRVC.                          Schlumberger : SERVICE COMPANY
LATI.DEG                             48.129 : LATITUDE
LONG.DEG                           -102.505 : LONGITUDE
GDAT.                                       : GeoDetic Datum
~Curve Information -----------------------------------------
DEPT              .F     : DEPTH (BOREHOLE) {F10.1}
C13_C44_MULT      .      : C44 Multiplier in C13 Equation {F13.4}
C11_BED_TIV       .6PSI  : Dynamic C11 Modulus wrt Bedding - TIV Model {F13.4}
C13_BED_TIV       .6PSI  : Dynamic C13 Modulus wrt Bedding - TIV Model {F13.4}
YME_DYN_11_BED_TIV.6PSI  : Dynamic Horizontal Youngs Modulus wrt Bedding - TIV Model {F13.4}
YME_DYN_33_BED_TIV.6PSI  : Dynamic Vertical Youngs Modulus wrt Bedding - TIV model {F13.4}
PR_DYN_12_BED_TIV .      : Dynamic Horizontal Poissons Ratio wrt Bedding - TIV Model {F13.4}
PR_DYN_13_BED_TIV .      : Dynamic Vertical Poissons Ratio wrt Bedding - TIV Model {F13.4}
SMG               .6PSI  : Shear Modulus {F13.4}
BMK               .6PSI  : Bulk Modulus - K {F13.4}
YME               .6PSI  : Young's Modulus (E) {F13.4}
PR                .      : Poisson's Ratio {F13.4}
MAXXENE_OVERALL   .      : Overall estimate of maximum cross energy {F13.4}
MINXENE_OVERALL   .      : Overall estimate of minimum cross energy {F13.4}
HD2_PPC2          .IN    : PPC2 Hole Diameter 2 {F13.4}
HD1_PPC2          .IN    : PPC2 Hole Diameter 1 {F13.4}
HD2_PPC1          .IN    : PPC1 Hole Diameter 2 {F13.4}
HD1_PPC1          .IN    : PPC1 Hole Diameter 1 {F13.4}
GR_EDTC           .GAPI  : Gamma Ray {F13.4}
TENS              .LBF   : Cable Tension {F13.4}
BS                .IN    : Bit Size {F13.4}
TDEP              .F     : {F13.4}
~Params ----------------------------------------------------
RUN .               : RUN NUMBER
PDAT.  GROUND LEVEL : Permanent Datum
EPD .F       2111.0 : Elevation of Permanent Datum above Mean Sea Level
EPD .F       2111.0 : Elevation of tool zero above Mean Sea Level
LMF . KELLY BUSHING : Logging Measured From (Name of Logging Elevation Reference)
APD .F         18.0 : Elevation of Depth Reference (LMF) above Permanent Datum
~Other -----------------------------------------------------
~ASCII -----------------------------------------------------
# ...
 9377.00000    -999.25   12.18240    4.30800    9.94290   10.10030    0.26270    0.25720    4.02150    6.98920   10.12290    0.25860    8.70910    1.12400    9.09150    8.84500    9.03860    8.90490   29.31330 4172.00000    8.75000    0.00000
 9376.50000    -999.25   12.05210    4.19420    9.89180    9.96710    0.25880    0.25620    3.96920    6.84040    9.97770    0.25690    8.72570    1.10210    9.09150    8.84500    9.03860    8.91690   31.55600 4122.00000    8.75000    0.00000
 9376.00000    -999.25   12.24900    4.39080    9.92870    9.88730    0.26350    0.26500    3.90690    6.99540    9.88120    0.26460    8.74960    1.08090    9.09150    8.84500    9.07720    8.91680   27.02460 4247.00000    8.75000    0.00000
 9375.50000    -999.25   12.81160    4.93690   10.06820   10.10630    0.27860    0.27710    3.95790    7.57560   10.11260    0.27750    8.77570    1.05890    9.11770    8.85670    9.07720    8.90490   22.92680 4106.00000    8.75000    0.00000
 9375.00000    -999.25   12.76860    4.89410   10.06760   10.20350    0.27850    0.27340    4.01070    7.56810   10.22580    0.27480    8.79710    1.03800    9.11790    8.84500    9.07720    8.90490   19.99280 4188.00000    8.75000    0.00000
 9374.50000    -999.25   12.84220    4.96790   10.09370   10.37370    0.28190    0.27140    4.08840    7.69390   10.41960    0.27430    8.81510    1.01740    9.13090    8.84500    9.09000    8.90490   23.59760 4152.00000    8.75000    0.00000
 9374.00000    -999.25   13.67390    5.16180   10.82000   10.52490    0.27110    0.28170    4.09630    7.89230   10.47640    0.27880    8.83340    1.00400    9.14400    8.85670    9.10280    8.90490   23.10580 4115.00000    8.75000    0.00000
 9373.50000    -999.25   13.77050    5.27730   10.81120   10.40630    0.27290    0.28780    4.02690    7.96130   10.33770    0.28360    8.84710    0.99840    9.10460    8.84500    9.07720    8.91680   25.00140 4149.00000    8.75000    0.00000
 9373.00000    -999.25   13.59950    5.08740   10.79330   10.35990    0.26800    0.28360    4.02160    7.76780   10.28910    0.27920    8.85480    0.99620    9.07420    8.84430    9.06430    8.90490   24.02170 4093.00000    8.75000    0.00000
 9372.50000    -999.25   12.97480    5.10040   10.11130   10.28720    0.28410    0.27740    4.03250    7.78900   10.31710    0.27920    8.85180    0.99770    9.08730    8.85600    9.07720    8.90490   28.12350 4097.00000    8.75000    0.00000
 9372.00000    -999.25   12.35130    4.49340    9.96930   10.17280    0.26870    0.26140    4.03820    7.18580   10.20330    0.26330    8.84780    1.00510    9.09150    8.84500    9.06430    8.91680   29.67160 4131.00000    8.75000    0.00000
 9371.50000    -999.25   12.07240    4.19780    9.91100    9.97710    0.25860    0.25630    3.97260    6.84640    9.98640    0.25690    8.84140    1.01460    9.07850    8.84500    9.06430    8.90490   29.83550 4092.00000    8.75000    0.00000
 9371.00000    -999.25   12.28750    4.42940    9.94460   10.00360    0.26550    0.26340    3.96070    7.07000   10.01250    0.26400    8.83120    1.02200    9.07820    8.85670    9.05150    8.91680   32.11030 4135.00000    8.75000    0.00000
 9370.50000    -999.25   12.29830    4.42340    9.94500    9.77510    0.26290    0.26910    3.84610    6.98720    9.74940    0.26740    8.82070    1.02760    9.09150    8.84500    9.06430    8.90490   33.67080 4150.00000    8.75000    0.00000
 9370.00000    -999.25   12.26670    4.39190    9.94670    9.89170    0.26310    0.26510    3.90780    6.99710    9.88350    0.26460    8.80920    1.03290    9.07850    8.84500    9.05150    8.90490   35.18720 4103.00000    8.75000    0.00000
 9369.50000    -999.25   12.26050    4.40230    9.93260    9.91030    0.26400    0.26480    3.91710    7.01370    9.90700    0.26460    8.80200    1.03320    9.08730    8.85600    9.05150    8.91680   32.91240 4142.00000    8.75000    0.00000
 9369.00000    -999.25   12.21850    4.34360    9.92610    9.73890    0.26050    0.26730    3.83690    6.90130    9.71110    0.26550    8.80230    1.03490    9.08730    8.85600    9.06440    8.90490   32.73540 4125.00000    8.75000    0.00000
 9368.50000    -999.25   12.40540    4.53030    9.95780    9.65780    0.26450    0.27580    3.77580    7.04710    9.61090    0.27270    8.80140    1.04130    9.07850    8.86840    9.07720    8.90490   32.73120 4074.00000    8.75000    0.00000
 9368.00000    -999.25   11.83520    3.96030    9.83820    9.67490    0.24930    0.25500    3.85040    6.52700    9.65290    0.25350    8.80070    1.03850    9.08730    8.85600    9.06430    8.90490   30.87080 4123.00000    8.75000    0.00000
 9367.50000    -999.25   11.86370    3.98900    9.85160    9.78280    0.25100    0.25340    3.90070    6.58930    9.77360    0.25280    8.79580    1.04320    9.09150    8.84500    9.06430    8.90490   27.19070 4080.00000    8.75000    0.00000
 9367.00000    -999.25   12.23710    4.37890    9.92460    9.86330    0.26290    0.26520    3.89620    6.97630    9.85420    0.26460    8.79170    1.04930    9.07850    8.86840    9.06430    8.91680   24.51320 4064.00000    8.75000    0.00000
 9366.50000    -999.25   12.34060    4.46610    9.97770   10.11990    0.26710    0.26200    4.01360    7.14200   10.14110    0.26330    8.78180    1.06230    9.08730    8.85600    9.06430    8.90490   20.63070 4057.00000    8.75000    0.00000
 9366.00000    -999.25   12.93710    5.07920   10.08680   10.24710    0.28370    0.27750    4.01580    7.75660   10.27420    0.27920    8.76940    1.08020    9.09150    8.89180    9.05150    8.91680   18.10490 4067.00000    8.75000    0.00000
 9365.50000    -999.25   12.82470    4.96700   10.07550   10.36950    0.28220    0.27130    4.08770    7.69260   10.41780    0.27430    8.75910    1.09440    9.09150    8.86840    9.07720    8.91680   18.20220 4076.00000    8.75000    0.00000
 9365.00000    -999.25   12.97910    5.10470   10.11260   10.29500    0.28420    0.27730    4.03600    7.79560   10.32590    0.27920    8.74370    1.11020    9.08730    8.86770    9.06430    8.90490   17.94080 4085.00000    8.75000    0.00000
 9364.50000    -999.25   12.86700    5.00910   10.07560   10.26580    0.28220    0.27500    4.03180    7.69730   10.29750    0.27700    8.72540    1.13420    9.09150    8.85670    9.06430    8.91680   20.70090 4033.00000    8.75000    0.00000
 9364.00000    -999.25   13.19100    5.33330   10.14520   10.43210    0.29110    0.28000    4.08470    8.05680   10.48260    0.28320    8.70430    1.16180    9.10480    8.85670    9.06430    8.91680   19.14510 4076.00000    8.75000    0.00000
 9363.50000    -999.25   13.31220    5.43780   10.16990   10.29950    0.29150    0.28640    4.00780    8.10980   10.32290    0.28790    8.68040    1.18830    9.08730    8.86770    9.06430    8.90490   21.90610 4038.00000    8.75000    0.00000
 9363.00000    -999.25   13.00220    5.12790   10.12220   10.36750    0.28550    0.27610    4.07000    7.84160   10.40910    0.27880    8.65010    1.21390    9.09150    8.86840    9.06430    8.90490   20.52600 4080.00000    8.75000    0.00000
 9362.50000    -999.25   13.12640    5.26850   10.12330   10.29240    0.28830    0.28170    4.02080    7.94930   10.32200    0.28360    8.62060    1.23930    9.11810    8.86840    9.06430    8.91680   22.59610 4055.00000    8.75000    0.00000
 9362.00000    -999.25   12.80570    4.96400   10.04130   10.15020    0.28050    0.27640    3.97970    7.61740   10.16830    0.27750    8.58470    1.27320    9.08730    8.86770    9.07720    8.92860   22.42650 4042.00000    8.75000    0.00000
 9361.50000    -999.25   12.96340    5.12200   10.08240   10.32050    0.28580    0.27670    4.04970    7.82210   10.36100    0.27920    8.54870    1.30620    9.11770    8.85670    9.07720    8.92860   25.15610 4073.00000    8.75000    0.00000
 9361.00000    -999.25   12.71350    4.85570   10.04800   10.27650    0.27870    0.27020    4.05220    7.55750   10.31340    0.27260    8.51300    1.34100    9.09150    8.86840    9.07720    8.91680   27.58000 4049.00000    8.75000    0.00000
