~Version ---------------------------------------------------
VERS   .                                                                             2.0 : CWLS log ASCII Standard -VERSION 2.0
WRAP   .                                                                              NO : One Line per depth step
PROD   .                                                                    Schlumberger : LAS Producer
PROG   .                                                               DLIS to ASCII 2.2 : LAS Program name and version
CREA   .     2008/03/03 10:39                          :LAS Creation date {YYYY/MM/DD hh : mm}
SOURCE . ARever_Fidelity_Deadwood_Canyon_Ranch_43-28H_3d_Rock_Properties_Final_Data.dlis : DLIS File Name
FILE-ID.                                                  Interpretation Chain - gf_user : File Identification Number
~Well ------------------------------------------------------
STRT.F                              10532.0 : START DEPTH
STOP.F                               7652.5 : STOP DEPTH
STEP.F                                 -0.5 : STEP
NULL.                               -999.25 : NULL VALUE
COMP. FIDELITY EXPLORATION & PRODUCTION CO. : COMPANY
WELL.          Deadwood Canyon Ranch 43-28H : WELL
FLD .                               Wildcat : FIELD
LOC .                                       : LOCATION
CNTY.                             MOUNTRAIL : COUNTY
STAT.                             N. DAKOTA : STATE
CTRY.                                   USA : COUNTRY
API .                          33-061-00581 : API NUMBER
UWI .          Deadwood Canyon Ranch 43-28H : UNIQUE WELL ID
DATE.                                       : LOG DATE
SRVC.                          Schlumberger : SERVICE COMPANY
LATI.DEG                             48.129 : LATITUDE
LONG.DEG                           -102.505 : LONGITUDE
GDAT.                                       : GeoDetic Datum
~Curve Information -----------------------------------------
DEPT              .F     : DEPTH (BOREHOLE) {F10.1}
C13_C44_MULT      .      : C44 Multiplier in C13 Equation {F13.4}
C11_BED_TIV       .6PSI  : Dynamic C11 Modulus wrt Bedding - TIV Model {F13.4}
C13_BED_TIV       .6PSI  : Dynamic C13 Modulus wrt Bedding - TIV Model {F13.4}
YME_DYN_11_BED_TIV.6PSI  : Dynamic Horizontal Youngs Modulus wrt Bedding - TIV Model {F13.4}
YME_DYN_33_BED_TIV.6PSI  : Dynamic Vertical Youngs Modulus wrt Bedding - TIV model {F13.4}
PR_DYN_12_BED_TIV .      : Dynamic Horizontal Poissons Ratio wrt Bedding - TIV Model {F13.4}
PR_DYN_13_BED_TIV .      : Dynamic Vertical Poissons Ratio wrt Bedding - TIV Model {F13.4}
SMG               .6PSI  : Shear Modulus {F13.4}
BMK               .6PSI  : Bulk Modulus - K {F13.4}
YME               .6PSI  : Young's Modulus (E) {F13.4}
PR                .      : Poisson's Ratio {F13.4}
MAXXENE_OVERALL   .      : Overall estimate of maximum cross energy {F13.4}
MINXENE_OVERALL   .      : Overall estimate of minimum cross energy {F13.4}
HD2_PPC2          .IN    : PPC2 Hole Diameter 2 {F13.4}
HD1_PPC2          .IN    : PPC2 Hole Diameter 1 {F13.4}
HD2_PPC1          .IN    : PPC1 Hole Diameter 2 {F13.4}
HD1_PPC1          .IN    : PPC1 Hole Diameter 1 {F13.4}
GR_EDTC           .GAPI  : Gamma Ray {F13.4}
TENS              .LBF   : Cable Tension {F13.4}
BS                .IN    : Bit Size {F13.4}
TDEP              .F     : {F13.4}
~Params ----------------------------------------------------
RUN .               : RUN NUMBER
PDAT.  GROUND LEVEL : Permanent Datum
EPD .F       2111.0 : Elevation of Permanent Datum above Mean Sea Level
EPD .F       2111.0 : Elevation of tool zero above Mean Sea Level
LMF . KELLY BUSHING : Logging Measured From (Name of Logging Elevation Reference)
APD .F         18.0 : Elevation of Depth Reference (LMF) above Permanent Datum
~Other -----------------------------------------------------
~ASCII -----------------------------------------------------
# ...
 8816.00000    -999.25   12.10340    5.22700    9.04130   10.06190    0.31480    0.27100    3.99200    7.89230   10.24800    0.28360    9.49720    0.58530    9.10480    8.90350    9.08050    9.08440   11.44180 3977.00000    8.75000    0.00000
 8815.50000    -999.25   12.27770    5.09870    9.35830   10.20800    0.30360    0.26900    4.04910    7.80140   10.35570    0.27880    9.48860    0.60130    9.11810    8.91520    9.13180    9.02510    9.25710 4028.00000    8.75000    0.00000
 8815.00000    -999.25   13.28820    5.48060   10.12720   10.57430    0.29710    0.27970    4.14630    8.24660   10.65350    0.28470    9.48430    0.62880    9.12200    8.88080    9.11890    8.95240    8.91210 3988.00000    8.75000    0.00000
 8814.50000    -999.25   13.40980    5.57290   10.20560   10.98670    0.30230    0.27270    4.34150    8.47020   11.12390    0.28110    9.47180    0.65300    9.09150    8.88010    9.10610    8.93020   11.28120 4034.00000    8.75000    0.00000
 8814.00000    -999.25   13.42050    5.56710   10.22190   10.97940    0.30160    0.27300    4.33690    8.46140   11.11220    0.28110    9.45810    0.68430    9.09570    8.89250    9.06750    8.91820   14.09730 3933.00000    8.75000    0.00000
 8813.50000    -999.25   13.81670    5.97860   10.24490   10.65610    0.30710    0.29040    4.14360    8.74260   10.73490    0.29540    9.43970    0.71740    9.06500    8.88010    9.06760    8.93020   15.38060 3962.00000    8.75000    0.00000
 8813.00000    -999.25   13.49760    5.66000   10.20330   10.75980    0.30190    0.28020    4.22100    8.47620   10.86030    0.28650    9.42990    0.75650    9.09150    8.85670    9.05470    8.93020   13.01220 3951.00000    8.75000    0.00000
 8812.50000    -999.25   13.23140    5.39480   10.17550   10.99750    0.29850    0.26800    4.36230    8.30620   11.13720    0.27650    9.43060    0.78640    9.09570    8.85740    9.06610    8.93020   11.98220 3951.00000    8.75000    0.00000
 8812.00000    -999.25   13.41340    5.54330   10.23050   10.90760    0.29990    0.27430    4.30180    8.41380   11.02630    0.28160    9.44700    0.81910    9.07820    8.86840    9.05470    8.90640   12.16430 3987.00000    8.75000    0.00000
 8811.50000    -999.25   14.21900    6.33020   10.33140   10.45170    0.30960    0.30450    4.01050    9.00440   10.47630    0.30610    9.47470    0.84690    9.07820    8.86840    9.06760    8.89450   15.26690 3928.00000    8.75000    0.00000
 8811.00000    -999.25   12.82030    6.58260    8.46440    9.42260    0.35700    0.30480    3.65130    9.02070    9.65160    0.32170    9.50650    0.84940    9.09150    8.85670    9.05470    8.89450   20.39900 3974.00000    8.75000    0.00000
 8810.50000    -999.25   11.25480    5.67730    7.53550    8.30940    0.35100    0.30410    3.21810    7.82580    8.49050    0.31920    9.53740    0.83820    9.09150    8.86840    9.04180    8.88260   28.76150 3933.00000    8.75000    0.00000
 8810.00000    -999.25    9.08200    4.42940    6.28450    7.33600    0.35070    0.28080    2.90330    6.36900    7.56100    0.30210    9.54980    0.81770    9.14830    8.95100    9.11890    8.94210   29.84870 3956.00000    8.75000    0.00000
 8809.50000    -999.25    6.43030    2.80210    4.84750    6.42920    0.33600    0.22880    2.66100    4.58210    6.68820    0.25670    9.55500    0.80340    9.27950    8.92760    9.11890    9.16730   29.02620 3911.00000    8.75000    0.00000
 8809.00000    -999.25    5.96930    2.38000    4.70140    6.01270    0.30980    0.22290    2.49230    4.04650    6.20330    0.24450    9.59040    0.77330    9.35440    8.92690    9.09330    9.28540   23.50810 3938.00000    8.75000    0.00000
 8808.50000    -999.25    5.93020    2.35190    4.67550    5.85330    0.30660    0.22680    2.41640    3.96730    6.02570    0.24690    9.61800    0.73980    9.30190    8.97430    9.10610    9.32090   23.87230 3948.00000    8.75000    0.00000
 8808.00000    -999.25    5.84860    2.25410    4.66240    5.66140    0.29710    0.22910    2.32880    3.81050    5.80410    0.24610    9.63800    0.71850    9.20990    8.97370    9.09330    9.27360   22.48950 3951.00000    8.75000    0.00000
 8807.50000    -999.25    5.71000    2.09950    4.64110    5.57780    0.28540    0.22370    2.30180    3.63760    5.70250    0.23870    9.66820    0.70480    9.13550    9.06770    9.18310    9.22630   20.42250 3945.00000    8.75000    0.00000
 8807.00000    -999.25    5.90580    2.25760    4.70860    5.43400    0.29070    0.23960    2.21120    3.73450    5.54010    0.25280    9.69570    0.69990    9.12220    9.23070    9.27280    9.12000   19.51180 3935.00000    8.75000    0.00000
 8806.50000    -999.25    6.09350    2.15180    4.99220    5.31200    0.26650    0.24530    2.14100    3.58040    5.35560    0.25070    9.72460    0.68390    9.07850    9.13720    9.32400    9.10810   20.89460 3947.00000    8.75000    0.00000
 8806.00000    -999.25    5.97670    1.99540    4.99600    5.28420    0.25490    0.23660    2.14330    3.42530    5.32030    0.24110    9.77790    0.67290    9.10900    9.06770    9.31110    9.01320   23.39440 3936.00000    8.75000    0.00000
 8805.50000    -999.25    8.08300    4.08130    5.38480    5.72710    0.34560    0.31550    2.19160    5.54370    5.80920    0.32530    9.77370    0.65730    9.11810    8.99700    9.22150    8.96570   26.99230 3954.00000    8.75000    0.00000
 8805.00000    -999.25    8.24460    3.97400    5.71810    6.26580    0.33890    0.29680    2.43730    5.60100    6.38580    0.31000    9.77760    0.64270    9.13550    8.97420    9.14450    8.93020   25.43970 3944.00000    8.75000    0.00000
 8804.50000    -999.25    8.67550    3.99470    6.23650    7.06630    0.33230    0.27830    2.79370    5.86030    7.23180    0.29430    9.77390    0.62760    9.20090    8.89250    9.09320    8.89450   23.80240 3958.00000    8.75000    0.00000
 8804.00000    -999.25    9.73230    4.15350    7.29050    7.75890    0.30680    0.28110    3.04420    6.18480    7.84540    0.28860    9.78780    0.62010    9.15750    8.89180    9.08040    8.88260   20.92990 3996.00000    8.75000    0.00000
 8803.50000    -999.25   10.27630    4.02550    8.05160    8.56570    0.28810    0.26460    3.40220    6.29560    8.64860    0.27100    9.82070    0.62620    9.03020    8.88080    9.08040    8.88260   22.03380 3948.00000    8.75000    0.00000
 8803.00000    -999.25   10.60800    4.35860    8.14160    9.01180    0.30280    0.26310    3.59430    6.75810    9.15910    0.27410    9.86680    0.64790    9.03920    8.89180    9.06760    8.88260   23.58320 3951.00000    8.75000    0.00000
 8802.50000    -999.25   12.61280    4.70660   10.05480   10.05520    0.27180    0.27170    3.95330    7.34210   10.05520    0.27170    9.91440    0.67300    9.08260    8.86910    9.06760    8.88260   24.73480 3950.00000    8.75000    0.00000
 8802.00000    -999.25   13.20800    5.32040   10.19120   10.64320    0.29210    0.27500    4.18830    8.11430   10.72040    0.27980    9.97450    0.69220    9.09150    8.85670    9.04180    8.89450   21.82060 3952.00000    8.75000    0.00000
 8801.50000    -999.25   13.52000    5.63370   10.27760   11.10050    0.30320    0.27230    4.38890    8.56280   11.24540    0.28110   10.00500    0.68380    9.07850    8.86840    9.05470    8.89450   18.54800 3938.00000    8.75000    0.00000
 8801.00000    -999.25   16.64980    9.37470   10.04460   11.17070    0.38070    0.32390    4.27280   12.22770   11.48110    0.34350    9.99950    0.65410    9.09150    8.85670    9.04180    8.94210   13.02510 3941.00000    8.75000    0.00000
 8800.50000    -999.25   15.36940    7.87620   10.14140   11.07220    0.35340    0.31030    4.26480   10.72310   11.29680    0.32440    9.97170    0.64080    9.07850    8.85670    9.02910    8.97770   14.66280 3942.00000    8.75000    0.00000
 8800.00000    -999.25   14.10600    6.68570    9.91110   10.92320    0.33570    0.29180    4.26660    9.53410   11.13840    0.30530    9.94100    0.63370    9.07820    8.85670    9.02910    9.03690   16.02060 3983.00000    8.75000    0.00000
