~Version ---------------------------------------------------
VERS   .                                                                             2.0 : CWLS log ASCII Standard -VERSION 2.0
WRAP   .                                                                              NO : One Line per depth step
PROD   .                                                                    Schlumberger : LAS Producer
PROG   .                                                               DLIS to ASCII 2.2 : LAS Program name and version
CREA   .     2008/03/03 10:39                          :LAS Creation date {YYYY/MM/DD hh : mm}
SOURCE . ARever_Fidelity_Deadwood_Canyon_Ranch_43-28H_3d_Rock_Properties_Final_Data.dlis : DLIS File Name
FILE-ID.                                                  Interpretation Chain - gf_user : File Identification Number
~Well ------------------------------------------------------
STRT.F                              10532.0 : START DEPTH
STOP.F                               7652.5 : STOP DEPTH
STEP.F                                 -0.5 : STEP
NULL.                               -999.25 : NULL VALUE
COMP. FIDELITY EXPLORATION & PRODUCTION CO. : COMPANY
WELL.          Deadwood Canyon Ranch 43-28H : WELL
FLD .                               Wildcat : FIELD
LOC .                                       : LOCATION
CNTY.                             MOUNTRAIL : COUNTY
STAT.                             N. DAKOTA : STATE
CTRY.                                   USA : COUNTRY
API .                          33-061-00581 : API NUMBER
UWI .          Deadwood Canyon Ranch 43-28H : UNIQUE WELL ID
DATE.                                       : LOG DATE
SRVC.                          Schlumberger : SERVICE COMPANY
LATI.DEG                             48.129 : LATITUDE
LONG.DEG                           -102.505 : LONGITUDE
GDAT.                                       : GeoDetic Datum
~Curve Information -----------------------------------------
DEPT              .F     : DEPTH (BOREHOLE) {F10.1}
C13_C44_MULT      .      : C44 Multiplier in C13 Equation {F13.4}
C11_BED_TIV       .6PSI  : Dynamic C11 Modulus wrt Bedding - TIV Model {F13.4}
C13_BED_TIV       .6PSI  : Dynamic C13 Modulus wrt Bedding - TIV Model {F13.4}
YME_DYN_11_BED_TIV.6PSI  : Dynamic Horizontal Youngs Modulus wrt Bedding - TIV Model {F13.4}
YME_DYN_33_BED_TIV.6PSI  : Dynamic Vertical Youngs Modulus wrt Bedding - TIV model {F13.4}
PR_DYN_12_BED_TIV .      : Dynamic Horizontal Poissons Ratio wrt Bedding - TIV Model {F13.4}
PR_DYN_13_BED_TIV .      : Dynamic Vertical Poissons Ratio wrt Bedding - TIV Model {F13.4}
SMG               .6PSI  : Shear Modulus {F13.4}
BMK               .6PSI  : Bulk Modulus - K {F13.4}
YME               .6PSI  : Young's Modulus (E) {F13.4}
PR                .      : Poisson's Ratio {F13.4}
MAXXENE_OVERALL   .      : Overall estimate of maximum cross energy {F13.4}
MINXENE_OVERALL   .      : Overall estimate of minimum cross energy {F13.4}
HD2_PPC2          .IN    : PPC2 Hole Diameter 2 {F13.4}
HD1_PPC2          .IN    : PPC2 Hole Diameter 1 {F13.4}
HD2_PPC1          .IN    : PPC1 Hole Diameter 2 {F13.4}
HD1_PPC1          .IN    : PPC1 Hole Diameter 1 {F13.4}
GR_EDTC           .GAPI  : Gamma Ray {F13.4}
TENS              .LBF   : Cable Tension {F13.4}
BS                .IN    : Bit Size {F13.4}
TDEP              .F     : {F13.4}
~Params ----------------------------------------------------
RUN .               : RUN NUMBER
PDAT.  GROUND LEVEL : Permanent Datum
EPD .F       2111.0 : Elevation of Permanent Datum above Mean Sea Level
EPD .F       2111.0 : Elevation of tool zero above Mean Sea Level
LMF . KELLY BUSHING : Logging Measured From (Name of Logging Elevation Reference)
APD .F         18.0 : Elevation of Depth Reference (LMF) above Permanent Datum
~Other -----------------------------------------------------
~ASCII -----------------------------------------------------
# ...
 9773.00000    -999.25   12.01640    4.17250    9.85230    9.66870    0.25600    0.26260    3.82360    6.72130    9.64250    0.26090    8.53530    1.77240    9.08710    8.86770    9.04820    8.92730   27.78400 4293.00000    8.75000    0.00000
 9772.50000    -999.25   12.52840    4.68460    9.96920    9.85470    0.27100    0.27530    3.86010    7.25790    9.83640    0.27410    8.56220    1.77140    9.09130    8.88010    9.07400    8.92730   27.64320 4254.00000    8.75000    0.00000
 9772.00000    -999.25   12.37280    4.53100    9.93620    9.84020    0.26710    0.27070    3.86920    7.11030    9.82530    0.26970    8.59650    1.76140    9.08710    8.86770    9.06110    8.92870   29.88590 4313.00000    8.75000    0.00000
 9771.50000    -999.25   12.20730    4.36350    9.90110    9.79300    0.26230    0.26620    3.86380    6.93930    9.77690    0.26520    8.63920    1.73530    9.08730    8.87940    9.06110    8.92730   33.81830 4314.00000    8.75000    0.00000
 9771.00000    -999.25   11.81100    3.96910    9.80630    9.69020    0.25050    0.25450    3.85900    6.54160    9.67450    0.25350    8.68400    1.70190    9.10040    8.87940    9.06430    8.92870   32.78330 4271.00000    8.75000    0.00000
 9770.50000    -999.25   12.01920    4.17730    9.85180    9.67840    0.25630    0.26250    3.82810    6.72910    9.65360    0.26090    8.73770    1.65890    9.08290    8.89050    9.05150    8.92870   33.47330 4274.00000    8.75000    0.00000
 9770.00000    -999.25   12.14730    4.30330    9.87640    9.61840    0.25910    0.26860    3.78350    6.82520    9.58020    0.26610    8.79110    1.61750    9.09130    8.89180    9.06110    8.92730   30.85170 4269.00000    8.75000    0.00000
 9769.50000    -999.25   12.14990    4.30790    9.87590    9.62720    0.25940    0.26850    3.78750    6.83250    9.59030    0.26610    8.84220    1.57130    9.08710    8.89120    9.06110    8.92870   34.12940 4277.00000    8.75000    0.00000
 9769.00000    -999.25   11.97310    4.13130    9.84630    9.74610    0.25560    0.25920    3.86730    6.70930    9.73200    0.25820    8.88300    1.52600    9.10020    8.87940    9.07720    8.92870   33.62040 4317.00000    8.75000    0.00000
 9768.50000    -999.25   11.53820    3.69650    9.74320    9.72500    0.24250    0.24310    3.91120    6.30390    9.72280    0.24290    8.92260    1.47040    9.12680    8.87940    9.07720    8.92870   32.08880 4240.00000    8.75000    0.00000
 9768.00000    -999.25   12.10580    4.26200    9.87550    9.72990    0.25900    0.26430    3.84380    6.82430    9.70870    0.26290    8.96100    1.41390    9.12680    8.86770    9.08680    8.92730   27.04140 4260.00000    8.75000    0.00000
 9767.50000    -999.25   12.23190    4.38820    9.91220    9.88010    0.26370    0.26490    3.90460    6.99120    9.87530    0.26460    9.00950    1.35890    9.14010    8.86770    9.07400    8.92730   26.68780 4238.00000    8.75000    0.00000
 9767.00000    -999.25   12.17060    4.31280    9.92690   10.10840    0.26330    0.25690    4.02610    6.99710   10.13440    0.25860    9.05180    1.30860    9.12660    8.86770    9.09000    8.91680   27.55730 4285.00000    8.75000    0.00000
 9766.50000    -999.25   12.50100    4.64310    9.99910   10.16790    0.27250    0.26630    4.01970    7.32320   10.19400    0.26800    9.08020    1.26460    9.12680    8.86770    9.07400    8.91680   26.73930 4308.00000    8.75000    0.00000
 9766.00000    -999.25   13.29980    4.80410   10.71490   10.27020    0.26120    0.27690    4.00830    7.47550   10.20150    0.27260    9.10370    1.23200    9.11350    8.86770    9.07400    8.91530   22.77030 4299.00000    8.75000    0.00000
 9765.50000    -999.25   13.43760    4.94210   10.75280   10.41650    0.26570    0.27760    4.06640    7.65240   10.36340    0.27430    9.11280    1.21430    9.12680    8.85600    9.07400    8.91530   18.45750 4261.00000    8.75000    0.00000
 9765.00000    -999.25   13.44830    4.95320   10.77170   10.64430    0.26800    0.27240    4.17890    7.73890   10.62440    0.27120    9.11380    1.20170    9.14010    8.85600    9.08680    8.91530   20.17930 4307.00000    8.75000    0.00000
 9764.50000    -999.25   13.34480    4.84990   10.76240   10.80410    0.26690    0.26550    4.26990    7.69650   10.81040    0.26590    9.11600    1.19160    9.12660    8.85600    9.06110    8.91530   18.45550 4276.00000    8.75000    0.00000
 9764.00000    -999.25   13.49860    5.00550   10.77140   10.53450    0.26830    0.27660    4.11870    7.75090   10.49680    0.27430    9.12240    1.17590    9.12680    8.83250    9.07400    8.91680   20.80880 4274.00000    8.75000    0.00000
 9763.50000    -999.25   13.31280    4.81740   10.73310   10.48180    0.26340    0.27210    4.11240    7.55860   10.44330    0.26970    9.11460    1.16580    9.10020    8.84430    9.07400    8.91530   22.89030 4296.00000    8.75000    0.00000
 9763.00000    -999.25   12.79680    4.30380   10.61550   10.39780    0.24990    0.25690    4.13030    7.05700   10.36830    0.25510    9.10150    1.16020    9.08710    8.85600    9.07720    8.91680   27.88540 4249.00000    8.75000    0.00000
 9762.50000    -999.25   11.76250    3.90310    9.84490   10.27560    0.25260    0.23870    4.15830    6.67600   10.33020    0.24210    9.08000    1.16200    9.11790    8.85670    9.04820    8.91530   27.77480 4313.00000    8.75000    0.00000
 9762.00000    -999.25   12.81920    4.32360   10.61010   10.21250    0.24890    0.26200    4.03530    7.01310   10.15760    0.25860    9.06140    1.16730    9.08710    8.85600    9.07400    8.91530   22.82310 4229.00000    8.75000    0.00000
 9761.50000    -999.25   13.48060    4.98750   10.76540   10.50090    0.26750    0.27690    4.10390    7.72300   10.45900    0.27430    9.04000    1.17190    9.07400    8.84430    9.05150    8.91680   18.69060 4249.00000    8.75000    0.00000
 9761.00000    -999.25   13.54340    5.05050   10.78880   10.65370    0.27030    0.27510    4.17350    7.83270   10.63220    0.27380    9.02190    1.17860    9.08710    8.85600    9.06440    8.91680   17.48300 4268.00000    8.75000    0.00000
 9760.50000    -999.25   13.49830    5.00290   10.77300   10.53000    0.26810    0.27670    4.11660    7.74690   10.49140    0.27430    9.00340    1.18880    9.10020    8.85600    9.06260    8.91530   19.61590 4261.00000    8.75000    0.00000
 9760.00000    -999.25   12.72650    4.85200   10.06470   10.27220    0.27810    0.27040    4.04920    7.55190   10.30570    0.27260    8.98820    1.19830    9.13090    8.85670    9.06440    8.90480   20.64110 4257.00000    8.75000    0.00000
 9759.50000    -999.25   12.34880    4.45540    9.99140   10.06090    0.26580    0.26330    3.98400    7.11150   10.07130    0.26400    8.97120    1.20300    9.10020    8.85600    9.07400    8.89150   25.47140 4245.00000    8.75000    0.00000
 9759.00000    -999.25   11.90100    4.04100    9.85810    9.94260    0.25420    0.25130    3.97500    6.69110    9.95400    0.25210    8.95410    1.20920    9.07400    8.85600    9.06110    8.91530   25.17390 4247.00000    8.75000    0.00000
 9758.50000    -999.25   12.04370    4.18570    9.88890    9.94910    0.25850    0.25630    3.96120    6.82660    9.95760    0.25690    8.94230    1.21210    9.08710    8.86770    9.06440    8.91680   26.04640 4283.00000    8.75000    0.00000
 9758.00000    -999.25   12.51770    4.65940    9.97650    9.80970    0.26950    0.27590    3.83920    7.21860    9.78320    0.27410    8.95030    1.21090    9.10040    8.85600    9.06440    8.91680   20.40630 4241.00000    8.75000    0.00000
 9757.50000    -999.25   13.56540    5.07170   10.75210   10.13090    0.26590    0.28880    3.91030    7.67750   10.02830    0.28230    8.96740    1.20300    9.11790    8.86840    9.06430    8.91680   21.61340 4246.00000    8.75000    0.00000
 9757.00000    -999.25   12.85130    4.97680   10.08090   10.17830    0.28020    0.27650    3.99000    7.63700   10.19450    0.27750    8.97910    1.19150    9.08710    8.84430    9.06430    8.90490   22.30340 4191.00000    8.75000    0.00000
