~Version ---------------------------------------------------
VERS   .                                                                             2.0 : CWLS log ASCII Standard -VERSION 2.0
WRAP   .                                                                              NO : One Line per depth step
PROD   .                                                                    Schlumberger : LAS Producer
PROG   .                                                               DLIS to ASCII 2.2 : LAS Program name and version
CREA   .     2008/03/03 10:39                          :LAS Creation date {YYYY/MM/DD hh : mm}
SOURCE . ARever_Fidelity_Deadwood_Canyon_Ranch_43-28H_3d_Rock_Properties_Final_Data.dlis : DLIS File Name
FILE-ID.                                                  Interpretation Chain - gf_user : File Identification Number
~Well ------------------------------------------------------
STRT.F                              10532.0 : START DEPTH
STOP.F                               7652.5 : STOP DEPTH
STEP.F                                 -0.5 : STEP
NULL.                               -999.25 : NULL VALUE
COMP. FIDELITY EXPLORATION & PRODUCTION CO. : COMPANY
WELL.          Deadwood Canyon Ranch 43-28H : WELL
FLD .                               Wildcat : FIELD
LOC .                                       : LOCATION
CNTY.                             MOUNTRAIL : COUNTY
STAT.                             N. DAKOTA : STATE
CTRY.                                   USA : COUNTRY
API .                          33-061-00581 : API NUMBER
UWI .          Deadwood Canyon Ranch 43-28H : UNIQUE WELL ID
DATE.                                       : LOG DATE
SRVC.                          Schlumberger : SERVICE COMPANY
LATI.DEG                             48.129 : LATITUDE
LONG.DEG                           -102.505 : LONGITUDE
GDAT.                                       : GeoDetic Datum
~Curve Information -----------------------------------------
DEPT              .F     : DEPTH (BOREHOLE) {F10.1}
C13_C44_MULT      .      : C44 Multiplier in C13 Equation {F13.4}
C11_BED_TIV       .6PSI  : Dynamic C11 Modulus wrt Bedding - TIV Model {F13.4}
C13_BED_TIV       .6PSI  : Dynamic C13 Modulus wrt Bedding - TIV Model {F13.4}
YME_DYN_11_BED_TIV.6PSI  : Dynamic Horizontal Youngs Modulus wrt Bedding - TIV Model {F13.4}
YME_DYN_33_BED_TIV.6PSI  : Dynamic Vertical Youngs Modulus wrt Bedding - TIV model {F13.4}
PR_DYN_12_BED_TIV .      : Dynamic Horizontal Poissons Ratio wrt Bedding - TIV Model {F13.4}
PR_DYN_13_BED_TIV .      : Dynamic Vertical Poissons Ratio wrt Bedding - TIV Model {F13.4}
SMG               .6PSI  : Shear Modulus {F13.4}
BMK               .6PSI  : Bulk Modulus - K {F13.4}
YME               .6PSI  : Young's Modulus (E) {F13.4}
PR                .      : Poisson's Ratio {F13.4}
MAXXENE_OVERALL   .      : Overall estimate of maximum cross energy {F13.4}
MINXENE_OVERALL   .      : Overall estimate of minimum cross energy {F13.4}
HD2_PPC2          .IN    : PPC2 Hole Diameter 2 {F13.4}
HD1_PPC2          .IN    : PPC2 Hole Diameter 1 {F13.4}
HD2_PPC1          .IN    : PPC1 Hole Diameter 2 {F13.4}
HD1_PPC1          .IN    : PPC1 Hole Diameter 1 {F13.4}
GR_EDTC           .GAPI  : Gamma Ray {F13.4}
TENS              .LBF   : Cable Tension {F13.4}
BS                .IN    : Bit Size {F13.4}
TDEP              .F     : {F13.4}
~Params ----------------------------------------------------
RUN .               : RUN NUMBER
PDAT.  GROUND LEVEL : Permanent Datum
EPD .F       2111.0 : Elevation of Permanent Datum above Mean Sea Level
EPD .F       2111.0 : Elevation of tool zero above Mean Sea Level
LMF . KELLY BUSHING : Logging Measured From (Name of Logging Elevation Reference)
APD .F         18.0 : Elevation of Depth Reference (LMF) above Permanent Datum
~Other -----------------------------------------------------
~ASCII -----------------------------------------------------
# ...
 8618.00000    -999.25   14.31610    5.86560   10.98710   11.94300    0.30020    0.26740    4.74220    9.02960   12.10710    0.27650   11.31310    0.56660    9.11790    8.88010    9.10610    8.94200    9.28510 3927.00000    8.75000    0.00000
 8617.50000    -999.25   14.38860    5.91970   11.02640   12.08420    0.30200    0.26600    4.80640    9.12670   12.26590    0.27600   11.40360    0.55770    9.11790    8.89190    9.10610    8.93000    6.19160 3951.00000    8.75000    0.00000
 8617.00000    -999.25   15.35160    7.51670   10.59680   12.43580    0.35250    0.28010    4.92780   10.80680   12.83280    0.30210   11.34340    0.55230    9.10880    8.90420    9.10610    8.93000    6.91980 3874.00000    8.75000    0.00000
 8616.50000    -999.25   15.24220    7.40640   10.55350   12.05730    0.34680    0.28620    4.74540   10.57400   12.38370    0.30480   11.28460    0.55400    9.09570    8.91590    9.08040    8.93000    6.19090 3908.00000    8.75000    0.00000
 8616.00000    -999.25   15.16860    7.36450   10.47720   11.62670    0.34250    0.29450    4.53650   10.39190   11.88060    0.30950   11.23030    0.55990    9.10040    8.96140    9.06760    8.95390    7.28290 3907.00000    8.75000    0.00000
 8615.50000    -999.25   14.19520    6.46970   10.25240   11.36750    0.32710    0.28240    4.47290    9.45460   11.59090    0.29570   11.25260    0.57980    9.12180    8.97440    9.06760    9.01320    8.55730 3886.00000    8.75000    0.00000
 8615.00000    -999.25   12.64680    5.19730    9.72630   11.05350    0.30560    0.25630    4.44010    8.16090   11.27550    0.26970   11.27590    0.58760    9.11790    8.98540    9.09320    9.01320   10.37870 3867.00000    8.75000    0.00000
 8614.50000    -999.25   11.44780    4.49620    9.03180   10.69860    0.29930    0.23810    4.36700    7.41190   10.95030    0.25380   11.26040    0.59380    9.17050    8.96210    9.09320    9.01320   12.20000 3909.00000    8.75000    0.00000
 8614.00000    -999.25   10.21700    4.07790    8.02870   10.00890    0.30780    0.22880    4.12620    6.83390   10.30470    0.24870   11.31570    0.59720    9.23620    8.93870    9.13170    9.00140   12.68950 3932.00000    8.75000    0.00000
 8613.50000    -999.25   10.91820    3.96480    8.86970    9.80080    0.27560    0.24110    3.97300    6.61590    9.93110    0.24980   11.35750    0.59850    9.26650    8.90420    9.19580    9.01320   12.14340 3948.00000    8.75000    0.00000
 8613.00000    -999.25   10.88430    3.91780    8.86720    9.69750    0.27280    0.24200    3.92570    6.53710    9.81280    0.24980   11.43090    0.59620    9.26250    8.91530    9.19580    9.00140   13.23860 3952.00000    8.75000    0.00000
 8612.50000    -999.25   11.24900    3.73840    9.41430    9.89510    0.25350    0.23730    4.01020    6.41310    9.95550    0.24130   11.47390    0.58940    9.23620    8.89180    9.20870    8.96570   12.92950 3952.00000    8.75000    0.00000
 8612.00000    -999.25   11.28040    4.00290    9.23840   10.05270    0.26940    0.24070    4.07230    6.71980   10.16370    0.24790   11.49470    0.57930    9.16140    8.86910    9.17030    8.94210   13.29360 3974.00000    8.75000    0.00000
 8611.50000    -999.25   13.27340    5.45120   10.13780   10.57140    0.29600    0.27920    4.14650    8.21660   10.64830    0.28400   11.54560    0.57200    9.15730    8.86840    9.15750    8.94210   10.92340 3958.00000    8.75000    0.00000
 8611.00000    -999.25   15.08970    6.61800   11.04490   10.95170    0.30370    0.30750    4.18460    9.40740   10.93270    0.30630   11.57100    0.56540    9.15310    8.89120    9.13180    8.93020   11.83540 3878.00000    8.75000    0.00000
 8610.50000    -999.25   15.87810    7.38760   11.18630   11.18460    0.31750    0.31760    4.24430   10.21720   11.18420    0.31760   11.56230    0.55110    9.17030    8.89180    9.11890    8.91820   14.20210 3938.00000    8.75000    0.00000
 8610.00000    -999.25   13.94350    6.08920   10.31250   11.06450    0.31300    0.28330    4.33760    8.98290   11.20860    0.29200   11.54520    0.51900    9.14830    8.88080    9.09330    8.91820   18.02700 3948.00000    8.75000    0.00000
 8609.50000    -999.25   12.76890    5.46350    9.60130   10.83620    0.31430    0.26550    4.32190    8.34800   11.05750    0.27920   11.54830    0.48090    9.11770    8.86840    9.10610    8.91820   20.02960 3959.00000    8.75000    0.00000
 8609.00000    -999.25   12.26500    5.20650    9.27680   10.64580    0.31430    0.25970    4.26940    8.05630   10.88540    0.27480   11.57530    0.44280    9.11770    8.88010    9.08040    8.91820   17.11670 3929.00000    8.75000    0.00000
 8608.50000    -999.25   12.98330    5.41300    9.87900   10.82570    0.30500    0.26850    4.29790    8.28070   10.99190    0.27880   11.58230    0.40570    9.10880    8.86910    9.08040    8.91820   14.93320 3928.00000    8.75000    0.00000
 8608.00000    -999.25   13.83790    5.98520   10.34520   11.73650    0.31740    0.26610    4.68100    9.10950   11.98930    0.28060   11.51330    0.38830    9.10460    8.86840    9.09330    8.91820   11.10990 3969.00000    8.75000    0.00000
 8607.50000    -999.25   14.58770    6.19170   10.97240   11.80210    0.30690    0.27700    4.64910    9.29330   11.95390    0.28560   11.36290    0.36890    9.09150    8.89190    9.08040    8.97760   11.83670 3936.00000    8.75000    0.00000
 8607.00000    -999.25   15.78190    7.34820   11.14310   11.41900    0.32130    0.31000    4.36950   10.26190   11.47920    0.31360   11.21860    0.35490    9.10880    8.95100    9.08040    8.95390   10.01180 3958.00000    8.75000    0.00000
 8606.50000    -999.25   14.48280    6.84640   10.15890   10.82520    0.33030    0.30120    4.18610    9.63900   10.97030    0.31030   11.23290    0.34750    9.11790    9.03220    9.06760    9.08440   15.65560 3948.00000    8.75000    0.00000
 8606.00000    -999.25   11.06940    4.99160    8.13450   10.12890    0.33840    0.24960    4.11740    7.74170   10.49220    0.27410   11.21250    0.34180    9.18380    9.06720    9.08040    9.07260   19.11630 3940.00000    8.75000    0.00000
 8605.50000    -999.25   10.10400    4.37330    7.60070    9.32990    0.32630    0.24610    3.79710    6.90920    9.62770    0.26780   11.23120    0.33790    9.19680    9.10220    9.08040    9.08440   24.39960 3948.00000    8.75000    0.00000
 8605.00000    -999.25    8.40810    3.26850    6.68620    8.28680    0.30090    0.22590    3.42200    5.55400    8.51680    0.24440   11.21750    0.31710    9.18790    9.06770    9.13170    9.10810   24.58160 3974.00000    8.75000    0.00000
 8604.50000    -999.25    7.53210    2.45940    6.38800    7.63580    0.25930    0.20590    3.19200    4.59060    7.77420    0.21770   11.20010    0.30850    9.18380    9.00880    9.19580    9.01330   24.58460 3966.00000    8.75000    0.00000
 8604.00000    -999.25    7.60810    2.49640    6.43080    7.43990    0.25810    0.21350    3.08730    4.55710    7.55560    0.22370   11.30180    0.30030    9.24940    8.92700    9.20870    8.95390   20.64970 3987.00000    8.75000    0.00000
 8603.50000    -999.25    8.40210    3.02160    6.83680    7.30980    0.27070    0.24740    2.94270    4.98460    7.37660    0.25340   11.34740    0.29300    9.26250    8.88010    9.20870    8.95390   17.55950 3904.00000    8.75000    0.00000
 8603.00000    -999.25    8.19010    3.53520    6.11780    6.78310    0.31430    0.27190    2.68900    5.32960    6.90560    0.28400   11.47660    0.28910    9.32820    8.89180    9.19590    8.94210   18.28480 3914.00000    8.75000    0.00000
 8602.50000    -999.25    7.68210    3.26100    5.79410    6.43180    0.31050    0.26840    2.55630    4.96690    6.54590    0.28030   11.43690    0.28370    9.38040    8.95040    9.24710    9.00140   20.75670 3904.00000    8.75000    0.00000
 8602.00000    -999.25    6.57170    2.47940    5.27710    6.21350    0.28950    0.23270    2.54500    4.17850    6.34660    0.24690   11.40480    0.28180    9.34140    8.86840    9.27270    8.94210   22.93660 3941.00000    8.75000    0.00000
