~Version ---------------------------------------------------
VERS   .                                                                             2.0 : CWLS log ASCII Standard -VERSION 2.0
WRAP   .                                                                              NO : One Line per depth step
PROD   .                                                                    Schlumberger : LAS Producer
PROG   .                                                               DLIS to ASCII 2.2 : LAS Program name and version
CREA   .     2008/03/03 10:39                          :LAS Creation date {YYYY/MM/DD hh : mm}
SOURCE . ARever_Fidelity_Deadwood_Canyon_Ranch_43-28H_3d_Rock_Properties_Final_Data.dlis : DLIS File Name
FILE-ID.                                                  Interpretation Chain - gf_user : File Identification Number
~Well ------------------------------------------------------
STRT.F                              10532.0 : START DEPTH
STOP.F                               7652.5 : STOP DEPTH
STEP.F                                 -0.5 : STEP
NULL.                               -999.25 : NULL VALUE
COMP. FIDELITY EXPLORATION & PRODUCTION CO. : COMPANY
WELL.          Deadwood Canyon Ranch 43-28H : WELL
FLD .                               Wildcat : FIELD
LOC .                                       : LOCATION
CNTY.                             MOUNTRAIL : COUNTY
STAT.                             N. DAKOTA : STATE
CTRY.                                   USA : COUNTRY
API .                          33-061-00581 : API NUMBER
UWI .          Deadwood Canyon Ranch 43-28H : UNIQUE WELL ID
DATE.                                       : LOG DATE
SRVC.                          Schlumberger : SERVICE COMPANY
LATI.DEG                             48.129 : LATITUDE
LONG.DEG                           -102.505 : LONGITUDE
GDAT.                                       : GeoDetic Datum
~Curve Information -----------------------------------------
DEPT              .F     : DEPTH (BOREHOLE) {F10.1}
C13_C44_MULT      .      : C44 Multiplier in C13 Equation {F13.4}
C11_BED_TIV       .6PSI  : Dynamic C11 Modulus wrt Bedding - TIV Model {F13.4}
C13_BED_TIV       .6PSI  : Dynamic C13 Modulus wrt Bedding - TIV Model {F13.4}
YME_DYN_11_BED_TIV.6PSI  : Dynamic Horizontal Youngs Modulus wrt Bedding - TIV Model {F13.4}
YME_DYN_33_BED_TIV.6PSI  : Dynamic Vertical Youngs Modulus wrt Bedding - TIV model {F13.4}
PR_DYN_12_BED_TIV .      : Dynamic Horizontal Poissons Ratio wrt Bedding - TIV Model {F13.4}
PR_DYN_13_BED_TIV .      : Dynamic Vertical Poissons Ratio wrt Bedding - TIV Model {F13.4}
SMG               .6PSI  : Shear Modulus {F13.4}
BMK               .6PSI  : Bulk Modulus - K {F13.4}
YME               .6PSI  : Young's Modulus (E) {F13.4}
PR                .      : Poisson's Ratio {F13.4}
MAXXENE_OVERALL   .      : Overall estimate of maximum cross energy {F13.4}
MINXENE_OVERALL   .      : Overall estimate of minimum cross energy {F13.4}
HD2_PPC2          .IN    : PPC2 Hole Diameter 2 {F13.4}
HD1_PPC2          .IN    : PPC2 Hole Diameter 1 {F13.4}
HD2_PPC1          .IN    : PPC1 Hole Diameter 2 {F13.4}
HD1_PPC1          .IN    : PPC1 Hole Diameter 1 {F13.4}
GR_EDTC           .GAPI  : Gamma Ray {F13.4}
TENS              .LBF   : Cable Tension {F13.4}
BS                .IN    : Bit Size {F13.4}
TDEP              .F     : {F13.4}
~Params ----------------------------------------------------
RUN .               : RUN NUMBER
PDAT.  GROUND LEVEL : Permanent Datum
EPD .F       2111.0 : Elevation of Permanent Datum above Mean Sea Level
EPD .F       2111.0 : Elevation of tool zero above Mean Sea Level
LMF . KELLY BUSHING : Logging Measured From (Name of Logging Elevation Reference)
APD .F         18.0 : Elevation of Depth Reference (LMF) above Permanent Datum
~Other -----------------------------------------------------
~ASCII -----------------------------------------------------
# ...
 8420.00000    -999.25   10.15640    4.61410    7.35250    8.17190    0.32660    0.28110    3.21950    6.76220    8.33550    0.29460   10.19810    0.24290    9.13510    8.93930    9.13180    8.93000   40.13800 3923.00000    8.75000    0.00000
 8419.50000    -999.25   10.34370    4.88080    7.33030    8.52670    0.34180    0.27560    3.38650    7.14090    8.77260    0.29520   10.19120    0.24190    9.10880    8.95100    9.14460    9.03680   42.10910 3926.00000    8.75000    0.00000
 8419.00000    -999.25    9.68540    5.07870    6.39320    8.44490    0.38780    0.26040    3.42800    7.36830    8.90330    0.29860   10.19540    0.23630    9.13510    9.14930    9.15740    9.02490   35.56110 4002.00000    8.75000    0.00000
 8418.50000    -999.25    9.19420    4.59390    6.32140    8.38470    0.37410    0.25120    3.42390    6.88080    8.81030    0.28660   10.19920    0.23180    9.14810    9.16090    9.19590    9.03680   25.89240 3965.00000    8.75000    0.00000
 8418.00000    -999.25    8.95080    4.34410    6.29140    8.33970    0.36570    0.24650    3.41520    6.62510    8.74310    0.28000   10.20420    0.22530    9.14830    9.13770    9.19590    9.02490   18.35240 3959.00000    8.75000    0.00000
 8417.50000    -999.25    9.44250    4.39190    6.78690    8.26020    0.34380    0.26080    3.32690    6.61290    8.54730    0.28460   10.20450    0.21890    9.17460    9.13770    9.23430    9.04860   15.41230 3944.00000    8.75000    0.00000
 8417.00000    -999.25    9.15490    4.10430    6.73990    8.21620    0.33450    0.25390    3.32490    6.32400    8.48730    0.27630   10.19180    0.21830    9.21390    9.07940    9.24710    9.04860   13.93890 3810.00000    8.75000    0.00000
 8416.50000    -999.25    8.74510    4.20600    6.17780    8.04440    0.36100    0.24940    3.28320    6.39860    8.41110    0.28090   10.19370    0.22290    9.31500    9.19550    9.31110    9.15530   11.64300 3856.00000    8.75000    0.00000
 8416.00000    -999.25    8.74580    4.20670    6.17790    8.04550    0.36100    0.24940    3.28370    6.39960    8.41240    0.28090   10.18050    0.23310    9.35830    9.18420    9.33670    9.15530   12.61680 3891.00000    8.75000    0.00000
 8415.50000    -999.25    8.42070    3.88190    6.13910    8.23900    0.35260    0.23510    3.40130    6.15370    8.61640    0.26660   10.06170    0.24300    9.37130    9.18420    9.37500    9.15530   11.50510 3822.00000    8.75000    0.00000
 8415.00000    -999.25    8.83650    3.60160    6.87080    8.52920    0.31250    0.23330    3.50500    5.94170    8.78720    0.25350    9.73490    0.25450    9.37130    9.18420    9.38780    9.16720   12.49130 3826.00000    8.75000    0.00000
 8414.50000    -999.25    9.43060    3.75990    7.39720    8.92190    0.30450    0.23630    3.65120    6.19710    9.15560    0.25380    9.72420    0.26750    9.38450    9.14930    9.38780    9.16720   13.96370 3861.00000    8.75000    0.00000
 8414.00000    -999.25   11.09690    4.64640    8.42560    9.25500    0.30620    0.26870    3.67480    7.09800    9.40180    0.27920    9.72200    0.26250    9.38410    9.06770    9.34950    9.08440   14.30880 3812.00000    8.75000    0.00000
 8413.50000    -999.25   12.83700    5.09260    9.92430    9.70510    0.28150    0.29040    3.75300    7.59410    9.66650    0.28790    9.65980    0.25800    9.38410    9.04440    9.34950    9.00140   10.86480 3804.00000    8.75000    0.00000
 8413.00000    -999.25   14.10390    5.75930   10.74380   10.52720    0.28750    0.29590    4.05410    8.46150   10.48730    0.29340    9.64240    0.25960    9.37130    8.93930    9.28560    9.01330    6.77200 3766.00000    8.75000    0.00000
 8412.50000    -999.25   14.63580    6.31010   10.87280   11.27820    0.30590    0.29040    4.38460    9.23400   11.35630    0.29500    9.63990    0.25980    9.29270    8.92760    9.27280    9.02520    4.18370 3864.00000    8.75000    0.00000
 8412.00000    -999.25   15.16560    6.80510   11.02020   11.72770    0.31810    0.29100    4.56840    9.85210   11.87040    0.29920    9.63900    0.26430    9.26220    8.93870    9.20880    9.00140    5.49380 3853.00000    8.75000    0.00000
 8411.50000    -999.25   15.27920    6.91900   11.05010   11.89760    0.32170    0.28950    4.64500   10.01740   12.06960    0.29920    9.64640    0.26640    9.23600    8.93870    9.14470    9.00140    4.83740 3838.00000    8.75000    0.00000
 8411.00000    -999.25   15.70840    7.33010   11.12030   11.84660    0.32730    0.29870    4.58970   10.39130   12.00200    0.30750    9.64730    0.26260    9.16140    8.92760    9.11900    8.98950    5.40690 3839.00000    8.75000    0.00000
 8410.50000    -999.25   15.73160    7.33510   11.14170   11.85720    0.32690    0.29880    4.59280   10.39840   12.01030    0.30750    9.64780    0.25600    9.16120    8.92760    9.06760    8.97760    5.90010 3884.00000    8.75000    0.00000
 8410.00000    -999.25   15.73310    7.33660   11.14210   11.85930    0.32700    0.29880    4.59380   10.40060   12.01280    0.30750    9.65280    0.24770    9.10880    8.91590    9.06760    8.97760    8.52140 3806.00000    8.75000    0.00000
 8409.50000    -999.25   15.22660    7.42200   10.50580   11.87340    0.34610    0.29000    4.65650   10.52910   12.17480    0.30730    9.65620    0.23780    9.12200    8.90420    9.05480    8.95380    8.98650 3790.00000    8.75000    0.00000
 8409.00000    -999.25   15.32030    7.54730   10.47230   11.71330    0.34730    0.29510    4.57270   10.59830   11.99320    0.31140    9.67400    0.22490    9.09550    8.90420    9.05470    8.97760    8.08860 3826.00000    8.75000    0.00000
 8408.50000    -999.25   15.53030    7.74100   10.49430   11.50950    0.34730    0.30330    4.45820   10.71520   11.74560    0.31730    9.68130    0.21200    9.08240    8.90420    9.04190    8.96560    6.04510 3901.00000    8.75000    0.00000
 8408.00000    -999.25   15.66790    7.87840   10.49850   11.39060    0.34780    0.30840    4.39120   10.80770   11.60240    0.32110    9.69150    0.20720    9.12200    8.90420    9.06750    8.96560    5.41610 3895.00000    8.75000    0.00000
 8407.50000    -999.25   15.45900    7.63730   10.50580   11.37520    0.34320    0.30540    4.39350   10.56810   11.57630    0.31740    9.69040    0.20910    9.12200    8.90420    9.10600    8.94190    5.98620 3874.00000    8.75000    0.00000
 8407.00000    -999.25   14.98590    7.16430   10.44490   11.32030    0.33540    0.29840    4.39430   10.09560   11.51260    0.30990    9.69640    0.21670    9.17050    8.90350    9.15740    8.94200    6.06340 3848.00000    8.75000    0.00000
 8406.50000    -999.25   14.97650    7.17110   10.42870   11.32620    0.33610    0.29810    4.39850   10.10530   11.52360    0.30990    9.75180    0.22870    9.18770    8.89250    9.19590    8.95380    6.22730 3902.00000    8.75000    0.00000
 8406.00000    -999.25   14.77010    6.95050   10.41530   11.31280    0.33190    0.29460    4.40440    9.88860   11.50500    0.30610    9.76760    0.24590    9.29270    8.90420    9.25020    8.94340    6.68610 3910.00000    8.75000    0.00000
 8405.50000    -999.25   14.77980    6.95830   10.41940   11.32410    0.33210    0.29450    4.40930    9.89970   11.51790    0.30610    9.78350    0.26040    9.34510    8.90420    9.27270    8.94200    6.35730 3860.00000    8.75000    0.00000
 8405.00000    -999.25   14.77800    6.97270   10.40490   11.34110    0.33310    0.29410    4.41850    9.92030   11.54180    0.30610    9.78840    0.27470    9.34530    8.90420    9.28560    8.95390    5.86640 3832.00000    8.75000    0.00000
 8404.50000    -999.25   14.80320    6.98170   10.42520   11.35690    0.33290    0.29420    4.42420    9.93300   11.55670    0.30610    9.82590    0.28570    9.37130    8.89250    9.29830    8.94200    5.07910 3941.00000    8.75000    0.00000
 8404.00000    -999.25   14.78690    6.98160   10.40710   11.35360    0.33330    0.29400    4.42420    9.93300   11.55670    0.30610    9.82220    0.28420    9.35420    8.89180    9.28560    8.95390    5.08130 3956.00000    8.75000    0.00000
