~Version ---------------------------------------------------
VERS   .                                                                             2.0 : CWLS log ASCII Standard -VERSION 2.0
WRAP   .                                                                              NO : One Line per depth step
PROD   .                                                                    Schlumberger : LAS Producer
PROG   .                                                               DLIS to ASCII 2.2 : LAS Program name and version
CREA   .     2008/03/03 10:39                          :LAS Creation date {YYYY/MM/DD hh : mm}
SOURCE . ARever_Fidelity_Deadwood_Canyon_Ranch_43-28H_3d_Rock_Properties_Final_Data.dlis : DLIS File Name
FILE-ID.                                                  Interpretation Chain - gf_user : File Identification Number
~Well ------------------------------------------------------
STRT.F                              10532.0 : START DEPTH
STOP.F                               7652.5 : STOP DEPTH
STEP.F                                 -0.5 : STEP
NULL.                               -999.25 : NULL VALUE
COMP. FIDELITY EXPLORATION & PRODUCTION CO. : COMPANY
WELL.          Deadwood Canyon Ranch 43-28H : WELL
FLD .                               Wildcat : FIELD
LOC .                                       : LOCATION
CNTY.                             MOUNTRAIL : COUNTY
STAT.                             N. DAKOTA : STATE
CTRY.                                   USA : COUNTRY
API .                          33-061-00581 : API NUMBER
UWI .          Deadwood Canyon Ranch 43-28H : UNIQUE WELL ID
DATE.                                       : LOG DATE
SRVC.                          Schlumberger : SERVICE COMPANY
LATI.DEG                             48.129 : LATITUDE
LONG.DEG                           -102.505 : LONGITUDE
GDAT.                                       : GeoDetic Datum
~Curve Information -----------------------------------------
DEPT              .F     : DEPTH (BOREHOLE) {F10.1}
C13_C44_MULT      .      : C44 Multiplier in C13 Equation {F13.4}
C11_BED_TIV       .6PSI  : Dynamic C11 Modulus wrt Bedding - TIV Model {F13.4}
C13_BED_TIV       .6PSI  : Dynamic C13 Modulus wrt Bedding - TIV Model {F13.4}
YME_DYN_11_BED_TIV.6PSI  : Dynamic Horizontal Youngs Modulus wrt Bedding - TIV Model {F13.4}
YME_DYN_33_BED_TIV.6PSI  : Dynamic Vertical Youngs Modulus wrt Bedding - TIV model {F13.4}
PR_DYN_12_BED_TIV .      : Dynamic Horizontal Poissons Ratio wrt Bedding - TIV Model {F13.4}
PR_DYN_13_BED_TIV .      : Dynamic Vertical Poissons Ratio wrt Bedding - TIV Model {F13.4}
SMG               .6PSI  : Shear Modulus {F13.4}
BMK               .6PSI  : Bulk Modulus - K {F13.4}
YME               .6PSI  : Young's Modulus (E) {F13.4}
PR                .      : Poisson's Ratio {F13.4}
MAXXENE_OVERALL   .      : Overall estimate of maximum cross energy {F13.4}
MINXENE_OVERALL   .      : Overall estimate of minimum cross energy {F13.4}
HD2_PPC2          .IN    : PPC2 Hole Diameter 2 {F13.4}
HD1_PPC2          .IN    : PPC2 Hole Diameter 1 {F13.4}
HD2_PPC1          .IN    : PPC1 Hole Diameter 2 {F13.4}
HD1_PPC1          .IN    : PPC1 Hole Diameter 1 {F13.4}
GR_EDTC           .GAPI  : Gamma Ray {F13.4}
TENS              .LBF   : Cable Tension {F13.4}
BS                .IN    : Bit Size {F13.4}
TDEP              .F     : {F13.4}
~Params ----------------------------------------------------
RUN .               : RUN NUMBER
PDAT.  GROUND LEVEL : Permanent Datum
EPD .F       2111.0 : Elevation of Permanent Datum above Mean Sea Level
EPD .F       2111.0 : Elevation of tool zero above Mean Sea Level
LMF . KELLY BUSHING : Logging Measured From (Name of Logging Elevation Reference)
APD .F         18.0 : Elevation of Depth Reference (LMF) above Permanent Datum
~Other -----------------------------------------------------
~ASCII -----------------------------------------------------
# ...
 9575.00000    -999.25   11.75950    3.95000    9.74850    9.39790    0.24830    0.26080    3.71730    6.42780    9.34960    0.25760    8.53870    1.31890    9.07400    8.90290    9.05150    8.95250   37.79420 4182.00000    8.75000    0.00000
 9574.50000    -999.25   12.36940    4.55990    9.88510    9.54240    0.26580    0.27900    3.71960    7.03930    9.48780    0.27540    8.52840    1.32280    9.08290    8.91390    9.05150    8.95250   38.51710 4152.00000    8.75000    0.00000
 9574.00000    -999.25   12.45460    4.66100    9.87930    9.44260    0.26760    0.28490    3.66040    7.10080    9.37090    0.28000    8.52110    1.32450    9.07820    8.89180    9.05150    8.96430   41.87370 4173.00000    8.75000    0.00000
 9573.50000    -999.25   12.18840    4.37880    9.84370    9.46110    0.26050    0.27500    3.69870    6.84420    9.40230    0.27100    8.51470    1.32470    9.08710    8.89120    9.05150    8.95250   44.24040 4182.00000    8.75000    0.00000
 9573.00000    -999.25   11.52490    3.71540    9.68780    9.30050    0.24050    0.25390    3.69850    6.18070    9.25040    0.25060    8.51110    1.32720    9.10460    8.89180    9.06440    8.95250   46.45700 4145.00000    8.75000    0.00000
 9572.50000    -999.25   11.52930    3.68710    9.70870    9.19780    0.23800    0.25580    3.64910    6.11930    9.13200    0.25130    8.50510    1.33330    9.09130    8.89180    9.05150    8.92870   43.72610 4149.00000    8.75000    0.00000
 9572.00000    -999.25   11.92990    4.08760    9.80020    9.21650    0.24970    0.27140    3.60790    6.49220    9.13210    0.26560    8.50180    1.34300    9.09150    8.89180    9.05150    8.92870   39.54360 4164.00000    8.75000    0.00000
 9571.50000    -999.25   12.17250    4.31380    9.86900    9.28200    0.25580    0.27820    3.61320    6.72190    9.19250    0.27210    8.49410    1.35330    9.07800    8.86840    9.06440    8.91680   44.42730 4160.00000    8.75000    0.00000
 9571.00000    -999.25   12.18330    4.32450    9.87270    9.30250    0.25630    0.27800    3.62220    6.73870    9.21550    0.27210    8.49500    1.36350    9.08730    8.87940    9.05150    8.91680   47.15820 4168.00000    8.75000    0.00000
 9570.50000    -999.25   11.74270    3.88420    9.78540    9.40040    0.24520    0.25870    3.72380    6.36620    9.34850    0.25530    8.49970    1.36450    9.08710    8.86770    9.05150    8.91680   47.88160 4131.00000    8.75000    0.00000
 9570.00000    -999.25   11.59910    3.74050    9.74940    9.36300    0.24060    0.25390    3.72360    6.22250    9.31300    0.25060    8.51840    1.36810    9.07400    8.87940    9.07720    8.91680   37.83100 4168.00000    8.75000    0.00000
 9569.50000    -999.25   11.95680    4.09820    9.83580    9.44150    0.25160    0.26590    3.71800    6.57640    9.38530    0.26210    8.53280    1.35740    9.10040    8.85600    9.05150    8.91680   36.01040 4167.00000    8.75000    0.00000
 9569.00000    -999.25   12.28210    4.40700    9.92330    9.52400    0.26010    0.27510    3.72250    6.88820    9.46280    0.27100    8.54890    1.34800    9.10040    8.87940    9.05150    8.90490   33.63210 4160.00000    8.75000    0.00000
 9568.50000    -999.25   12.31050    4.45200    9.92340    9.64030    0.26280    0.27340    3.77670    6.96950    9.59670    0.27050    8.56570    1.33330    9.09130    8.86840    9.07720    8.91680   35.85410 4162.00000    8.75000    0.00000
 9568.00000    -999.25   12.47400    4.61560    9.95850    9.68220    0.26720    0.27780    3.78000    7.13530    9.63810    0.27490    8.59140    1.31510    9.08710    8.89120    9.05150    8.91680   35.49000 4135.00000    8.75000    0.00000
 9567.50000    -999.25   12.24610    4.38560    9.91400    9.66420    0.26130    0.27050    3.79590    6.91590    9.62640    0.26800    8.61010    1.29810    9.07820    8.86840    9.06110    8.91530   38.60200 4162.00000    8.75000    0.00000
 9567.00000    -999.25   11.92200    4.06350    9.83670    9.56470    0.25170    0.26140    3.78370    6.58570    9.52660    0.25890    8.62980    1.27640    9.06070    8.86770    9.05150    8.91680   35.67750 4129.00000    8.75000    0.00000
 9566.50000    -999.25   11.92040    4.06170    9.82270    9.36640    0.24990    0.26650    3.68480    6.51780    9.30160    0.26210    8.64360    1.25520    9.07820    8.89180    9.05150    8.91680   35.50060 4159.00000    8.75000    0.00000
 9566.00000    -999.25   11.90400    4.06190    9.80520    9.36450    0.25030    0.26640    3.68500    6.51800    9.30190    0.26210    8.65900    1.23710    9.07380    8.90290    9.05150    8.92870   34.76700 4113.00000    8.75000    0.00000
 9565.50000    -999.25   11.75290    3.94340    9.74870    9.42340    0.24830    0.25990    3.73090    6.43030    9.37880    0.25690    8.67500    1.22010    9.07400    8.89120    9.05150    8.95250   37.35860 4135.00000    8.75000    0.00000
 9565.00000    -999.25   11.71810    3.90650    9.73460    9.30510    0.24620    0.26160    3.67630    6.35690    9.24640    0.25760    8.68250    1.21260    9.09130    8.88010    9.04820    8.95110   38.80990 4124.00000    8.75000    0.00000
 9564.50000    -999.25   11.89850    4.05640    9.80320    9.35320    0.25010    0.26650    3.68000    6.50910    9.28930    0.26210    8.68680    1.20510    9.07400    8.87970    9.06440    8.92870   39.17930 4156.00000    8.75000    0.00000
 9564.00000    -999.25   11.78290    3.92420    9.79110    9.34870    0.24590    0.26170    3.69290    6.38570    9.28820    0.25760    8.68780    1.20880    9.09130    8.90350    9.05150    8.91680   41.33890 4179.00000    8.75000    0.00000
 9563.50000    -999.25   11.93950    4.08080    9.82960    9.40570    0.25080    0.26620    3.70220    6.54840    9.34540    0.26210    8.68610    1.21780    9.07400    8.87940    9.05150    8.91680   38.79010 4170.00000    8.75000    0.00000
 9563.00000    -999.25   11.82940    3.97090    9.81100    9.48840    0.24850    0.25990    3.75690    6.47510    9.44420    0.25690    8.68340    1.22950    9.08710    8.86770    9.05150    8.91680   36.55970 4182.00000    8.75000    0.00000
 9562.50000    -999.25   12.22340    4.38130    9.87920    9.47010    0.25980    0.27530    3.70070    6.84790    9.40740    0.27100    8.67150    1.25270    9.07400    8.87940    9.05150    8.92870   31.45590 4185.00000    8.75000    0.00000
 9562.00000    -999.25   12.23910    4.38050    9.89660    9.47080    0.25930    0.27540    3.70000    6.84660    9.40570    0.27100    8.64890    1.27760    9.07820    8.86840    9.06430    8.91680   36.74250 4203.00000    8.75000    0.00000
 9561.50000    -999.25   12.23800    4.37940    9.89630    9.46870    0.25930    0.27540    3.69910    6.84490    9.40330    0.27100    8.61800    1.30860    9.06980    8.87870    9.05150    8.91680   35.87260 4264.00000    8.75000    0.00000
 9561.00000    -999.25   11.97510    4.11650    9.84500    9.51650    0.25280    0.26470    3.75330    6.61830    9.46970    0.26150    8.59350    1.33730    9.09150    8.86840    9.05140    8.91680   37.43670 4172.00000    8.75000    0.00000
 9560.50000    -999.25   11.90490    4.04640    9.83050    9.52850    0.25090    0.26170    3.76770    6.55780    9.48630    0.25890    8.56390    1.35810    9.07380    8.87940    9.05150    8.91680   33.06040 4203.00000    8.75000    0.00000
 9560.00000    -999.25   12.33530    4.47490    9.93700    9.73460    0.26420    0.27170    3.82120    7.02210    9.70350    0.26970    8.54560    1.37870    9.07820    8.88010    9.04820    8.91530   30.69360 4204.00000    8.75000    0.00000
 9559.50000    -999.25   12.21670    4.35820    9.90240    9.61010    0.26010    0.27090    3.77210    6.87260    9.56610    0.26800    8.52240    1.38120    9.07400    8.87940    9.05150    8.91680   28.45100 4185.00000    8.75000    0.00000
 9559.00000    -999.25   12.35830    4.50000    9.94340    9.78280    0.26530    0.27130    3.84270    7.06150    9.75800    0.26970    8.51740    1.38580    9.07820    8.86810    9.05150    8.91680   27.36790 4255.00000    8.75000    0.00000
