~Version ---------------------------------------------------
VERS   .                                                                             2.0 : CWLS log ASCII Standard -VERSION 2.0
WRAP   .                                                                              NO : One Line per depth step
PROD   .                                                                    Schlumberger : LAS Producer
PROG   .                                                               DLIS to ASCII 2.2 : LAS Program name and version
CREA   .     2008/03/03 10:39                          :LAS Creation date {YYYY/MM/DD hh : mm}
SOURCE . ARever_Fidelity_Deadwood_Canyon_Ranch_43-28H_3d_Rock_Properties_Final_Data.dlis : DLIS File Name
FILE-ID.                                                  Interpretation Chain - gf_user : File Identification Number
~Well ------------------------------------------------------
STRT.F                              10532.0 : START DEPTH
STOP.F                               7652.5 : STOP DEPTH
STEP.F                                 -0.5 : STEP
NULL.                               -999.25 : NULL VALUE
COMP. FIDELITY EXPLORATION & PRODUCTION CO. : COMPANY
WELL.          Deadwood Canyon Ranch 43-28H : WELL
FLD .                               Wildcat : FIELD
LOC .                                       : LOCATION
CNTY.                             MOUNTRAIL : COUNTY
STAT.                             N. DAKOTA : STATE
CTRY.                                   USA : COUNTRY
API .                          33-061-00581 : API NUMBER
UWI .          Deadwood Canyon Ranch 43-28H : UNIQUE WELL ID
DATE.                                       : LOG DATE
SRVC.                          Schlumberger : SERVICE COMPANY
LATI.DEG                             48.129 : LATITUDE
LONG.DEG                           -102.505 : LONGITUDE
GDAT.                                       : GeoDetic Datum
~Curve Information -----------------------------------------
DEPT              .F     : DEPTH (BOREHOLE) {F10.1}
C13_C44_MULT      .      : C44 Multiplier in C13 Equation {F13.4}
C11_BED_TIV       .6PSI  : Dynamic C11 Modulus wrt Bedding - TIV Model {F13.4}
C13_BED_TIV       .6PSI  : Dynamic C13 Modulus wrt Bedding - TIV Model {F13.4}
YME_DYN_11_BED_TIV.6PSI  : Dynamic Horizontal Youngs Modulus wrt Bedding - TIV Model {F13.4}
YME_DYN_33_BED_TIV.6PSI  : Dynamic Vertical Youngs Modulus wrt Bedding - TIV model {F13.4}
PR_DYN_12_BED_TIV .      : Dynamic Horizontal Poissons Ratio wrt Bedding - TIV Model {F13.4}
PR_DYN_13_BED_TIV .      : Dynamic Vertical Poissons Ratio wrt Bedding - TIV Model {F13.4}
SMG               .6PSI  : Shear Modulus {F13.4}
BMK               .6PSI  : Bulk Modulus - K {F13.4}
YME               .6PSI  : Young's Modulus (E) {F13.4}
PR                .      : Poisson's Ratio {F13.4}
MAXXENE_OVERALL   .      : Overall estimate of maximum cross energy {F13.4}
MINXENE_OVERALL   .      : Overall estimate of minimum cross energy {F13.4}
HD2_PPC2          .IN    : PPC2 Hole Diameter 2 {F13.4}
HD1_PPC2          .IN    : PPC2 Hole Diameter 1 {F13.4}
HD2_PPC1          .IN    : PPC1 Hole Diameter 2 {F13.4}
HD1_PPC1          .IN    : PPC1 Hole Diameter 1 {F13.4}
GR_EDTC           .GAPI  : Gamma Ray {F13.4}
TENS              .LBF   : Cable Tension {F13.4}
BS                .IN    : Bit Size {F13.4}
TDEP              .F     : {F13.4}
~Params ----------------------------------------------------
RUN .               : RUN NUMBER
PDAT.  GROUND LEVEL : Permanent Datum
EPD .F       2111.0 : Elevation of Permanent Datum above Mean Sea Level
EPD .F       2111.0 : Elevation of tool zero above Mean Sea Level
LMF . KELLY BUSHING : Logging Measured From (Name of Logging Elevation Reference)
APD .F         18.0 : Elevation of Depth Reference (LMF) above Permanent Datum
~Other -----------------------------------------------------
~ASCII -----------------------------------------------------
# ...
 8238.50000    -999.25   11.98370    5.92380    8.22150    9.76890    0.35670    0.27840    3.88050    8.51410   10.10620    0.30220   10.35940    0.56860    9.27990    9.00930    9.17020    9.09630   10.50100 3841.00000    8.75000    0.00000
 8238.00000    -999.25   12.22680    6.15710    8.26640    9.84150    0.36190    0.28130    3.90270    8.76220   10.19450    0.30610   10.34640    0.57170    9.28010    8.99770    9.17020    9.08440    9.98530 3923.00000    8.75000    0.00000
 8237.50000    -999.25   12.23790    6.17820    8.26000    9.86840    0.36310    0.28080    3.91610    8.79230   10.22940    0.30610   10.36150    0.57220    9.30610    8.99770    9.17020    9.09630   11.05930 3986.00000    8.75000    0.00000
 8237.00000    -999.25   11.94960    5.89020    8.23450   10.00290    0.35890    0.27180    3.99930    8.56010   10.38110    0.29790   10.40050    0.57860    9.24960    9.03220    9.17020    9.09630   10.87570 3971.00000    8.75000    0.00000
 8236.50000    -999.25   11.87570    5.82590    8.20680    9.88630    0.35650    0.27320    3.94580    8.46000   10.24470    0.29820   10.41190    0.57330    9.26690    9.03270    9.17020    9.10820   11.39810 3822.00000    8.75000    0.00000
 8236.00000    -999.25   11.74810    5.72730    8.16040    9.86650    0.35540    0.27110    3.94480    8.36070   10.22620    0.29610   10.40580    0.58130    9.21430    9.03270    9.11890    9.14360   11.74000 3810.00000    8.75000    0.00000
 8235.50000    -999.25   11.71520    5.70380    8.14410    9.82930    0.35480    0.27130    3.92870    8.32650   10.18430    0.29610   10.36640    0.58180    9.17500    9.04440    9.10610    9.15540   11.74000 3923.00000    8.75000    0.00000
 8235.00000    -999.25   11.31730    5.30580    8.08380    9.74820    0.34470    0.26470    3.91300    7.91800   10.07870    0.28790   10.31920    0.59440    9.17090    9.06720    9.08040    9.15540   12.94420 3987.00000    8.75000    0.00000
 8234.50000    -999.25   11.23740    5.22550    8.06180    9.59450    0.34100    0.26670    3.84150    7.78970    9.89760    0.28820   10.27940    0.60370    9.16180    9.09100    9.08040    9.15530   14.44130 3860.00000    8.75000    0.00000
 8234.00000    -999.25   11.26270    5.25990    8.03860    9.34610    0.33910    0.27380    3.71620    7.74010    9.61060    0.29310   10.28320    0.61890    9.12220    9.09100    9.08040    9.16720   15.81250 3877.00000    8.75000    0.00000
 8233.50000    -999.25   10.80810    5.15440    7.61960    9.08310    0.34770    0.27090    3.62720    7.57550    9.38390    0.29350   10.26360    0.64350    9.13550    9.10270    9.05470    9.19090   13.75130 3862.00000    8.75000    0.00000
 8233.00000    -999.25   10.15900    4.80210    7.23220    8.94790    0.35010    0.25940    3.61250    7.21400    9.28720    0.28540   10.22380    0.67050    9.14850    9.12600    9.06760    9.19080   12.77660 3870.00000    8.75000    0.00000
 8232.50000    -999.25    9.77860    4.45200    7.13910    8.84250    0.34030    0.25260    3.58630    6.84640    9.15950    0.27700   10.19080    0.70850    9.16160    9.17260    9.08040    9.23810   12.60220 3909.00000    8.75000    0.00000
 8232.00000    -999.25    9.51970    4.45160    6.84040    8.64220    0.34970    0.25220    3.51180    6.79650    8.98750    0.27960   10.16710    0.74990    9.14850    9.17260    9.08040    9.22630   11.32780 3970.00000    8.75000    0.00000
 8231.50000    -999.25    9.56880    4.50060    6.84540    8.60610    0.35070    0.25440    3.49060    6.83140    8.94770    0.28170   10.14940    0.80520    9.18810    9.14930    9.08040    9.22630    8.91090 3971.00000    8.75000    0.00000
 8231.00000    -999.25    9.38280    4.43140    6.69500    8.44210    0.35210    0.25440    3.42510    6.71840    8.78270    0.28210   10.13650    0.85790    9.25360    9.17250    9.13170    9.21450    8.22270 3923.00000    8.75000    0.00000
 8230.50000    -999.25    9.25010    4.29880    6.67710    8.47470    0.34860    0.25000    3.45000    6.60260    8.81470    0.27750   10.14050    0.92140    9.23640    9.12550    9.13170    9.21450    9.67910 3922.00000    8.75000    0.00000
 8230.00000    -999.25    9.21080    4.25970    6.67660    8.56790    0.34850    0.24640    3.49910    6.59640    8.92010    0.27460   10.14200    0.98710    9.24960    9.13720    9.13170    9.21450   10.54400 4006.00000    8.75000    0.00000
 8229.50000    -999.25    9.35960    4.28540    6.82300    8.66650    0.34470    0.24730    3.53450    6.64560    9.00670    0.27410   10.14670    1.04670    9.26690    9.13760    9.14770    9.21570   10.21590 3964.00000    8.75000    0.00000
 8229.00000    -999.25    9.65690    4.33060    7.11830    8.82530    0.33650    0.24970    3.58630    6.72510    9.13510    0.27360   10.14500    1.09310    9.25360    9.04430    9.19590    9.23830   15.36930 3804.00000    8.75000    0.00000
 8228.50000    -999.25   10.49830    4.46650    7.91760    8.91240    0.31260    0.26520    3.55500    6.83860    9.08990    0.27850   10.14060    1.12720    9.22760    9.03270    9.11890    9.13180   18.81720 3760.00000    8.75000    0.00000
 8228.00000    -999.25   10.55290    4.52120    7.93330    9.00890    0.31530    0.26410    3.59870    6.92280    9.20180    0.27850   10.15190    1.16310    9.21430    9.03270    9.11890    9.13180   20.45950 3811.00000    8.75000    0.00000
 8227.50000    -999.25   10.57420    4.54220    7.92630    8.85750    0.31410    0.26890    3.52150    6.89190    9.02700    0.28170   10.16810    1.18140    9.21430    9.03270    9.09330    9.13180   17.87280 3903.00000    8.75000    0.00000
 8227.00000    -999.25    9.98100    4.62390    7.19140    8.72780    0.34240    0.26090    3.51420    6.97010    9.02570    0.28420   10.17230    1.19440    9.21430    9.17260    9.11890    9.19090   15.28670 3884.00000    8.75000    0.00000
 8226.50000    -999.25    8.99340    4.56160    6.12840    8.41020    0.38280    0.24520    3.45690    6.87120    8.88130    0.28460   10.17220    1.19340    9.18810    9.27720    9.11890    9.37990   14.74030 3841.00000    8.75000    0.00000
 8226.00000    -999.25    8.74520    4.30320    6.10960    8.49980    0.37540    0.23700    3.51480    6.65170    8.96530    0.27540   10.22870    1.18880    9.17480    9.28890    9.09650    9.35660   13.53120 3908.00000    8.75000    0.00000
 8225.50000    -999.25    9.06840    4.19500    6.57890    8.54620    0.35000    0.24350    3.50020    6.53290    8.90950    0.27270   10.20420    1.17410    9.13130    9.31180    9.09330    9.35630   13.70220 3855.00000    8.75000    0.00000
 8225.00000    -999.25    9.70750    4.44650    7.04870    8.57700    0.33980    0.25820    3.46040    6.75680    8.86750    0.28130   10.15770    1.16170    9.12240    9.27720    9.09330    9.34450   14.24640 3855.00000    8.75000    0.00000
 8224.50000    -999.25    9.88640    4.60380    7.09800    8.60800    0.34370    0.26200    3.46320    6.91590    8.90330    0.28540   10.14150    1.14450    9.09610    9.13760    9.04190    9.30910   12.87030 3972.00000    8.75000    0.00000
 8224.00000    -999.25    9.93820    4.64850    7.11760    8.68280    0.34550    0.26120    3.49680    6.98310    8.98990    0.28540   10.13050    1.13560    9.14850    9.24240    9.06750    9.29720   13.63610 3935.00000    8.75000    0.00000
 8223.50000    -999.25    9.83590    4.68780    6.96870    8.71890    0.35360    0.25800    3.52670    7.04280    9.06680    0.28540   10.08930    1.12860    9.12220    9.21910    9.04190    9.30910   13.01780 3855.00000    8.75000    0.00000
 8223.00000    -999.25    9.53150    4.63280    6.67240    8.55520    0.36210    0.25510    3.47440    6.95320    8.93500    0.28580   10.04670    1.12970    9.13530    9.24240    9.02900    9.30910   14.22160 3797.00000    8.75000    0.00000
 8222.50000    -999.25    9.22250    4.75800    6.17420    8.15370    0.38300    0.25770    3.31490    6.97240    8.58440    0.29480   10.04070    1.14650    9.18810    9.26530    9.04190    9.30910   14.14580 3938.00000    8.75000    0.00000
