~Version ---------------------------------------------------
VERS   .                                                                             2.0 : CWLS log ASCII Standard -VERSION 2.0
WRAP   .                                                                              NO : One Line per depth step
PROD   .                                                                    Schlumberger : LAS Producer
PROG   .                                                               DLIS to ASCII 2.2 : LAS Program name and version
CREA   .     2008/03/03 10:39                          :LAS Creation date {YYYY/MM/DD hh : mm}
SOURCE . ARever_Fidelity_Deadwood_Canyon_Ranch_43-28H_3d_Rock_Properties_Final_Data.dlis : DLIS File Name
FILE-ID.                                                  Interpretation Chain - gf_user : File Identification Number
~Well ------------------------------------------------------
STRT.F                              10532.0 : START DEPTH
STOP.F                               7652.5 : STOP DEPTH
STEP.F                                 -0.5 : STEP
NULL.                               -999.25 : NULL VALUE
COMP. FIDELITY EXPLORATION & PRODUCTION CO. : COMPANY
WELL.          Deadwood Canyon Ranch 43-28H : WELL
FLD .                               Wildcat : FIELD
LOC .                                       : LOCATION
CNTY.                             MOUNTRAIL : COUNTY
STAT.                             N. DAKOTA : STATE
CTRY.                                   USA : COUNTRY
API .                          33-061-00581 : API NUMBER
UWI .          Deadwood Canyon Ranch 43-28H : UNIQUE WELL ID
DATE.                                       : LOG DATE
SRVC.                          Schlumberger : SERVICE COMPANY
LATI.DEG                             48.129 : LATITUDE
LONG.DEG                           -102.505 : LONGITUDE
GDAT.                                       : GeoDetic Datum
~Curve Information -----------------------------------------
DEPT              .F     : DEPTH (BOREHOLE) {F10.1}
C13_C44_MULT      .      : C44 Multiplier in C13 Equation {F13.4}
C11_BED_TIV       .6PSI  : Dynamic C11 Modulus wrt Bedding - TIV Model {F13.4}
C13_BED_TIV       .6PSI  : Dynamic C13 Modulus wrt Bedding - TIV Model {F13.4}
YME_DYN_11_BED_TIV.6PSI  : Dynamic Horizontal Youngs Modulus wrt Bedding - TIV Model {F13.4}
YME_DYN_33_BED_TIV.6PSI  : Dynamic Vertical Youngs Modulus wrt Bedding - TIV model {F13.4}
PR_DYN_12_BED_TIV .      : Dynamic Horizontal Poissons Ratio wrt Bedding - TIV Model {F13.4}
PR_DYN_13_BED_TIV .      : Dynamic Vertical Poissons Ratio wrt Bedding - TIV Model {F13.4}
SMG               .6PSI  : Shear Modulus {F13.4}
BMK               .6PSI  : Bulk Modulus - K {F13.4}
YME               .6PSI  : Young's Modulus (E) {F13.4}
PR                .      : Poisson's Ratio {F13.4}
MAXXENE_OVERALL   .      : Overall estimate of maximum cross energy {F13.4}
MINXENE_OVERALL   .      : Overall estimate of minimum cross energy {F13.4}
HD2_PPC2          .IN    : PPC2 Hole Diameter 2 {F13.4}
HD1_PPC2          .IN    : PPC2 Hole Diameter 1 {F13.4}
HD2_PPC1          .IN    : PPC1 Hole Diameter 2 {F13.4}
HD1_PPC1          .IN    : PPC1 Hole Diameter 1 {F13.4}
GR_EDTC           .GAPI  : Gamma Ray {F13.4}
TENS              .LBF   : Cable Tension {F13.4}
BS                .IN    : Bit Size {F13.4}
TDEP              .F     : {F13.4}
~Params ----------------------------------------------------
RUN .               : RUN NUMBER
PDAT.  GROUND LEVEL : Permanent Datum
EPD .F       2111.0 : Elevation of Permanent Datum above Mean Sea Level
EPD .F       2111.0 : Elevation of tool zero above Mean Sea Level
LMF . KELLY BUSHING : Logging Measured From (Name of Logging Elevation Reference)
APD .F         18.0 : Elevation of Depth Reference (LMF) above Permanent Datum
~Other -----------------------------------------------------
~ASCII -----------------------------------------------------
# ...
 10152.50000    -999.25   11.92510    3.94380    9.85320    8.41960    0.23450    0.29080    3.21920    6.08770    8.21030    0.27520   12.00550    1.69830    9.04360    8.79650    9.00960    8.84390   69.53140 4492.00000    8.75000    0.00000
 10152.00000    -999.25   10.69110    3.27970    9.08150    8.03190    0.22530    0.26540    3.14690    5.37600    7.89930    0.25510   11.43590    1.67240    9.06520    8.78630    9.00960    8.84390   73.13620 4494.00000    8.75000    0.00000
 10151.50000    -999.25    9.68100    2.76500    8.41420    7.73980    0.21660    0.24150    3.10220    4.83210    7.66600    0.23560   11.34040    1.71680    9.07400    8.80900    9.02250    8.84390   77.14250 4550.00000    8.75000    0.00000
 10151.00000    -999.25    9.60580    2.49320    8.53020    7.57470    0.19930    0.23210    3.05530    4.52860    7.48300    0.22460   11.24340    1.80310    9.06100    8.82080    9.02250    8.87970   80.30900 4553.00000    8.75000    0.00000
 10150.50000    -999.25    9.58180    2.47080    8.51590    7.46650    0.19760    0.23380    3.00520    4.47270    7.36590    0.22550   10.91080    1.74020    9.07420    8.82080    9.05150    8.88110   84.55830 4595.00000    8.75000    0.00000
 10150.00000    -999.25    9.07460    2.42090    8.02380    7.40610    0.20590    0.22820    3.00290    4.42180    7.34580    0.22310   10.32690    1.56270    9.04360    8.83180    9.04820    8.87970   79.80480 4508.00000    8.75000    0.00000
 10149.50000    -999.25    9.51900    2.39220    8.51120    7.52820    0.19420    0.22710    3.04920    4.42340    7.43840    0.21970   10.23920    1.61320    9.06100    8.80900    9.03530    8.86770   74.71530 4408.00000    8.75000    0.00000
 10149.00000    -999.25    9.46290    2.30750    8.51590    7.57810    0.19010    0.22030    3.08840    4.36490    7.49710    0.21370    9.87290    1.54160    9.08730    8.86770    9.03540    8.84390   70.64850 4421.00000    8.75000    0.00000
 10148.50000    -999.25    9.03690    2.39580    8.01030    7.54980    0.20620    0.22230    3.07940    4.44810    7.50610    0.21870    9.54900    1.51080    9.07400    8.84420    9.09980    8.89150   68.66500 4469.00000    8.75000    0.00000
 10148.00000    -999.25    9.50600    2.39350    8.49950    7.58000    0.19500    0.22550    3.07540    4.44230    7.49630    0.21870    9.46430    1.56290    9.09150    8.82150    9.04820    8.87970   74.34240 4479.00000    8.75000    0.00000
 10147.50000    -999.25    9.65750    2.55870    8.53010    7.47630    0.20160    0.23900    2.99550    4.55410    7.37060    0.23030    9.39830    1.61880    9.04760    8.83250    9.04820    8.89150   73.17670 4489.00000    8.75000    0.00000
 10147.00000    -999.25    9.65950    2.54670    8.53700    7.40370    0.20020    0.24060    2.96080    4.51870    7.29010    0.23110    9.11080    1.57260    9.04760    8.82080    9.03530    8.87970   82.46660 4441.00000    8.75000    0.00000
 10146.50000    -999.25    9.69320    2.55170    8.56900    7.41960    0.19990    0.24070    2.96660    4.52760    7.30450    0.23110    8.73790    1.44450    9.06070    8.82080    9.03540    8.85570   84.46830 4388.00000    8.75000    0.00000
 10146.00000    -999.25    9.68110    2.55390    8.55510    7.42430    0.20040    0.24050    2.96920    4.53160    7.31090    0.23110    8.58570    1.37440    9.03010    8.80820    9.03530    8.86770   87.24290 4427.00000    8.75000    0.00000
 10145.50000    -999.25    9.58720    2.47440    8.51940    7.47640    0.19780    0.23380    3.00950    4.47900    7.37640    0.22550    8.46740    1.31440    9.04800    8.82080    9.03530    8.87970   80.09140 4393.00000    8.75000    0.00000
 10145.00000    -999.25    9.57890    2.46610    8.51570    7.45330    0.19720    0.23390    2.99940    4.46400    7.35160    0.22550    8.45800    1.32410    9.04740    8.83250    9.03540    8.87970   76.85040 4411.00000    8.75000    0.00000
 10144.50000    -999.25    9.70560    2.56420    8.57690    7.49450    0.20100    0.23920    3.00190    4.56370    7.38620    0.23030    8.45210    1.33600    9.04760    8.82080    9.03530    8.85570   75.59280 4539.00000    8.75000    0.00000
 10144.00000    -999.25    9.17670    2.48470    8.08840    7.51570    0.20870    0.22930    3.04540    4.51400    7.45880    0.22460    8.44550    1.34890    9.04760    8.83250    9.02250    8.84390   77.55900 4484.00000    8.75000    0.00000
 10143.50000    -999.25    9.29150    2.59970    8.12860    7.63800    0.21470    0.23270    3.08790    4.65750    7.58700    0.22850    8.43480    1.36380    9.01700    8.82000    9.02250    8.84390   78.48610 4431.00000    8.75000    0.00000
 10143.00000    -999.25    8.41650    2.49550    7.28760    7.52130    0.23080    0.22160    3.08340    4.55150    7.54620    0.22370    8.43410    1.37440    9.02150    8.82070    9.02250    8.84390   75.33890 4447.00000    8.75000    0.00000
 10142.50000    -999.25    9.66160    2.50620    8.58570    7.70900    0.19990    0.22940    3.11830    4.58360    7.62570    0.22270    8.43460    1.38060    9.03460    8.84420    9.02250    8.84390   76.90230 4423.00000    8.75000    0.00000
 10142.00000    -999.25    9.19370    2.50190    8.10080    7.65860    0.21060    0.22630    3.11390    4.57710    7.61480    0.22270    8.44170    1.38470    9.03030    8.83170    9.02250    8.84390   73.33950 4477.00000    8.75000    0.00000
 10141.50000    -999.25    9.19760    2.50580    8.10250    7.66970    0.21080    0.22620    3.11880    4.58430    7.62690    0.22270    8.45240    1.37610    9.03880    8.82150    9.02250    8.84390   74.81470 4445.00000    8.75000    0.00000
 10141.00000    -999.25    9.30280    2.61110    8.13580    7.71420    0.21580    0.23110    3.12420    4.69320    7.67050    0.22760    8.47670    1.35950    9.06070    8.80900    9.02250    8.84390   71.85910 4451.00000    8.75000    0.00000
 10140.50000    -999.25    8.63900    2.71810    7.35670    7.67870    0.24250    0.22930    3.13060    4.80570    7.71620    0.23240    8.50440    1.34120    9.03460    8.84420    9.02250    8.84390   71.69520 4422.00000    8.75000    0.00000
 10140.00000    -999.25    9.76760    2.61220    8.62030    7.75780    0.20470    0.23450    3.12470    4.69390    7.67170    0.22760    8.54010    1.31470    9.03430    8.82080    9.02250    8.84390   69.39240 4435.00000    8.75000    0.00000
 10139.50000    -999.25    9.29660    2.60490    8.13310    7.69730    0.21540    0.23130    3.11670    4.68190    7.65210    0.22760    8.57930    1.28210    9.03010    8.83180    9.02250    8.84390   69.64700 4436.00000    8.75000    0.00000
 10139.00000    -999.25    8.95170    2.26000    8.02220    7.61030    0.19880    0.21250    3.13110    4.34670    7.57450    0.20960    8.62720    1.24470    9.02120    8.83250    9.02250    8.84390   66.22110 4424.00000    8.75000    0.00000
 10138.50000    -999.25    8.99260    2.30080    8.03410    7.57700    0.20060    0.21600    3.10720    4.37150    7.53610    0.21270    8.68040    1.20430    9.02100    8.84420    9.02250    8.84390   68.99760 4429.00000    8.75000    0.00000
 10138.00000    -999.25    9.26200    2.58300    8.10790    7.59170    0.21390    0.23290    3.06800    4.62750    7.53820    0.22850    8.74250    1.15640    9.00770    8.84390    9.02250    8.85580   68.56950 4419.00000    8.75000    0.00000
 10137.50000    -999.25    9.26460    2.58550    8.10900    7.59850    0.21410    0.23280    3.07100    4.63200    7.54550    0.22850    8.80710    1.09800    9.03430    8.82080    9.02250    8.85580   72.81470 4352.00000    8.75000    0.00000
 10137.00000    -999.25    8.52200    2.60110    7.32170    7.61230    0.23660    0.22490    3.11360    4.67730    7.64460    0.22760    8.87570    1.03480    9.02100    8.83250    9.02250    8.84390   73.16060 4475.00000    8.75000    0.00000
 10136.50000    -999.25    9.16430    2.48740    8.09160    7.87340    0.21190    0.21940    3.22420    4.63650    7.85240    0.21770    8.94000    0.97810    9.03430    8.82080    9.01280    8.85730   69.81860 4537.00000    8.75000    0.00000
