~Version ---------------------------------------------------
VERS     .                                                                                     2.0 : CWLS log ASCII Standard -VERSION 2.0
WRAP     .                                                                                      NO : One Line per depth step
PROD     .                                                                            Schlumberger : LAS Producer
PROG     .                                                                       DLIS to ASCII 2.3 : LAS Program name and version
CREA     .             2014/09/27 10:36                          :LAS Creation date {YYYY/MM/DD hh : mm}
DLIS_CREA. 2014-Sep-26 05:39                          :DLIS Creation date and time {YYYY-MMM-DD hh : mm}
SOURCE   .                                                    91826cdd-719c-42a6-af83-d6b9542bd142 : DLIS File Name
~Well ------------------------------------------------------
STRT.F                       8395.0 : START DEPTH
STOP.F                      10723.0 : STOP DEPTH
STEP.F                          0.5 : STEP
NULL.                       -999.25 : NULL VALUE
COMP.                               : COMPANY
WELL.                       Bakken2 : WELL
FLD .                               : FIELD
LOC .                               : LOCATION
CNTY.                               : COUNTY
STAT.                  NORTH DAKOTA : STATE
CTRY.                               : COUNTRY
SRVC.                  Schlumberger : SERVICE COMPANY
LATI.DEG                     : LATITUDE
LONG.DEG         -  : LONGITUDE
API .                    : API NUMBER
DATE.                     : LOG DATE
UWI .                  : UNIQUE WELL ID
~Curve Information -----------------------------------------
DEPT        .F     : DEPTH (BOREHOLE) {F12.4}
BFV         .CFCF  : Bound Fluid Volume {F11.4}
CBP1        .CFCF  : CMR Bin Porosity 1 {F11.4}
CBP2        .CFCF  : CMR Bin Porosity 2 {F11.4}
CBP3        .CFCF  : CMR Bin Porosity 3 {F11.4}
CBP4        .CFCF  : CMR Bin Porosity 4 {F11.4}
CBP5        .CFCF  : CMR Bin Porosity 5 {F11.4}
CBP6        .CFCF  : CMR Bin Porosity 6 {F11.4}
CBP7        .CFCF  : CMR Bin Porosity 7 {F11.4}
CBP8        .CFCF  : CMR Bin Porosity 8 {F11.4}
CDF         .LBF   : Calibrated Downhole Force {F11.4}
CFTC        .HZ    : Corrected Far Thermal Count Rate {F11.4}
CMFF        .CFCF  : CMR Free Fluid {F11.4}
CMFF_SIG    .CFCF  : Standard Deviation of CMR Free Fluid {F11.4}
CMR_PHI_CONV.      : CMR Porosity Conversion factor {F11.4}
CMRP_3MS    .CFCF  : CMR Porosity with T2 values greater than 3 ms {F11.4}
CNTC        .HZ    : Corrected Near Thermal Count Rate {F11.4}
CTEM        .DEGF  : Cartridge Temperature {F11.4}
DCAL        .IN    : Differential Caliper {F11.4}
DNPH        .CFCF  : Difference between Corrected Thermal Neutron Porosity and Uncorrected {F11.4}
ECGR        .GAPI  : Environmentally Corrected Gamma Ray {F11.4}
ED          .F     : East Departure {F11.4}
GDEV        .DEG   : HGNS Hole Deviation from Gravity {F11.4}
GR          .GAPI  : Gamma Ray {F11.4}
GR_EDTC     .GAPI  : Gamma Ray {F11.4}
GTEM        .DEGF  : Generalized Borehole Temperature {F11.4}
HCGR        .GAPI  : HNGS Computed Gamma Ray {F11.4}
HFK         .%     : HNGS Formation Potassium Concentration {F11.4}
HGR         .GAPI  : High Resolution Gamma Ray {F11.4}
HNPO        .CFCF  : High Resolution Enhanced Thermal Neutron Porosity in Selected Lithology {F11.4}
HSGR        .GAPI  : HNGS Standard Gamma-Ray {F11.4}
HTHO        .PPM   : HNGS Formation Thorium Concentration {F11.4}
HTNP        .CFCF  : High Resolution Thermal Neutron Porosity (Ratio Method) in Selected Lithology {F11.4}
HURA        .PPM   : HNGS Formation Uranium Concentration {F11.4}
KSDR        .MD    : SDR Permeability {F11.4}
KTIM        .MD    : Timur/Coates Permeability {F11.4}
ND          .F     : North Departure {F11.4}
NPHI        .CFCF  : Thermal Neutron Porosity (original Ratio Method) in Selected Lithology {F11.4}
NPOR        .CFCF  : Enhanced Thermal Neutron Porosity in Selected Lithology {F11.4}
STIT        .F     : Stuck Tool Indicator, Total {F11.4}
T2LM        .MS    : T2 Logarithmic Mean {F11.4}
T2LM_SIG    .MS    : Standard Deviation of T2 Logarithmic Mean {F11.4}
TCMR        .CFCF  : Total CMR Porosity {F11.4}
TENS        .LBF   : Cable Tension {F11.4}
TNPH        .CFCF  : Thermal Neutron Porosity (Ratio Method) in Selected Lithology {F11.4}
HTNP_SAN    .CFCF  : HiRes Thermal Neutron Porosity (matrix Sandstone) {F11.4}
~Params ----------------------------------------------------
CN  .        WHITING OIL & GAS CORPORATION : Company Name
WN  .                           JB 11-6TFH : Well Name
FN  .                               SANISH : Field Name
FL  .                  219' FNL & 948' FWL : Field Location
FL1 .                                 LOT4 : Field Location, Line 1
COUN.                            MOUNTRAIL : Rig Name
STAT.                         NORTH DAKOTA : State or Province
NATI.                                      : Nation
DATE.                           25/09/2014 : Tools Above Rotary Table Date
APIN.                         33-061-03238 : API Serial Number
SECT.                                    6 : Section
TOWN.                                 153N : Township
RANG.                                  92W : Range
DMF .                                   MR : Drilling Measured From (Name of Drilling Elevation Reference)
LMF .                                   MR : Logging Measured From (Name of Logging Elevation Reference)
PDAT.                                   NM : Permanent Datum
ENGI.                        AARON BAGWELL : Engineer s Name
WITN.                         JOHN SCHAFER : Witness s Name
LATI.                    48.092747 degrees : Latitude
LONG.                   -102.56534 degrees : Longitude
LUL .                            WILLISTON : Logging Unit Location
LUN .                                 2223 : Logging Unit Number
RUN .                                  TWO : Run Number
SON .                           CWSZ-00040 : Service Order Number
BHT .DEGF                            212.0 : Bottom Hole Temperature
BS  .IN                               8.75 : Bit Size
DFD .LB/G                             10.3 : Drilling Fluid Density
DFV .S                                63.0 : Drilling Fluid Viscosity
DFL .C3                                6.0 : Drilling Fluid Loss
RMFS.OHMM                          -999.25 : Resistivity of Mud Filtrate Sample
EKB .F                              2078.0 : Elevation of Kelly Bushing
EGL .F                              2052.0 : Elevation of Ground Level
BLI .F                             10712.0 : Bottom Log Interval
BSAL.PPM                               0.0 : Borehole Salinity
FLEV.F                                 8.0 : Depth of Drilling Fluid Level to LMF (Log Measured From)
MCST.DEGF                          -999.25 : Mudcake Sample Temperature
MFST.DEGF                          -999.25 : Mud Filtrate Sample Temperature
MRT .DEGF                            220.0 : Maximum Recorded Temperature
MST .DEGF                          -999.25 : Mud Sample Temperature
RMCS.OHMM                          -999.25 : Resistivity of Mud Cake Sample
RMS .OHMM                          -999.25 : Resistivity of Mud Sample
RW  .OHMM                              1.0 : Connate Water Resistivity
TDD .F                             10720.0 : Total Depth (Driller)
TDL .F                             10720.0 : Logger Total Depth
TLI .F                              8575.0 : Top Log Interval
HIDE.                               SANISH : Header Identifier
MATR.                                 LIME : Rock Matrix for Neutron Porosity Corrections
FNUM.                                  1.0 : F-Numerator for Formation Factor Formula
FEXP.                                  2.0 : Exponent "m" for Formation Factor Formula
DFT .                                  OIL : Drilling Fluid Type
DFPH.                              -999.25 : Drilling Fluid pH
MCSS.                              Pressed : Mudcake Sample Source
MFSS.                                      : Mud Filtrate Sample Source
FD  .G/C3                              1.0 : Fluid Density
MSS .                          Active Tank : Mud Sample Source
OS1 .                                      : Other Services Line 1
OS2 .                                      : Other Services Line 2
OS3 .                                      : Other Services Line 3
OS4 .                                      : Other Services Line 4
OS5 .                                      : Other Services Line 5
R1  .                                      : Remarks Line 1
R2  .                                      : Remarks Line 2
R3  .                                      : Remarks Line 3
R4  .                                      : Remarks Line 4
R5  .                                      : Remarks Line 5
R6  .                                      : Remarks Line 6
R7  .                                      : Remarks Line 7
R8  . Thank you for choosing Schlumberger. : Remarks Line 8
TCS .                              00 30 h : Time Circulation Stopped
TLAB.                              21 12 h : Time Logging on Bottom
NMT .                             NOBARITE : HRDD Mud Type for Nuclear Devices
EPD .C3                             2052.0 : Elevation of Permanent Datum above Mean Sea Level
APD .F                                26.0 : Elevation of Depth Reference (LMF) above Permanent Datum
~Other -----------------------------------------------------
~ASCII -----------------------------------------------------
# ...
 8859.00000    0.00330    0.00000    0.00000    0.00000    0.00330    0.01010    0.00410    0.00460    0.00300 1562.18950    0.71750    0.02190    0.00410    0.00090    0.02510    1.22890  209.03530    0.00000    0.00000    7.70400    0.00000    3.97410    7.52130    5.98040  195.56960    4.57350    0.13550    6.60800    -999.25    6.33130    0.67240    -999.25    0.24680    0.02980    0.00030    0.00000   -0.03120    -999.25    0.00000  136.75680    -999.25    0.02510 3886.46530    -999.25    -999.25
 8859.50000    0.00660    0.00480    0.00000    0.00000    0.00180    0.00850    0.00250    0.00590    0.00380 1563.77930   -0.00210    0.02080    0.00410    0.00090    0.02260    1.95550  209.03530    0.00000    0.00000    7.01930    0.00000    3.90040    6.85290    6.11570  195.57680    4.90040    0.14370    7.35240    -999.25    6.28700    0.72880    -999.25    0.22160    0.00970    0.00080    0.00000   -0.02730    -999.25    0.00000   65.39960    -999.25    0.02740 3865.01730    -999.25    -999.25
 8860.00000    0.01400    0.00560    0.00010    0.00000    0.00830    0.00370    0.00120    0.00850    0.00250 1581.23440   -1.57220    0.01590    0.00410    0.00090    0.02430    2.54170  209.03530    0.00000    0.00000    7.19520    0.00000    4.02200    7.02460    6.82900  195.58400    5.15160    0.14990    6.56240    -999.25    6.54290    0.77340    -999.25    0.23550    0.00660    0.00200    0.00000   -0.02930    -999.25    0.00000   45.45200    -999.25    0.02990 3911.29830    -999.25    -999.25
 8860.50000    0.01290    0.00000    0.00000    0.00060    0.01230    0.00240    0.00030    0.00890    0.00200 1581.40630   -1.54960    0.01360    0.00410    0.00090    0.02650    2.70680  209.03530    0.00000    0.00000    7.37090    0.00000    3.96060    7.19620    6.77920  195.59120    5.17510    0.15540    7.14990    -999.25    6.69160    0.74830    -999.25    0.26560    0.01610    0.00050    0.00000   -0.02580    -999.25    0.00000   90.19800    -999.25    0.02650 3898.12080    -999.25    -999.25
 8861.00000    0.01220    0.00000    0.00000    0.00020    0.01200    0.00640    0.00030    0.00710    0.00270 1576.60030   -2.56900    0.01650    0.00410    0.00090    0.02870    1.13410  209.03530    0.00000    0.00000    7.58880    0.00000    3.85020    7.40880    6.86670  195.59840    5.47190    0.15400    7.88870    -999.25    7.00890    0.85210    -999.25    0.27580    0.01920    0.00130    0.00000   -0.02650    -999.25    0.00000   84.17170    -999.25    0.02870 3878.98270    -999.25    -999.25
 8861.50000    0.01450    0.00310    0.00000    0.00210    0.00920    0.01390    0.00220    0.00020    0.00680 1574.41310   -1.23410    0.02310    0.00420    0.00090    0.03450    1.61020  209.03530    0.00000    0.00000    7.95560    0.00000    3.92260    7.76700    6.52910  195.60560    5.66600    0.15120    7.20050    -999.25    6.89060    0.93060    -999.25    0.22990    0.02190    0.01550    0.00000   -0.02530    -999.25    0.00000   52.30250    -999.25    0.03760 3896.85960    -999.25    -999.25
 8862.00000    0.01290    0.00600    0.00040    0.00070    0.00580    0.01730    0.00440    0.00010    0.00800 1554.82460   -1.63000    0.02980    0.00420    0.00090    0.03630    1.60060  209.03530    0.00000    0.00000    7.90940    0.00000    3.95840    7.72190    6.68180  195.61280    5.22540    0.15690    8.21320    -999.25    6.68950    0.75610    -999.25    0.23770    0.03670    0.04310    0.00000   -0.02540    -999.25    0.00000   52.43880    -999.25    0.04270 3856.78930    -999.25    -999.25
 8862.50000    0.00610    0.00400    0.00130    0.00000    0.00090    0.01170    0.01020    0.00230    0.00810 1545.90370   -0.22590    0.03240    0.00420    0.00090    0.03330    0.80080  209.03530    0.00000    0.00000    7.72270    0.00000    3.93510    7.53970    6.58590  195.62000    4.97300    0.13990    7.74730    -999.25    6.31440    0.77480    -999.25    0.21960    0.08790    0.01880    0.00000   -0.02250    -999.25    0.00000   99.94600    -999.25    0.03850 3841.63180    -999.25    -999.25
 8863.00000    0.00890    0.00710    0.00180    0.00000    0.00000    0.00310    0.00900    0.01160    0.00740 1547.81090   -2.20420    0.03110    0.00410    0.00090    0.03110    0.49850  209.03530    0.00000    0.00000    7.20670    0.00000    3.86860    7.03590    6.08690  195.62720    4.79910    0.13840    6.65360    -999.25    6.02650    0.72790    -999.25    0.20210    0.09960    0.02590    0.00000   -0.02670    -999.25    0.00000   98.35830    -999.25    0.04010 3871.50020    -999.25    -999.25
 8863.50000    0.00160    0.00160    0.00000    0.00000    0.00000    0.00510    0.00970    0.00540    0.01300 1564.68160   -3.24100    0.03330    0.00410    0.00090    0.03330    2.13210  209.03530    0.00000    0.00000    7.26890    0.00000    3.85760    7.09660    5.71550  195.63440    4.49500    0.13430    6.71430    -999.25    5.62140    0.65440    -999.25    0.18370    0.65430    0.00810    0.00000   -0.03200    -999.25    0.00000  332.88500    -999.25    0.03490 3866.96630    -999.25    -999.25
 8864.00000    0.00000    0.00000    0.00000    0.00000    0.00000    0.00370    0.01400    0.00100    0.01590 1543.94230   -3.91170    0.03460    0.00420    0.00090    0.03460    2.07800  209.03530    0.00000    0.00000    7.68850    0.00000    3.93840    7.50620    5.68270  195.64160    4.56480    0.14120    7.90180    -999.25    5.69470    0.63650    -999.25    0.18630    1.38340    0.00760    0.00000   -0.03210    -999.25    0.00000  491.09940    -999.25    0.03460 3849.78340    -999.25    -999.25
 8864.50000    0.00000    0.00000    0.00000    0.00000    0.00000    0.00190    0.01380    0.00750    0.01150 1545.81880   -3.41360    0.03470    0.00430    0.00090    0.03470    2.05880  209.03530    0.00000    0.00000    7.93710    0.00000    3.89180    7.74890    5.37070  195.64880    4.47970    0.14020    7.90230    -999.25    5.69530    0.61480    -999.25    0.18970    1.25910    0.00780    0.00000   -0.03360    -999.25    0.00000  465.98390    -999.25    0.03470 3856.16970    -999.25    -999.25
 8865.00000    0.00240    0.00000    0.00030    0.00210    0.00000    0.00010    0.01520    0.01640    0.00610 1564.14360    0.09570    0.03780    0.00440    0.00090    0.03990    3.14480  209.03530    0.00000    0.00000    7.63490    0.00000    3.88050    7.45390    5.95230  195.65600    4.62390    0.14340    7.41470    -999.25    6.13580    0.64240    -999.25    0.22260    1.01650    0.02670    0.00000   -0.03740    -999.25    0.00000  311.74700    -999.25    0.04020 3870.34420    -999.25    -999.25
 8865.50000    0.00770    0.00560    0.00210    0.00000    0.00000    0.00050    0.01650    0.02140    0.00540 1552.85140    1.42360    0.04380    0.00440    0.00090    0.04380    4.14490  209.03530    0.00000    0.00000    7.61930    0.00000    3.92680    7.43870    6.66850  195.66320    4.38100    0.14890    7.03640    -999.25    5.75180    0.53240    -999.25    0.19290    0.64520    0.17450    0.00000   -0.04200    -999.25    0.00000  151.42800    -999.25    0.05150 3876.30640    -999.25    -999.25
 8866.00000    0.00610    0.00610    0.00000    0.00000    0.00000    0.00310    0.01730    0.01900    0.00680 1551.40200    0.57790    0.04610    0.00450    0.00090    0.04610    4.50710  209.03530    0.00000    0.00000    7.98630    0.00000    3.78500    7.79700    7.16040  195.67040    4.72670    0.15490    7.83400    -999.25    5.73150    0.60810    -999.25    0.12350    0.82380    0.19390    0.00000   -0.03420    -999.25    0.00000  166.21260    -999.25    0.05230 3858.45920    -999.25    -999.25
 8866.50000    0.00210    0.00210    0.00000    0.00000    0.00000    0.00640    0.01340    0.01460    0.00800 1543.98820   -0.69480    0.04240    0.00450    0.00090    0.04240    3.82170  209.03530    0.00000    0.00000    7.86600    0.00000    3.87870    7.67960    6.56800  195.67760    4.60870    0.14830    8.49470    -999.25    5.77310    0.60860    -999.25    0.13300    1.00920    0.05890    0.00000   -0.03170    -999.25    0.00000  253.54240    -999.25    0.04450 3847.56690    -999.25    -999.25
