~Version ---------------------------------------------------
VERS     .                                                                                     2.0 : CWLS log ASCII Standard -VERSION 2.0
WRAP     .                                                                                      NO : One Line per depth step
PROD     .                                                                            Schlumberger : LAS Producer
PROG     .                                                                       DLIS to ASCII 2.3 : LAS Program name and version
CREA     .             2014/09/27 10:36                          :LAS Creation date {YYYY/MM/DD hh : mm}
DLIS_CREA. 2014-Sep-26 05:39                          :DLIS Creation date and time {YYYY-MMM-DD hh : mm}
SOURCE   .                                                    91826cdd-719c-42a6-af83-d6b9542bd142 : DLIS File Name
~Well ------------------------------------------------------
STRT.F                       8395.0 : START DEPTH
STOP.F                      10723.0 : STOP DEPTH
STEP.F                          0.5 : STEP
NULL.                       -999.25 : NULL VALUE
COMP.                               : COMPANY
WELL.                       Bakken2 : WELL
FLD .                               : FIELD
LOC .                               : LOCATION
CNTY.                               : COUNTY
STAT.                  NORTH DAKOTA : STATE
CTRY.                               : COUNTRY
SRVC.                  Schlumberger : SERVICE COMPANY
LATI.DEG                     : LATITUDE
LONG.DEG         -  : LONGITUDE
API .                    : API NUMBER
DATE.                     : LOG DATE
UWI .                  : UNIQUE WELL ID
~Curve Information -----------------------------------------
DEPT        .F     : DEPTH (BOREHOLE) {F12.4}
BFV         .CFCF  : Bound Fluid Volume {F11.4}
CBP1        .CFCF  : CMR Bin Porosity 1 {F11.4}
CBP2        .CFCF  : CMR Bin Porosity 2 {F11.4}
CBP3        .CFCF  : CMR Bin Porosity 3 {F11.4}
CBP4        .CFCF  : CMR Bin Porosity 4 {F11.4}
CBP5        .CFCF  : CMR Bin Porosity 5 {F11.4}
CBP6        .CFCF  : CMR Bin Porosity 6 {F11.4}
CBP7        .CFCF  : CMR Bin Porosity 7 {F11.4}
CBP8        .CFCF  : CMR Bin Porosity 8 {F11.4}
CDF         .LBF   : Calibrated Downhole Force {F11.4}
CFTC        .HZ    : Corrected Far Thermal Count Rate {F11.4}
CMFF        .CFCF  : CMR Free Fluid {F11.4}
CMFF_SIG    .CFCF  : Standard Deviation of CMR Free Fluid {F11.4}
CMR_PHI_CONV.      : CMR Porosity Conversion factor {F11.4}
CMRP_3MS    .CFCF  : CMR Porosity with T2 values greater than 3 ms {F11.4}
CNTC        .HZ    : Corrected Near Thermal Count Rate {F11.4}
CTEM        .DEGF  : Cartridge Temperature {F11.4}
DCAL        .IN    : Differential Caliper {F11.4}
DNPH        .CFCF  : Difference between Corrected Thermal Neutron Porosity and Uncorrected {F11.4}
ECGR        .GAPI  : Environmentally Corrected Gamma Ray {F11.4}
ED          .F     : East Departure {F11.4}
GDEV        .DEG   : HGNS Hole Deviation from Gravity {F11.4}
GR          .GAPI  : Gamma Ray {F11.4}
GR_EDTC     .GAPI  : Gamma Ray {F11.4}
GTEM        .DEGF  : Generalized Borehole Temperature {F11.4}
HCGR        .GAPI  : HNGS Computed Gamma Ray {F11.4}
HFK         .%     : HNGS Formation Potassium Concentration {F11.4}
HGR         .GAPI  : High Resolution Gamma Ray {F11.4}
HNPO        .CFCF  : High Resolution Enhanced Thermal Neutron Porosity in Selected Lithology {F11.4}
HSGR        .GAPI  : HNGS Standard Gamma-Ray {F11.4}
HTHO        .PPM   : HNGS Formation Thorium Concentration {F11.4}
HTNP        .CFCF  : High Resolution Thermal Neutron Porosity (Ratio Method) in Selected Lithology {F11.4}
HURA        .PPM   : HNGS Formation Uranium Concentration {F11.4}
KSDR        .MD    : SDR Permeability {F11.4}
KTIM        .MD    : Timur/Coates Permeability {F11.4}
ND          .F     : North Departure {F11.4}
NPHI        .CFCF  : Thermal Neutron Porosity (original Ratio Method) in Selected Lithology {F11.4}
NPOR        .CFCF  : Enhanced Thermal Neutron Porosity in Selected Lithology {F11.4}
STIT        .F     : Stuck Tool Indicator, Total {F11.4}
T2LM        .MS    : T2 Logarithmic Mean {F11.4}
T2LM_SIG    .MS    : Standard Deviation of T2 Logarithmic Mean {F11.4}
TCMR        .CFCF  : Total CMR Porosity {F11.4}
TENS        .LBF   : Cable Tension {F11.4}
TNPH        .CFCF  : Thermal Neutron Porosity (Ratio Method) in Selected Lithology {F11.4}
HTNP_SAN    .CFCF  : HiRes Thermal Neutron Porosity (matrix Sandstone) {F11.4}
~Params ----------------------------------------------------
CN  .        WHITING OIL & GAS CORPORATION : Company Name
WN  .                           JB 11-6TFH : Well Name
FN  .                               SANISH : Field Name
FL  .                  219' FNL & 948' FWL : Field Location
FL1 .                                 LOT4 : Field Location, Line 1
COUN.                            MOUNTRAIL : Rig Name
STAT.                         NORTH DAKOTA : State or Province
NATI.                                      : Nation
DATE.                           25/09/2014 : Tools Above Rotary Table Date
APIN.                         33-061-03238 : API Serial Number
SECT.                                    6 : Section
TOWN.                                 153N : Township
RANG.                                  92W : Range
DMF .                                   MR : Drilling Measured From (Name of Drilling Elevation Reference)
LMF .                                   MR : Logging Measured From (Name of Logging Elevation Reference)
PDAT.                                   NM : Permanent Datum
ENGI.                        AARON BAGWELL : Engineer s Name
WITN.                         JOHN SCHAFER : Witness s Name
LATI.                    48.092747 degrees : Latitude
LONG.                   -102.56534 degrees : Longitude
LUL .                            WILLISTON : Logging Unit Location
LUN .                                 2223 : Logging Unit Number
RUN .                                  TWO : Run Number
SON .                           CWSZ-00040 : Service Order Number
BHT .DEGF                            212.0 : Bottom Hole Temperature
BS  .IN                               8.75 : Bit Size
DFD .LB/G                             10.3 : Drilling Fluid Density
DFV .S                                63.0 : Drilling Fluid Viscosity
DFL .C3                                6.0 : Drilling Fluid Loss
RMFS.OHMM                          -999.25 : Resistivity of Mud Filtrate Sample
EKB .F                              2078.0 : Elevation of Kelly Bushing
EGL .F                              2052.0 : Elevation of Ground Level
BLI .F                             10712.0 : Bottom Log Interval
BSAL.PPM                               0.0 : Borehole Salinity
FLEV.F                                 8.0 : Depth of Drilling Fluid Level to LMF (Log Measured From)
MCST.DEGF                          -999.25 : Mudcake Sample Temperature
MFST.DEGF                          -999.25 : Mud Filtrate Sample Temperature
MRT .DEGF                            220.0 : Maximum Recorded Temperature
MST .DEGF                          -999.25 : Mud Sample Temperature
RMCS.OHMM                          -999.25 : Resistivity of Mud Cake Sample
RMS .OHMM                          -999.25 : Resistivity of Mud Sample
RW  .OHMM                              1.0 : Connate Water Resistivity
TDD .F                             10720.0 : Total Depth (Driller)
TDL .F                             10720.0 : Logger Total Depth
TLI .F                              8575.0 : Top Log Interval
HIDE.                               SANISH : Header Identifier
MATR.                                 LIME : Rock Matrix for Neutron Porosity Corrections
FNUM.                                  1.0 : F-Numerator for Formation Factor Formula
FEXP.                                  2.0 : Exponent "m" for Formation Factor Formula
DFT .                                  OIL : Drilling Fluid Type
DFPH.                              -999.25 : Drilling Fluid pH
MCSS.                              Pressed : Mudcake Sample Source
MFSS.                                      : Mud Filtrate Sample Source
FD  .G/C3                              1.0 : Fluid Density
MSS .                          Active Tank : Mud Sample Source
OS1 .                                      : Other Services Line 1
OS2 .                                      : Other Services Line 2
OS3 .                                      : Other Services Line 3
OS4 .                                      : Other Services Line 4
OS5 .                                      : Other Services Line 5
R1  .                                      : Remarks Line 1
R2  .                                      : Remarks Line 2
R3  .                                      : Remarks Line 3
R4  .                                      : Remarks Line 4
R5  .                                      : Remarks Line 5
R6  .                                      : Remarks Line 6
R7  .                                      : Remarks Line 7
R8  . Thank you for choosing Schlumberger. : Remarks Line 8
TCS .                              00 30 h : Time Circulation Stopped
TLAB.                              21 12 h : Time Logging on Bottom
NMT .                             NOBARITE : HRDD Mud Type for Nuclear Devices
EPD .C3                             2052.0 : Elevation of Permanent Datum above Mean Sea Level
APD .F                                26.0 : Elevation of Depth Reference (LMF) above Permanent Datum
~Other -----------------------------------------------------
~ASCII -----------------------------------------------------
# ...
 9171.00000    0.00000    0.00000    0.00000    0.00000    0.00000    0.01410    0.01110    0.00170    0.00700 1567.73690   -1.48390    0.03400    0.00400    0.00100    0.03400    1.87650  211.01170    0.00000    0.00000   22.44520    0.00000    3.29410   21.91310   22.03680  200.06240    4.73470    0.17360   21.45470    -999.25   21.22520    0.50120    -999.25    2.18100    0.20660    0.00660    0.00000   -0.02660    -999.25    0.00000  196.32940    -999.25    0.03400 3986.21070    -999.25    -999.25
 9171.50000    0.00080    0.00000    0.00000    0.00000    0.00080    0.01620    0.01210    0.01220    0.00720 1586.15060   -2.12250    0.04770    0.00400    0.00100    0.04850    1.83730  211.01170    0.00000    0.00000   24.16540    0.00000    3.42150   23.59250   22.03770  200.06960    5.96380    0.21770   24.79160    -999.25   22.26150    0.63640    -999.25    2.14230    1.05280    0.11310    0.00000   -0.02610    -999.25    0.00000  217.70800    -999.25    0.04850 4033.91240    -999.25    -999.25
 9172.00000    0.00470    0.00000    0.00000    0.00000    0.00470    0.01670    0.01610    0.01880    0.01100 1571.35830   -3.77290    0.06260    0.00400    0.00100    0.06730    1.72990  211.01170    0.00000    0.00000   26.70920    0.00000    3.28260   26.07600   23.28880  200.07680    6.09000    0.22340   24.58200    -999.25   22.96690    0.64380    -999.25    2.20330    4.30810    1.15200    0.00000   -0.02340    -999.25    0.00000  228.86480    -999.25    0.06730 3978.08790    -999.25    -999.25
 9172.50000    0.01000    0.00060    0.00000    0.00010    0.00920    0.01490    0.01680    0.02260    0.01090 1583.37900   -5.49420    0.06520    0.00400    0.00100    0.07460    1.46980  211.01170    0.00000    0.00000   29.77450    0.00000    3.23500   29.06860   25.96640  200.08400    7.11660    0.26530   28.89310    -999.25   25.74880    0.72710    -999.25    2.43900    5.03900    2.43940    0.00000   -0.02770    -999.25    0.00000  198.39530    -999.25    0.07520 4022.92970    -999.25    -999.25
 9173.00000    0.01570    0.00230    0.00160    0.00000    0.01170    0.01350    0.01120    0.02440    0.00660 1578.61960   -5.79790    0.05570    0.00400    0.00100    0.06750    1.52590  211.01170    0.00000    0.00000   31.68920    0.00000    3.46460   30.93800   27.33490  200.09120    7.98650    0.30030   33.76480    -999.25   27.32650    0.80100    -999.25    2.49080    1.86250    1.71750    0.00000   -0.03070    -999.25    0.00000  133.82830    -999.25    0.07140 4010.41820    -999.25    -999.25
 9173.50000    0.02060    0.00250    0.00500    0.00000    0.01310    0.00870    0.00940    0.02420    0.00150 1569.45780   -5.39350    0.04390    0.00400    0.00100    0.05690    1.64220  211.01170    0.00000    0.00000   31.56480    0.00000    3.24130   30.81640   26.03700  200.09840    7.98860    0.29700   30.16930    -999.25   26.84820    0.82120    -999.25    2.43780    0.51180    0.78300    0.00000   -0.02700    -999.25    0.00000   86.22250    -999.25    0.06440 3983.32740    -999.25    -999.25
 9174.00000    0.02050    0.00160    0.00640    0.00020    0.01220    0.00930    0.00830    0.02040    0.00180 1560.30760   -3.98350    0.03980    0.00390    0.00100    0.05220    1.36700  211.01170    0.00000    0.00000   29.82160    0.00000    3.37640   29.11460   23.41100  200.10560    7.74940    0.28660   28.52850    -999.25   25.11000    0.80540    -999.25    2.22480    0.30360    0.49660    0.00000   -0.02110    -999.25    0.00000   75.90600    -999.25    0.06020 3983.01780    -999.25    -999.25
 9174.50000    0.01710    0.00220    0.00110    0.00080    0.01300    0.00770    0.01090    0.01790    0.00400 1586.10850   -4.08360    0.04040    0.00400    0.00100    0.05420    0.58690  211.01170    0.00000    0.00000   29.31360    0.00000    3.41890   28.61870   23.69170  200.11280    7.36490    0.27980   28.67910    -999.25   24.51310    0.72200    -999.25    2.22040    0.47950    0.38610    0.00000   -0.01490    -999.25    0.00000  104.57850    -999.25    0.05750 4024.75440    -999.25    -999.25
 9175.00000    0.01910    0.00150    0.00000    0.00220    0.01530    0.00360    0.01430    0.01780    0.00540 1573.30440   -1.42330    0.04120    0.00400    0.00100    0.05870    0.59860  211.01170    0.00000    0.00000   28.71750    0.00000    3.46590   28.03670   24.93630  200.12000    6.81040    0.24810   28.72450    -999.25   24.71030    0.72970    -999.25    2.28090    0.74070    0.53340    0.00000   -0.02040    -999.25    0.00000  118.56360    -999.25    0.06020 3975.91090    -999.25    -999.25
 9175.50000    0.01700    0.00580    0.00060    0.00000    0.01070    0.00630    0.01410    0.02020    0.00560 1544.05100   -1.33580    0.04620    0.00400    0.00100    0.05690    0.59190  211.01170    0.00000    0.00000   28.11670    0.00000    3.37280   27.45020   25.35730  200.12720    6.20930    0.22660   26.84690    -999.25   24.20430    0.66320    -999.25    2.27670    0.71680    0.74910    0.00000   -0.02580    -999.25    0.00000  105.78780    -999.25    0.06330 3963.56130    -999.25    -999.25
 9176.00000    0.01290    0.00580    0.00070    0.00000    0.00650    0.01460    0.01230    0.01870    0.00970 1566.06790   -0.64070    0.05530    0.00400    0.00100    0.06180    0.05920  211.04520    0.00000    0.00000   26.53410    0.00000    3.39970   25.90500   25.52970  200.13440    6.01220    0.21860   26.92850    -999.25   23.52110    0.64690    -999.25    2.20250    1.35160    1.25420    0.00000   -0.02730    -999.25    0.00000  125.04400    -999.25    0.06820 4005.18040    -999.25    -999.25
 9176.50000    0.01540    0.00000    0.00000    0.00070    0.01460    0.00680    0.01530    0.01850    0.00740 1596.50540   -3.06900    0.04800    0.00410    0.00100    0.06340    0.76900  211.04520    0.00000    0.00000   28.63440    0.00000    3.44560   27.95560   28.29060  200.14160    6.49250    0.23540   24.06740    -999.25   25.01900    0.70240    -999.25    2.34930    1.67410    0.76230    0.00000   -0.03280    -999.25    0.00000  160.85740    -999.25    0.06340 4009.00000    -999.25    -999.25
 9177.00000    0.02280    0.00000    0.00000    0.01420    0.00860    0.00090    0.01800    0.01490    0.00530 1549.80520   -1.94970    0.03910    0.00410    0.00100    0.06190    2.64580  211.01170    0.00000    0.00000   31.31480    0.00000    3.62600   30.57240   31.93360  200.14880    6.27200    0.23460   32.94390    -999.25   28.64940    0.63630    -999.25    2.85420    0.47960    0.43030    0.00000   -0.03600    -999.25    0.00000   90.47060    -999.25    0.06190 3962.01710    -999.25    -999.25
 9177.50000    0.01980    0.00000    0.00000    0.01810    0.00170    0.00010    0.01710    0.01120    0.00580 1539.88750   -2.72410    0.03420    0.00410    0.00100    0.05400    3.48260  211.01170    0.00000    0.00000   36.27930    0.00000    3.40730   35.41920   35.10310  200.15600    6.47590    0.24480   34.89500    -999.25   31.43120    0.64210    -999.25    3.21210    0.24300    0.24770    0.00000   -0.03990    -999.25    0.00000   84.34730    -999.25    0.05410 3953.38600    -999.25    -999.25
 9178.00000    0.01030    0.00000    0.00000    0.01020    0.00000    0.00020    0.01800    0.00960    0.00990 1562.99730   -1.31210    0.03770    0.00400    0.00100    0.04800    4.05670  211.04470    0.00000    0.00000   37.69590    0.00000    3.71410   36.80230   32.60120  200.16320    5.82160    0.21290   38.58200    -999.25   30.76140    0.61920    -999.25    3.21740    0.62330    0.10410    0.00000   -0.02460    -999.25    0.00000  171.29350    -999.25    0.04800 4008.05270    -999.25    -999.25
 9178.50000    0.00680    0.00000    0.00060    0.00620    0.00000    0.00130    0.01850    0.01420    0.01180 1553.74600   -0.42480    0.04590    0.00400    0.00100    0.05210    2.78600  211.07660    0.00000    0.00000   37.34450    0.00000    3.66130   36.45920   30.00540  200.17040    4.55840    0.17070   37.06880    -999.25   27.61700    0.46160    -999.25    2.95390    1.85450    0.20730    0.00000   -0.02700    -999.25    0.00000  244.79690    -999.25    0.05270 3957.45630    -999.25    -999.25
