~Version ---------------------------------------------------
VERS     .                                                                                     2.0 : CWLS log ASCII Standard -VERSION 2.0
WRAP     .                                                                                      NO : One Line per depth step
PROD     .                                                                            Schlumberger : LAS Producer
PROG     .                                                                       DLIS to ASCII 2.3 : LAS Program name and version
CREA     .             2014/09/27 10:36                          :LAS Creation date {YYYY/MM/DD hh : mm}
DLIS_CREA. 2014-Sep-26 05:39                          :DLIS Creation date and time {YYYY-MMM-DD hh : mm}
SOURCE   .                                                    91826cdd-719c-42a6-af83-d6b9542bd142 : DLIS File Name
~Well ------------------------------------------------------
STRT.F                       8395.0 : START DEPTH
STOP.F                      10723.0 : STOP DEPTH
STEP.F                          0.5 : STEP
NULL.                       -999.25 : NULL VALUE
COMP.                               : COMPANY
WELL.                       Bakken2 : WELL
FLD .                               : FIELD
LOC .                               : LOCATION
CNTY.                               : COUNTY
STAT.                  NORTH DAKOTA : STATE
CTRY.                               : COUNTRY
SRVC.                  Schlumberger : SERVICE COMPANY
LATI.DEG                     : LATITUDE
LONG.DEG         -  : LONGITUDE
API .                    : API NUMBER
DATE.                     : LOG DATE
UWI .                  : UNIQUE WELL ID
~Curve Information -----------------------------------------
DEPT        .F     : DEPTH (BOREHOLE) {F12.4}
BFV         .CFCF  : Bound Fluid Volume {F11.4}
CBP1        .CFCF  : CMR Bin Porosity 1 {F11.4}
CBP2        .CFCF  : CMR Bin Porosity 2 {F11.4}
CBP3        .CFCF  : CMR Bin Porosity 3 {F11.4}
CBP4        .CFCF  : CMR Bin Porosity 4 {F11.4}
CBP5        .CFCF  : CMR Bin Porosity 5 {F11.4}
CBP6        .CFCF  : CMR Bin Porosity 6 {F11.4}
CBP7        .CFCF  : CMR Bin Porosity 7 {F11.4}
CBP8        .CFCF  : CMR Bin Porosity 8 {F11.4}
CDF         .LBF   : Calibrated Downhole Force {F11.4}
CFTC        .HZ    : Corrected Far Thermal Count Rate {F11.4}
CMFF        .CFCF  : CMR Free Fluid {F11.4}
CMFF_SIG    .CFCF  : Standard Deviation of CMR Free Fluid {F11.4}
CMR_PHI_CONV.      : CMR Porosity Conversion factor {F11.4}
CMRP_3MS    .CFCF  : CMR Porosity with T2 values greater than 3 ms {F11.4}
CNTC        .HZ    : Corrected Near Thermal Count Rate {F11.4}
CTEM        .DEGF  : Cartridge Temperature {F11.4}
DCAL        .IN    : Differential Caliper {F11.4}
DNPH        .CFCF  : Difference between Corrected Thermal Neutron Porosity and Uncorrected {F11.4}
ECGR        .GAPI  : Environmentally Corrected Gamma Ray {F11.4}
ED          .F     : East Departure {F11.4}
GDEV        .DEG   : HGNS Hole Deviation from Gravity {F11.4}
GR          .GAPI  : Gamma Ray {F11.4}
GR_EDTC     .GAPI  : Gamma Ray {F11.4}
GTEM        .DEGF  : Generalized Borehole Temperature {F11.4}
HCGR        .GAPI  : HNGS Computed Gamma Ray {F11.4}
HFK         .%     : HNGS Formation Potassium Concentration {F11.4}
HGR         .GAPI  : High Resolution Gamma Ray {F11.4}
HNPO        .CFCF  : High Resolution Enhanced Thermal Neutron Porosity in Selected Lithology {F11.4}
HSGR        .GAPI  : HNGS Standard Gamma-Ray {F11.4}
HTHO        .PPM   : HNGS Formation Thorium Concentration {F11.4}
HTNP        .CFCF  : High Resolution Thermal Neutron Porosity (Ratio Method) in Selected Lithology {F11.4}
HURA        .PPM   : HNGS Formation Uranium Concentration {F11.4}
KSDR        .MD    : SDR Permeability {F11.4}
KTIM        .MD    : Timur/Coates Permeability {F11.4}
ND          .F     : North Departure {F11.4}
NPHI        .CFCF  : Thermal Neutron Porosity (original Ratio Method) in Selected Lithology {F11.4}
NPOR        .CFCF  : Enhanced Thermal Neutron Porosity in Selected Lithology {F11.4}
STIT        .F     : Stuck Tool Indicator, Total {F11.4}
T2LM        .MS    : T2 Logarithmic Mean {F11.4}
T2LM_SIG    .MS    : Standard Deviation of T2 Logarithmic Mean {F11.4}
TCMR        .CFCF  : Total CMR Porosity {F11.4}
TENS        .LBF   : Cable Tension {F11.4}
TNPH        .CFCF  : Thermal Neutron Porosity (Ratio Method) in Selected Lithology {F11.4}
HTNP_SAN    .CFCF  : HiRes Thermal Neutron Porosity (matrix Sandstone) {F11.4}
~Params ----------------------------------------------------
CN  .        WHITING OIL & GAS CORPORATION : Company Name
WN  .                           JB 11-6TFH : Well Name
FN  .                               SANISH : Field Name
FL  .                  219' FNL & 948' FWL : Field Location
FL1 .                                 LOT4 : Field Location, Line 1
COUN.                            MOUNTRAIL : Rig Name
STAT.                         NORTH DAKOTA : State or Province
NATI.                                      : Nation
DATE.                           25/09/2014 : Tools Above Rotary Table Date
APIN.                         33-061-03238 : API Serial Number
SECT.                                    6 : Section
TOWN.                                 153N : Township
RANG.                                  92W : Range
DMF .                                   MR : Drilling Measured From (Name of Drilling Elevation Reference)
LMF .                                   MR : Logging Measured From (Name of Logging Elevation Reference)
PDAT.                                   NM : Permanent Datum
ENGI.                        AARON BAGWELL : Engineer s Name
WITN.                         JOHN SCHAFER : Witness s Name
LATI.                    48.092747 degrees : Latitude
LONG.                   -102.56534 degrees : Longitude
LUL .                            WILLISTON : Logging Unit Location
LUN .                                 2223 : Logging Unit Number
RUN .                                  TWO : Run Number
SON .                           CWSZ-00040 : Service Order Number
BHT .DEGF                            212.0 : Bottom Hole Temperature
BS  .IN                               8.75 : Bit Size
DFD .LB/G                             10.3 : Drilling Fluid Density
DFV .S                                63.0 : Drilling Fluid Viscosity
DFL .C3                                6.0 : Drilling Fluid Loss
RMFS.OHMM                          -999.25 : Resistivity of Mud Filtrate Sample
EKB .F                              2078.0 : Elevation of Kelly Bushing
EGL .F                              2052.0 : Elevation of Ground Level
BLI .F                             10712.0 : Bottom Log Interval
BSAL.PPM                               0.0 : Borehole Salinity
FLEV.F                                 8.0 : Depth of Drilling Fluid Level to LMF (Log Measured From)
MCST.DEGF                          -999.25 : Mudcake Sample Temperature
MFST.DEGF                          -999.25 : Mud Filtrate Sample Temperature
MRT .DEGF                            220.0 : Maximum Recorded Temperature
MST .DEGF                          -999.25 : Mud Sample Temperature
RMCS.OHMM                          -999.25 : Resistivity of Mud Cake Sample
RMS .OHMM                          -999.25 : Resistivity of Mud Sample
RW  .OHMM                              1.0 : Connate Water Resistivity
TDD .F                             10720.0 : Total Depth (Driller)
TDL .F                             10720.0 : Logger Total Depth
TLI .F                              8575.0 : Top Log Interval
HIDE.                               SANISH : Header Identifier
MATR.                                 LIME : Rock Matrix for Neutron Porosity Corrections
FNUM.                                  1.0 : F-Numerator for Formation Factor Formula
FEXP.                                  2.0 : Exponent "m" for Formation Factor Formula
DFT .                                  OIL : Drilling Fluid Type
DFPH.                              -999.25 : Drilling Fluid pH
MCSS.                              Pressed : Mudcake Sample Source
MFSS.                                      : Mud Filtrate Sample Source
FD  .G/C3                              1.0 : Fluid Density
MSS .                          Active Tank : Mud Sample Source
OS1 .                                      : Other Services Line 1
OS2 .                                      : Other Services Line 2
OS3 .                                      : Other Services Line 3
OS4 .                                      : Other Services Line 4
OS5 .                                      : Other Services Line 5
R1  .                                      : Remarks Line 1
R2  .                                      : Remarks Line 2
R3  .                                      : Remarks Line 3
R4  .                                      : Remarks Line 4
R5  .                                      : Remarks Line 5
R6  .                                      : Remarks Line 6
R7  .                                      : Remarks Line 7
R8  . Thank you for choosing Schlumberger. : Remarks Line 8
TCS .                              00 30 h : Time Circulation Stopped
TLAB.                              21 12 h : Time Logging on Bottom
NMT .                             NOBARITE : HRDD Mud Type for Nuclear Devices
EPD .C3                             2052.0 : Elevation of Permanent Datum above Mean Sea Level
APD .F                                26.0 : Elevation of Depth Reference (LMF) above Permanent Datum
~Other -----------------------------------------------------
~ASCII -----------------------------------------------------
# ...
 8547.00000    0.02410    0.01080    0.00460    0.00870    0.00000    0.00000    0.00120    0.00050    0.00160 1601.82970   -3.12850    0.00340    0.00360    0.00090    0.01210   -1.39130  207.05880    0.00000    0.00000   12.15760    0.00000    3.78520   11.86940   10.70670  191.07680    8.95400    0.29270   12.94270    -999.25   12.11370    1.15600    -999.25    0.46270    0.00000    0.00010    0.00000    -999.25    -999.25    0.00000    3.07150    -999.25    0.02750 3834.93090    -999.25    -999.25
 8547.50000    0.01740    0.00690    0.00420    0.00630    0.00000    0.00210    0.00040    0.00000    0.00200 1600.45520   -1.27480    0.00450    0.00360    0.00090    0.01080    0.29190  207.05880    0.00000    0.00000   14.02210    0.00000    3.88020   13.68960   12.40580  191.08400    9.02320    0.28570   14.77930    -999.25   12.18100    1.21900    -999.25    0.44620    0.00000    0.00000    0.00000   -0.02240    -999.25    0.00000    4.66390    -999.25    0.02190 3865.15500    -999.25    -999.25
 8548.00000    0.00560    0.00000    0.00000    0.00290    0.00270    0.00180    0.00010    0.00000    0.00150 1605.48470   -2.39310    0.00350    0.00360    0.00090    0.00900    1.23690  207.05880    0.00000    0.00000   13.63170    0.00000    3.70020   13.30860   11.28910  191.09120    8.11240    0.24020   13.29810    -999.25   10.84070    1.19370    -999.25    0.39760    0.00000    0.00000    0.00000   -0.02600    -999.25    0.00000   37.90630    -999.25    0.00900 3849.10180    -999.25    -999.25
 8548.50000    0.00780    0.00030    0.00000    0.00600    0.00150    0.00000    0.00000    0.00000    0.00170 1596.44640   -2.76900    0.00170    0.00350    0.00090    0.00920    1.41390  207.05880    0.00000    0.00000   12.38210    0.00000    3.83950   12.08860    9.43500  191.09840    7.09810    0.21100   11.80320    -999.25    9.36720    1.03940    -999.25    0.33290    0.00000    0.00000    0.00000   -0.02050    -999.25    0.00000   18.72420    -999.25    0.00960 3843.44650    -999.25    -999.25
 8549.00000    0.00190    0.00000    0.00130    0.00060    0.00000    0.00000    0.00050    0.00000    0.00260 1604.05100   -1.35070    0.00320    0.00360    0.00090    0.00380    0.65800  207.05880    0.00000    0.00000   11.06700    0.00000    3.85940   10.80470    8.30170  191.10560    6.35570    0.19670   11.11980    -999.25    8.70760    0.88520    -999.25    0.34290    0.00010    0.00000    0.00000   -0.02320    -999.25    0.00000  136.48790    -999.25    0.00510 3858.00020    -999.25    -999.25
 8549.50000    0.01260    0.00830    0.00430    0.00000    0.00000    0.00000    0.00000    0.00000    0.00040 1607.21560   -3.35980    0.00040    0.00350    0.00090    0.00050    1.46120  207.05880    0.00000    0.00000    9.44570    0.00000    3.70480    9.22180    7.93510  191.11280    6.35660    0.19800    9.47000    -999.25    8.74130    0.87770    -999.25    0.33140    0.00000    0.00000    0.00000   -0.02930    -999.25    0.00000    0.99080    -999.25    0.01300 3852.67820    -999.25    -999.25
 8550.00000    0.01410    0.00970    0.00440    0.00000    0.00000    0.00000    0.00000    0.00030    0.00000 1603.82920   -2.52850    0.00030    0.00350    0.00090    0.00030    1.28190  207.05880    0.00000    0.00000    7.77140    0.00000    3.88040    7.58710    6.43450  191.12000    5.44190    0.16890    7.02320    -999.25    7.42630    0.75500    -999.25    0.26330    0.00000    0.00000    0.00000   -0.03340    -999.25    0.00000    0.82890    -999.25    0.01440 3858.15800    -999.25    -999.25
 8550.50000    0.01250    0.00650    0.00450    0.00150    0.00000    0.00000    0.00120    0.00000    0.00000 1607.87320   -3.09770    0.00120    0.00340    0.00090    0.00270    2.13910  207.05880    0.00000    0.00000    7.48590    0.00000    3.78750    7.30850    5.90120  191.12720    4.97220    0.16350    6.24350    -999.25    6.47690    0.63590    -999.25    0.19260    0.00000    0.00000    0.00000   -0.02590    -999.25    0.00000    1.57270    -999.25    0.01370 3865.53440    -999.25    -999.25
 8551.00000    0.00680    0.00180    0.00050    0.00400    0.00050    0.00000    0.00320    0.00140    0.00000 1620.52580   -1.85710    0.00460    0.00360    0.00090    0.00910    1.15790  207.05880    0.00000    0.00000    7.91670    0.00000    3.58840    7.72900    6.63940  191.13440    5.07850    0.16430    8.67170    -999.25    6.03470    0.66530    -999.25    0.12940    0.00000    0.00000    0.00000   -0.01260    -999.25    0.00000   17.60690    -999.25    0.01140 3866.33350    -999.25    -999.25
 8551.50000    0.01020    0.00650    0.00070    0.00000    0.00290    0.00010    0.00130    0.00340    0.00000 1622.73910   -2.28100    0.00480    0.00370    0.00090    0.00770    0.07310  207.05880    0.00000    0.00000   10.01940    0.00000    3.77240    9.78190    8.50190  191.14160    6.14010    0.19240    8.34490    -999.25    7.18540    0.84120    -999.25    0.15140    0.00000    0.00000    0.00000    0.00210    -999.25    0.00000    8.70100    -999.25    0.01490 3884.20680    -999.25    -999.25
 8552.00000    0.01950    0.01260    0.00410    0.00000    0.00280    0.00010    0.00160    0.00310    0.00000 1609.66190   -1.59830    0.00480    0.00360    0.00090    0.00750   -0.67190  207.05880    0.00000    0.00000   11.73100    0.00000    3.70890   11.45290   10.35240  191.14880    8.36820    0.26010   12.36030    -999.25    9.39340    1.15910    -999.25    0.13460    0.00000    0.00020    0.00000   -0.00200    -999.25    0.00000    3.36930    -999.25    0.02420 3845.36840    -999.25    -999.25
 8552.50000    0.01740    0.00780    0.00290    0.00490    0.00190    0.00000    0.00020    0.00300    0.00000 1618.24220   -0.49410    0.00330    0.00350    0.00090    0.01000   -0.38670  207.05880    0.00000    0.00000   13.14390    0.00000    3.57510   12.83230   11.88400  191.15600    8.87090    0.27250   13.67180    -999.25   10.37040    1.24770    -999.25    0.20900    0.00000    0.00000    0.00000    -999.25    -999.25    0.00000    4.18310    -999.25    0.02070 3861.03560    -999.25    -999.25
 8553.00000    0.01210    0.00080    0.00050    0.00990    0.00080    0.00000    0.00000    0.00020    0.00130 1624.91580   -1.83980    0.00150    0.00330    0.00090    0.01230   -1.58670  207.05880    0.00000    0.00000   11.51640    0.00000    3.68220   11.24330   11.47020  191.16320    7.77470    0.24940   12.44590    -999.25    9.56320    1.03150    -999.25    0.26890    0.00000    0.00000    0.00000    -999.25    -999.25    0.00000    9.03730    -999.25    0.01360 3902.72710    -999.25    -999.25
 8553.50000    0.00770    0.00000    0.00000    0.00580    0.00200    0.00000    0.00000    0.00000    0.00100 1610.97290   -0.02540    0.00100    0.00310    0.00090    0.00880   -0.40180  207.05880    0.00000    0.00000    8.89750    0.00000    3.51500    8.68650    9.14800  191.17040    5.62850    0.19000    7.61070    -999.25    7.15720    0.69150    -999.25    0.20920    0.00000    0.00000    0.00000    -999.25    -999.25    0.00000   15.68220    -999.25    0.00880 3849.35690    -999.25    -999.25
 8554.00000    0.00380    0.00070    0.00000    0.00000    0.00320    0.00050    0.00000    0.00000    0.00160 1608.57010   -1.81550    0.00220    0.00350    0.00090    0.00530    1.32460  207.05880    0.00000    0.00000    6.87180    0.00000    3.77640    6.70880    6.10950  191.17760    3.93330    0.13100    6.01110    -999.25    5.14480    0.49330    -999.25    0.16340    0.00000    0.00000    0.00000   -0.01870    -999.25    0.00000   56.18630    -999.25    0.00600 3854.25000    -999.25    -999.25
 8554.50000    0.00730    0.00700    0.00020    0.00000    0.00010    0.00120    0.00000    0.00000    0.00270 1604.23060    0.19690    0.00390    0.00370    0.00090    0.00400    1.34750  207.05880    0.00000    0.00000    6.29710    0.00000    3.58200    6.14790    4.24970  191.18480    3.22420    0.10780    6.53710    -999.25    4.18170    0.40200    -999.25    0.12490    0.00000    0.00000    0.00000   -0.02480    -999.25    0.00000    6.66960    -999.25    0.01120 3869.75000    -999.25    -999.25
