~Version ---------------------------------------------------
VERS     .                                                                                     2.0 : CWLS log ASCII Standard -VERSION 2.0
WRAP     .                                                                                      NO : One Line per depth step
PROD     .                                                                            Schlumberger : LAS Producer
PROG     .                                                                       DLIS to ASCII 2.3 : LAS Program name and version
CREA     .             2014/09/27 10:36                          :LAS Creation date {YYYY/MM/DD hh : mm}
DLIS_CREA. 2014-Sep-26 05:39                          :DLIS Creation date and time {YYYY-MMM-DD hh : mm}
SOURCE   .                                                    91826cdd-719c-42a6-af83-d6b9542bd142 : DLIS File Name
~Well ------------------------------------------------------
STRT.F                       8395.0 : START DEPTH
STOP.F                      10723.0 : STOP DEPTH
STEP.F                          0.5 : STEP
NULL.                       -999.25 : NULL VALUE
COMP.                               : COMPANY
WELL.                       Bakken2 : WELL
FLD .                               : FIELD
LOC .                               : LOCATION
CNTY.                               : COUNTY
STAT.                  NORTH DAKOTA : STATE
CTRY.                               : COUNTRY
SRVC.                  Schlumberger : SERVICE COMPANY
LATI.DEG                     : LATITUDE
LONG.DEG         -  : LONGITUDE
API .                    : API NUMBER
DATE.                     : LOG DATE
UWI .                  : UNIQUE WELL ID
~Curve Information -----------------------------------------
DEPT        .F     : DEPTH (BOREHOLE) {F12.4}
BFV         .CFCF  : Bound Fluid Volume {F11.4}
CBP1        .CFCF  : CMR Bin Porosity 1 {F11.4}
CBP2        .CFCF  : CMR Bin Porosity 2 {F11.4}
CBP3        .CFCF  : CMR Bin Porosity 3 {F11.4}
CBP4        .CFCF  : CMR Bin Porosity 4 {F11.4}
CBP5        .CFCF  : CMR Bin Porosity 5 {F11.4}
CBP6        .CFCF  : CMR Bin Porosity 6 {F11.4}
CBP7        .CFCF  : CMR Bin Porosity 7 {F11.4}
CBP8        .CFCF  : CMR Bin Porosity 8 {F11.4}
CDF         .LBF   : Calibrated Downhole Force {F11.4}
CFTC        .HZ    : Corrected Far Thermal Count Rate {F11.4}
CMFF        .CFCF  : CMR Free Fluid {F11.4}
CMFF_SIG    .CFCF  : Standard Deviation of CMR Free Fluid {F11.4}
CMR_PHI_CONV.      : CMR Porosity Conversion factor {F11.4}
CMRP_3MS    .CFCF  : CMR Porosity with T2 values greater than 3 ms {F11.4}
CNTC        .HZ    : Corrected Near Thermal Count Rate {F11.4}
CTEM        .DEGF  : Cartridge Temperature {F11.4}
DCAL        .IN    : Differential Caliper {F11.4}
DNPH        .CFCF  : Difference between Corrected Thermal Neutron Porosity and Uncorrected {F11.4}
ECGR        .GAPI  : Environmentally Corrected Gamma Ray {F11.4}
ED          .F     : East Departure {F11.4}
GDEV        .DEG   : HGNS Hole Deviation from Gravity {F11.4}
GR          .GAPI  : Gamma Ray {F11.4}
GR_EDTC     .GAPI  : Gamma Ray {F11.4}
GTEM        .DEGF  : Generalized Borehole Temperature {F11.4}
HCGR        .GAPI  : HNGS Computed Gamma Ray {F11.4}
HFK         .%     : HNGS Formation Potassium Concentration {F11.4}
HGR         .GAPI  : High Resolution Gamma Ray {F11.4}
HNPO        .CFCF  : High Resolution Enhanced Thermal Neutron Porosity in Selected Lithology {F11.4}
HSGR        .GAPI  : HNGS Standard Gamma-Ray {F11.4}
HTHO        .PPM   : HNGS Formation Thorium Concentration {F11.4}
HTNP        .CFCF  : High Resolution Thermal Neutron Porosity (Ratio Method) in Selected Lithology {F11.4}
HURA        .PPM   : HNGS Formation Uranium Concentration {F11.4}
KSDR        .MD    : SDR Permeability {F11.4}
KTIM        .MD    : Timur/Coates Permeability {F11.4}
ND          .F     : North Departure {F11.4}
NPHI        .CFCF  : Thermal Neutron Porosity (original Ratio Method) in Selected Lithology {F11.4}
NPOR        .CFCF  : Enhanced Thermal Neutron Porosity in Selected Lithology {F11.4}
STIT        .F     : Stuck Tool Indicator, Total {F11.4}
T2LM        .MS    : T2 Logarithmic Mean {F11.4}
T2LM_SIG    .MS    : Standard Deviation of T2 Logarithmic Mean {F11.4}
TCMR        .CFCF  : Total CMR Porosity {F11.4}
TENS        .LBF   : Cable Tension {F11.4}
TNPH        .CFCF  : Thermal Neutron Porosity (Ratio Method) in Selected Lithology {F11.4}
HTNP_SAN    .CFCF  : HiRes Thermal Neutron Porosity (matrix Sandstone) {F11.4}
~Params ----------------------------------------------------
CN  .        WHITING OIL & GAS CORPORATION : Company Name
WN  .                           JB 11-6TFH : Well Name
FN  .                               SANISH : Field Name
FL  .                  219' FNL & 948' FWL : Field Location
FL1 .                                 LOT4 : Field Location, Line 1
COUN.                            MOUNTRAIL : Rig Name
STAT.                         NORTH DAKOTA : State or Province
NATI.                                      : Nation
DATE.                           25/09/2014 : Tools Above Rotary Table Date
APIN.                         33-061-03238 : API Serial Number
SECT.                                    6 : Section
TOWN.                                 153N : Township
RANG.                                  92W : Range
DMF .                                   MR : Drilling Measured From (Name of Drilling Elevation Reference)
LMF .                                   MR : Logging Measured From (Name of Logging Elevation Reference)
PDAT.                                   NM : Permanent Datum
ENGI.                        AARON BAGWELL : Engineer s Name
WITN.                         JOHN SCHAFER : Witness s Name
LATI.                    48.092747 degrees : Latitude
LONG.                   -102.56534 degrees : Longitude
LUL .                            WILLISTON : Logging Unit Location
LUN .                                 2223 : Logging Unit Number
RUN .                                  TWO : Run Number
SON .                           CWSZ-00040 : Service Order Number
BHT .DEGF                            212.0 : Bottom Hole Temperature
BS  .IN                               8.75 : Bit Size
DFD .LB/G                             10.3 : Drilling Fluid Density
DFV .S                                63.0 : Drilling Fluid Viscosity
DFL .C3                                6.0 : Drilling Fluid Loss
RMFS.OHMM                          -999.25 : Resistivity of Mud Filtrate Sample
EKB .F                              2078.0 : Elevation of Kelly Bushing
EGL .F                              2052.0 : Elevation of Ground Level
BLI .F                             10712.0 : Bottom Log Interval
BSAL.PPM                               0.0 : Borehole Salinity
FLEV.F                                 8.0 : Depth of Drilling Fluid Level to LMF (Log Measured From)
MCST.DEGF                          -999.25 : Mudcake Sample Temperature
MFST.DEGF                          -999.25 : Mud Filtrate Sample Temperature
MRT .DEGF                            220.0 : Maximum Recorded Temperature
MST .DEGF                          -999.25 : Mud Sample Temperature
RMCS.OHMM                          -999.25 : Resistivity of Mud Cake Sample
RMS .OHMM                          -999.25 : Resistivity of Mud Sample
RW  .OHMM                              1.0 : Connate Water Resistivity
TDD .F                             10720.0 : Total Depth (Driller)
TDL .F                             10720.0 : Logger Total Depth
TLI .F                              8575.0 : Top Log Interval
HIDE.                               SANISH : Header Identifier
MATR.                                 LIME : Rock Matrix for Neutron Porosity Corrections
FNUM.                                  1.0 : F-Numerator for Formation Factor Formula
FEXP.                                  2.0 : Exponent "m" for Formation Factor Formula
DFT .                                  OIL : Drilling Fluid Type
DFPH.                              -999.25 : Drilling Fluid pH
MCSS.                              Pressed : Mudcake Sample Source
MFSS.                                      : Mud Filtrate Sample Source
FD  .G/C3                              1.0 : Fluid Density
MSS .                          Active Tank : Mud Sample Source
OS1 .                                      : Other Services Line 1
OS2 .                                      : Other Services Line 2
OS3 .                                      : Other Services Line 3
OS4 .                                      : Other Services Line 4
OS5 .                                      : Other Services Line 5
R1  .                                      : Remarks Line 1
R2  .                                      : Remarks Line 2
R3  .                                      : Remarks Line 3
R4  .                                      : Remarks Line 4
R5  .                                      : Remarks Line 5
R6  .                                      : Remarks Line 6
R7  .                                      : Remarks Line 7
R8  . Thank you for choosing Schlumberger. : Remarks Line 8
TCS .                              00 30 h : Time Circulation Stopped
TLAB.                              21 12 h : Time Logging on Bottom
NMT .                             NOBARITE : HRDD Mud Type for Nuclear Devices
EPD .C3                             2052.0 : Elevation of Permanent Datum above Mean Sea Level
APD .F                                26.0 : Elevation of Depth Reference (LMF) above Permanent Datum
~Other -----------------------------------------------------
~ASCII -----------------------------------------------------
# ...
 10563.00000    0.08360    0.01410    0.04370    0.02570    0.00000    0.00010    0.00310    0.00000    0.00130 1583.18490    2.44950    0.00450    0.00410    0.00100    0.03020   -0.85320  228.80000    0.00000    0.00000  101.07090    0.00000    4.14080   98.67480   93.49500  220.10720   83.90190    2.64370   99.86160    -999.25   96.16700   11.40770    -999.25    1.92020    0.00160    0.00170    0.00000    -999.25    -999.25    0.00000    2.62020    -999.25    0.08800 4488.94970    -999.25    -999.25
 10563.50000    0.08000    0.01590    0.04510    0.01900    0.00000    0.00000    0.00270    0.00020    0.00040 1581.75290    1.94340    0.00330    0.00380    0.00100    0.02230   -0.62520  228.80000    0.00000    0.00000  102.53240    0.00000    3.94110  100.10170   96.48060  220.11440   86.60900    2.72260  101.48700    -999.25   99.28600   11.81280    -999.25    1.97800    0.00090    0.00080    0.00000    -999.25    -999.25    0.00000    2.17980    -999.25    0.08330 4461.41940    -999.25    -999.25
 10564.00000    0.07120    0.01820    0.03900    0.01400    0.00000    0.00000    0.00290    0.00000    0.00000 1604.74930    0.83920    0.00300    0.00350    0.00100    0.01700   -0.71240  228.80000    0.00000    0.00000  106.32240    0.00000    3.98390  103.80180  102.73100  220.12160   90.50480    2.85040   98.99480    -999.25  103.63140   12.31300    -999.25    2.03110    0.00040    0.00050    0.00000    -999.25    -999.25    0.00000    1.92670    -999.25    0.07420 4521.85500    -999.25    -999.25
 10564.50000    0.06030    0.01750    0.03300    0.00970    0.00000    0.00000    0.00300    0.00000    0.00000 1585.61340   -0.45460    0.00300    0.00340    0.00100    0.01270    0.01700  228.80000    0.00000    0.00000  112.37470    0.00000    3.96730  109.71060  107.74190  220.12880   97.78890    3.11990  110.92590    -999.25  111.74770   13.06950    -999.25    2.15870    0.00020    0.00040    0.00000   -0.02660    -999.25    0.00000    1.84890    -999.25    0.06330 4478.50830    -999.25    -999.25
 10565.00000    0.06440    0.02430    0.02730    0.00840    0.00440    0.00140    0.00000    0.00000    0.00000 1583.87110   -1.59760    0.00140    0.00380    0.00100    0.01420    1.12240  228.80000    0.00000    0.00000  117.69840    0.00000    3.93760  114.90810  110.60490  220.13600  100.86110    3.24130  119.15190    -999.25  115.81880   13.34310    -999.25    2.26510    0.00020    0.00010    0.00000   -0.03210    -999.25    0.00000    1.62610    -999.25    0.06580 4494.08200    -999.25    -999.25
 10565.50000    0.06490    0.03040    0.02120    0.00760    0.00560    0.00040    0.00000    0.00000    0.00000 1610.78190   -2.44540    0.00040    0.00330    0.00100    0.01370    1.28240  228.80000    0.00000    0.00000  114.71080    0.00000    3.95350  111.99130  106.77520  220.14320   98.82220    3.18790  114.63750    -999.25  112.65940   13.00220    -999.25    2.09430    0.00010    0.00000    0.00000   -0.03120    -999.25    0.00000    1.40090    -999.25    0.06530 4527.90140    -999.25    -999.25
 10566.00000    0.07750    0.04510    0.02060    0.00990    0.00190    0.00200    0.00000    0.00000    0.00000 1604.13270   -2.90400    0.00200    0.00390    0.00100    0.01390    1.98650  228.80000    0.00000    0.00000  104.98420    0.00000    3.95860  102.49530   99.20200  220.15040   91.31750    2.98520  102.17560    -999.25  103.78370   11.78450    -999.25    1.91450    0.00020    0.00030    0.00000   -0.02260    -999.25    0.00000    1.13380    -999.25    0.07960 4512.52440    -999.25    -999.25
 10566.50000    0.09000    0.03710    0.03040    0.02030    0.00210    0.00000    0.00080    0.00130    0.00000 1631.69510   -1.04390    0.00210    0.00390    0.00100    0.02460    2.41640  228.80000    0.00000    0.00000   96.42500    0.00000    3.97150   94.13910   90.72260  220.15760   84.11310    2.72880   90.81800    -999.25   95.77040   10.97670    -999.25    1.78650    0.00070    0.00040    0.00000   -0.02600    -999.25    0.00000    1.61180    -999.25    0.09210 4572.11280    -999.25    -999.25
 10567.00000    0.08580    0.02650    0.02870    0.02530    0.00520    0.00000    0.00000    0.00120    0.00030 1616.41910    0.20780    0.00160    0.00400    0.00100    0.03200    2.12830  228.80000    0.00000    0.00000   91.75600    0.00000    3.92010   89.58070   86.03770  220.16480   80.61870    2.60320   89.41510    -999.25   92.20200   10.59230    -999.25    1.72930    0.00100    0.00020    0.00000   -0.02880    -999.25    0.00000    2.11440    -999.25    0.08730 4526.59030    -999.25    -999.25
 10567.50000    0.07040    0.01540    0.02380    0.02450    0.00670    0.00040    0.00110    0.00000    0.00020 1590.01390    1.63840    0.00170    0.00360    0.00100    0.03290    2.24060  228.80000    0.00000    0.00000   92.82730    0.00000    3.85160   90.62660   84.52210  220.17200   78.63890    2.54030   88.53090    -999.25   89.68060   10.32600    -999.25    1.64030    0.00080    0.00020    0.00000   -0.03330    -999.25    0.00000    2.71720    -999.25    0.07210 4492.53370    -999.25    -999.25
 10568.00000    0.06540    0.01500    0.02210    0.02120    0.00710    0.00270    0.00000    0.00000    0.00000 1593.05300   -0.64850    0.00270    0.00330    0.00100    0.03100    2.35680  228.80000    0.00000    0.00000   95.11470    0.00000    3.98060   92.85980   86.96010  220.17920   78.51240    2.55680   93.94940    -999.25   91.90290   10.18890    -999.25    1.91400    0.00070    0.00040    0.00000   -0.02810    -999.25    0.00000    2.77120    -999.25    0.06810 4530.13330    -999.25    -999.25
 10568.50000    0.06870    0.01760    0.02550    0.01990    0.00570    0.00310    0.00000    0.00000    0.00000 1586.77150   -1.15750    0.00310    0.00320    0.00100    0.02870    1.26870  228.80000    0.00000    0.00000   96.16600    0.00000    4.01790   93.88620   88.78380  220.18640   79.52550    2.59850   96.14640    -999.25   94.55780   10.26990    -999.25    2.15540    0.00060    0.00050    0.00000   -0.02290    -999.25    0.00000    2.47040    -999.25    0.07180 4502.96680    -999.25    -999.25
 10569.00000    0.07250    0.02080    0.02750    0.02050    0.00380    0.00310    0.00020    0.00000    0.00090 1603.93580   -3.78020    0.00410    0.00380    0.00100    0.02840    1.94590  228.80000    0.00000    0.00000   97.44370    0.00000    3.79800   95.13360   89.94580  220.19360   83.00280    2.70160   91.52070    -999.25   97.22100   10.78020    -999.25    2.02990    0.00080    0.00110    0.00000   -0.02730    -999.25    0.00000    2.39250    -999.25    0.07660 4501.31640    -999.25    -999.25
 10569.50000    0.07190    0.01650    0.02360    0.02520    0.00660    0.00010    0.00070    0.00170    0.00020 1576.94560   -5.29630    0.00270    0.00390    0.00100    0.03450    2.46420  228.80000    0.00000    0.00000   98.24180    0.00000    4.05210   95.91270   94.99640  220.20080   82.42150    2.71370   97.69370    -999.25   96.41740   10.52310    -999.25    1.97690    0.00100    0.00040    0.00000   -0.02430    -999.25    0.00000    2.90110    -999.25    0.07460 4510.54250    -999.25    -999.25
 10570.00000    0.07520    0.01670    0.02080    0.02810    0.00960    0.00000    0.00000    0.00020    0.00160 1607.87180   -4.10380    0.00180    0.00380    0.00100    0.03950    1.07460  228.80000    0.00000    0.00000  103.38290    0.00000    4.16870  100.93200  101.25900  220.20800   85.50150    2.84120   98.45200    -999.25  100.14020   10.76360    -999.25    2.03160    0.00140    0.00020    0.00000   -0.02410    -999.25    0.00000    3.14080    -999.25    0.07700 4522.06350    -999.25    -999.25
 10570.50000    0.06850    0.02440    0.02130    0.01200    0.01080    0.00010    0.00000    0.00020    0.00190 1602.56670   -3.98990    0.00220    0.00390    0.00100    0.02500    1.36540  228.80000    0.00000    0.00000  105.64540    0.00000    3.98490  103.14090  110.11870  220.21520   88.08520    2.93130  106.57830    -999.25  103.99020   11.06410    -999.25    2.21300    0.00060    0.00020    0.00000   -0.01360    -999.25    0.00000    2.41200    -999.25    0.07070 4515.61280    -999.25    -999.25
