~Version ---------------------------------------------------
VERS     .                                                                                     2.0 : CWLS log ASCII Standard -VERSION 2.0
WRAP     .                                                                                      NO : One Line per depth step
PROD     .                                                                            Schlumberger : LAS Producer
PROG     .                                                                       DLIS to ASCII 2.3 : LAS Program name and version
CREA     .             2014/09/27 10:36                          :LAS Creation date {YYYY/MM/DD hh : mm}
DLIS_CREA. 2014-Sep-26 05:39                          :DLIS Creation date and time {YYYY-MMM-DD hh : mm}
SOURCE   .                                                    91826cdd-719c-42a6-af83-d6b9542bd142 : DLIS File Name
~Well ------------------------------------------------------
STRT.F                       8395.0 : START DEPTH
STOP.F                      10723.0 : STOP DEPTH
STEP.F                          0.5 : STEP
NULL.                       -999.25 : NULL VALUE
COMP.                               : COMPANY
WELL.                       Bakken2 : WELL
FLD .                               : FIELD
LOC .                               : LOCATION
CNTY.                               : COUNTY
STAT.                  NORTH DAKOTA : STATE
CTRY.                               : COUNTRY
SRVC.                  Schlumberger : SERVICE COMPANY
LATI.DEG                     : LATITUDE
LONG.DEG         -  : LONGITUDE
API .                    : API NUMBER
DATE.                     : LOG DATE
UWI .                  : UNIQUE WELL ID
~Curve Information -----------------------------------------
DEPT        .F     : DEPTH (BOREHOLE) {F12.4}
BFV         .CFCF  : Bound Fluid Volume {F11.4}
CBP1        .CFCF  : CMR Bin Porosity 1 {F11.4}
CBP2        .CFCF  : CMR Bin Porosity 2 {F11.4}
CBP3        .CFCF  : CMR Bin Porosity 3 {F11.4}
CBP4        .CFCF  : CMR Bin Porosity 4 {F11.4}
CBP5        .CFCF  : CMR Bin Porosity 5 {F11.4}
CBP6        .CFCF  : CMR Bin Porosity 6 {F11.4}
CBP7        .CFCF  : CMR Bin Porosity 7 {F11.4}
CBP8        .CFCF  : CMR Bin Porosity 8 {F11.4}
CDF         .LBF   : Calibrated Downhole Force {F11.4}
CFTC        .HZ    : Corrected Far Thermal Count Rate {F11.4}
CMFF        .CFCF  : CMR Free Fluid {F11.4}
CMFF_SIG    .CFCF  : Standard Deviation of CMR Free Fluid {F11.4}
CMR_PHI_CONV.      : CMR Porosity Conversion factor {F11.4}
CMRP_3MS    .CFCF  : CMR Porosity with T2 values greater than 3 ms {F11.4}
CNTC        .HZ    : Corrected Near Thermal Count Rate {F11.4}
CTEM        .DEGF  : Cartridge Temperature {F11.4}
DCAL        .IN    : Differential Caliper {F11.4}
DNPH        .CFCF  : Difference between Corrected Thermal Neutron Porosity and Uncorrected {F11.4}
ECGR        .GAPI  : Environmentally Corrected Gamma Ray {F11.4}
ED          .F     : East Departure {F11.4}
GDEV        .DEG   : HGNS Hole Deviation from Gravity {F11.4}
GR          .GAPI  : Gamma Ray {F11.4}
GR_EDTC     .GAPI  : Gamma Ray {F11.4}
GTEM        .DEGF  : Generalized Borehole Temperature {F11.4}
HCGR        .GAPI  : HNGS Computed Gamma Ray {F11.4}
HFK         .%     : HNGS Formation Potassium Concentration {F11.4}
HGR         .GAPI  : High Resolution Gamma Ray {F11.4}
HNPO        .CFCF  : High Resolution Enhanced Thermal Neutron Porosity in Selected Lithology {F11.4}
HSGR        .GAPI  : HNGS Standard Gamma-Ray {F11.4}
HTHO        .PPM   : HNGS Formation Thorium Concentration {F11.4}
HTNP        .CFCF  : High Resolution Thermal Neutron Porosity (Ratio Method) in Selected Lithology {F11.4}
HURA        .PPM   : HNGS Formation Uranium Concentration {F11.4}
KSDR        .MD    : SDR Permeability {F11.4}
KTIM        .MD    : Timur/Coates Permeability {F11.4}
ND          .F     : North Departure {F11.4}
NPHI        .CFCF  : Thermal Neutron Porosity (original Ratio Method) in Selected Lithology {F11.4}
NPOR        .CFCF  : Enhanced Thermal Neutron Porosity in Selected Lithology {F11.4}
STIT        .F     : Stuck Tool Indicator, Total {F11.4}
T2LM        .MS    : T2 Logarithmic Mean {F11.4}
T2LM_SIG    .MS    : Standard Deviation of T2 Logarithmic Mean {F11.4}
TCMR        .CFCF  : Total CMR Porosity {F11.4}
TENS        .LBF   : Cable Tension {F11.4}
TNPH        .CFCF  : Thermal Neutron Porosity (Ratio Method) in Selected Lithology {F11.4}
HTNP_SAN    .CFCF  : HiRes Thermal Neutron Porosity (matrix Sandstone) {F11.4}
~Params ----------------------------------------------------
CN  .        WHITING OIL & GAS CORPORATION : Company Name
WN  .                           JB 11-6TFH : Well Name
FN  .                               SANISH : Field Name
FL  .                  219' FNL & 948' FWL : Field Location
FL1 .                                 LOT4 : Field Location, Line 1
COUN.                            MOUNTRAIL : Rig Name
STAT.                         NORTH DAKOTA : State or Province
NATI.                                      : Nation
DATE.                           25/09/2014 : Tools Above Rotary Table Date
APIN.                         33-061-03238 : API Serial Number
SECT.                                    6 : Section
TOWN.                                 153N : Township
RANG.                                  92W : Range
DMF .                                   MR : Drilling Measured From (Name of Drilling Elevation Reference)
LMF .                                   MR : Logging Measured From (Name of Logging Elevation Reference)
PDAT.                                   NM : Permanent Datum
ENGI.                        AARON BAGWELL : Engineer s Name
WITN.                         JOHN SCHAFER : Witness s Name
LATI.                    48.092747 degrees : Latitude
LONG.                   -102.56534 degrees : Longitude
LUL .                            WILLISTON : Logging Unit Location
LUN .                                 2223 : Logging Unit Number
RUN .                                  TWO : Run Number
SON .                           CWSZ-00040 : Service Order Number
BHT .DEGF                            212.0 : Bottom Hole Temperature
BS  .IN                               8.75 : Bit Size
DFD .LB/G                             10.3 : Drilling Fluid Density
DFV .S                                63.0 : Drilling Fluid Viscosity
DFL .C3                                6.0 : Drilling Fluid Loss
RMFS.OHMM                          -999.25 : Resistivity of Mud Filtrate Sample
EKB .F                              2078.0 : Elevation of Kelly Bushing
EGL .F                              2052.0 : Elevation of Ground Level
BLI .F                             10712.0 : Bottom Log Interval
BSAL.PPM                               0.0 : Borehole Salinity
FLEV.F                                 8.0 : Depth of Drilling Fluid Level to LMF (Log Measured From)
MCST.DEGF                          -999.25 : Mudcake Sample Temperature
MFST.DEGF                          -999.25 : Mud Filtrate Sample Temperature
MRT .DEGF                            220.0 : Maximum Recorded Temperature
MST .DEGF                          -999.25 : Mud Sample Temperature
RMCS.OHMM                          -999.25 : Resistivity of Mud Cake Sample
RMS .OHMM                          -999.25 : Resistivity of Mud Sample
RW  .OHMM                              1.0 : Connate Water Resistivity
TDD .F                             10720.0 : Total Depth (Driller)
TDL .F                             10720.0 : Logger Total Depth
TLI .F                              8575.0 : Top Log Interval
HIDE.                               SANISH : Header Identifier
MATR.                                 LIME : Rock Matrix for Neutron Porosity Corrections
FNUM.                                  1.0 : F-Numerator for Formation Factor Formula
FEXP.                                  2.0 : Exponent "m" for Formation Factor Formula
DFT .                                  OIL : Drilling Fluid Type
DFPH.                              -999.25 : Drilling Fluid pH
MCSS.                              Pressed : Mudcake Sample Source
MFSS.                                      : Mud Filtrate Sample Source
FD  .G/C3                              1.0 : Fluid Density
MSS .                          Active Tank : Mud Sample Source
OS1 .                                      : Other Services Line 1
OS2 .                                      : Other Services Line 2
OS3 .                                      : Other Services Line 3
OS4 .                                      : Other Services Line 4
OS5 .                                      : Other Services Line 5
R1  .                                      : Remarks Line 1
R2  .                                      : Remarks Line 2
R3  .                                      : Remarks Line 3
R4  .                                      : Remarks Line 4
R5  .                                      : Remarks Line 5
R6  .                                      : Remarks Line 6
R7  .                                      : Remarks Line 7
R8  . Thank you for choosing Schlumberger. : Remarks Line 8
TCS .                              00 30 h : Time Circulation Stopped
TLAB.                              21 12 h : Time Logging on Bottom
NMT .                             NOBARITE : HRDD Mud Type for Nuclear Devices
EPD .C3                             2052.0 : Elevation of Permanent Datum above Mean Sea Level
APD .F                                26.0 : Elevation of Depth Reference (LMF) above Permanent Datum
~Other -----------------------------------------------------
~ASCII -----------------------------------------------------
# ...
 9475.00000    0.02820    0.00010    0.00470    0.01020    0.01330    0.00120    0.00000    0.00000    0.00080 1548.85120    1.40430    0.00200    0.00350    0.00100    0.02540    2.12400  214.96470    0.00000    0.00000   32.40420    0.00000    3.39860   31.63590   31.91830  204.44000   28.28370    1.00900   30.06020    -999.25   32.27960    3.15580    -999.25    0.48500    0.00030    0.00000    0.00000   -0.02610    -999.25    0.00000    9.87540    -999.25    0.03020 4042.48240    -999.25    -999.25
 9475.50000    0.02260    0.00960    0.00900    0.00040    0.00370    0.00480    0.00000    0.00000    0.00060 1545.69490   -0.03800    0.00540    0.00330    0.00100    0.00940    2.30370  214.96470    0.00000    0.00000   30.85570    0.00000    3.53410   30.12420   30.65030  204.44720   27.76450    0.98100   30.47010    -999.25   31.18680    3.15320    -999.25    0.39080    0.00000    0.00030    0.00000   -0.02660    -999.25    0.00000    3.38990    -999.25    0.02800 4069.35180    -999.25    -999.25
 9476.00000    0.02220    0.00860    0.01120    0.00160    0.00080    0.00590    0.00010    0.00000    0.00030 1549.80860   -1.15250    0.00640    0.00320    0.00100    0.00880    1.80720  214.96470    0.00000    0.00000   29.80450    0.00000    3.38840   29.09790   27.32170  204.45440   25.48720    0.88830   29.76840    -999.25   28.50160    2.96630    -999.25    0.35600    0.00000    0.00050    0.00000   -0.02840    -999.25    0.00000    3.14370    -999.25    0.02860 4067.20390    -999.25    -999.25
 9476.50000    0.01970    0.00480    0.00970    0.00310    0.00220    0.00390    0.00170    0.00000    0.00030 1553.31210   -3.55120    0.00590    0.00340    0.00100    0.01120    1.86870  214.96470    0.00000    0.00000   28.86740    0.00000    3.59100   28.18300   27.41270  204.46160   24.62730    0.85650   27.03480    -999.25   27.15750    2.87680    -999.25    0.31160    0.00000    0.00040    0.00000   -0.02080    -999.25    0.00000    4.91850    -999.25    0.02570 4056.64920    -999.25    -999.25
 9477.00000    0.01420    0.00270    0.00280    0.00260    0.00600    0.00180    0.00290    0.00040    0.00060 1549.55220   -1.89160    0.00570    0.00370    0.00100    0.01440    0.98620  214.96470    0.00000    0.00000   28.68800    0.00000    3.46930   28.00790   26.91250  204.46880   23.14130    0.82480   27.77070    -999.25   26.41550    2.58660    -999.25    0.43260    0.00010    0.00000    0.00000   -0.01980    -999.25    0.00000   13.04840    -999.25    0.01990 4066.17550    -999.25    -999.25
 9477.50000    0.01540    0.00640    0.00170    0.00040    0.00690    0.00220    0.00060    0.00240    0.00040 1544.58630   -1.77020    0.00560    0.00370    0.00100    0.01280    1.33200  214.96470    0.00000    0.00000   30.30520    0.00000    3.52730   29.58670   29.62980  204.47600   24.91690    0.89250   29.06630    -999.25   28.31940    2.75870    -999.25    0.44570    0.00010    0.00000    0.00000   -0.02500    -999.25    0.00000    9.15460    -999.25    0.02100 4044.26810    -999.25    -999.25
 9478.00000    0.01560    0.00690    0.00140    0.00000    0.00720    0.00260    0.00000    0.00000    0.00150 1550.97910   -0.46430    0.00410    0.00350    0.00100    0.01130    1.26820  214.96470    0.00000    0.00000   30.12980    0.00000    3.52070   29.41550   28.96230  204.48320   25.51740    0.88890   31.68700    -999.25   29.18310    2.97210    -999.25    0.47520    0.00000    0.00000    0.00000   -0.02720    -999.25    0.00000    7.45010    -999.25    0.01960 4060.62520    -999.25    -999.25
 9478.50000    0.01450    0.00180    0.00330    0.00040    0.00900    0.00140    0.00000    0.00000    0.00100 1543.76510   -1.76260    0.00230    0.00340    0.00100    0.01170    0.41470  214.96470    0.00000    0.00000   28.31010    0.00000    3.58360   27.63900   27.48680  204.49040   22.82780    0.76570   27.22730    -999.25   26.92660    2.83190    -999.25    0.55700    0.00000    0.00000    0.00000   -0.02410    -999.25    0.00000   11.37460    -999.25    0.01680 4060.07420    -999.25    -999.25
 9479.00000    0.01410    0.00000    0.00100    0.00260    0.01040    0.00230    0.00000    0.00000    0.00110 1542.99480   -2.41890    0.00340    0.00350    0.00100    0.01640    0.37650  214.96470    0.00000    0.00000   23.97720    0.00000    3.53110   23.40880   22.90840  204.49760   17.72790    0.58510   24.01970    -999.25   21.53460    2.25480    -999.25    0.51180    0.00020    0.00000    0.00000   -0.02260    -999.25    0.00000   21.10590    -999.25    0.01740 4036.70920    -999.25    -999.25
 9479.50000    0.01370    0.00000    0.00010    0.00560    0.00790    0.00040    0.00230    0.00000    0.00110 1548.46280   -3.03050    0.00390    0.00370    0.00100    0.01740    1.31480  214.96470    0.00000    0.00000   21.21800    0.00000    3.48540   20.71490   19.94010  204.50480   14.00920    0.47630   19.03930    -999.25   17.87020    1.70030    -999.25    0.52310    0.00020    0.00000    0.00000   -0.02620    -999.25    0.00000   22.56590    -999.25    0.01750 4059.29640    -999.25    -999.25
 9480.00000    0.01400    0.00000    0.00000    0.00550    0.00860    0.00030    0.00070    0.00230    0.00000 1547.27320   -5.15860    0.00340    0.00370    0.00100    0.01750    1.12710  214.96470    0.00000    0.00000   19.98850    0.00000    3.63200   19.51470   17.45550  204.51200   13.15780    0.45250   19.14570    -999.25   16.66210    1.56700    -999.25    0.47320    0.00020    0.00000    0.00000   -0.03250    -999.25    0.00000   22.43520    -999.25    0.01750 4067.12520    -999.25    -999.25
 9480.50000    0.01600    0.00000    0.00000    0.00720    0.00870    0.00100    0.00170    0.00150    0.00000 1553.20500   -3.86930    0.00410    0.00370    0.00100    0.02010    1.37470  214.96470    0.00000    0.00000   21.47210    0.00000    3.61190   20.96310   19.22320  204.51920   15.03980    0.51480   20.29000    -999.25   18.47670    1.80500    -999.25    0.47040    0.00020    0.00000    0.00000   -0.03550    -999.25    0.00000   19.48830    -999.25    0.02010 4055.96290    -999.25    -999.25
 9481.00000    0.01330    0.00120    0.00040    0.00860    0.00300    0.00480    0.00420    0.00000    0.00000 1552.27810   -4.14760    0.00900    0.00370    0.00100    0.02070    2.79630  214.96470    0.00000    0.00000   22.41760    0.00000    3.54650   21.88610   19.64860  204.52640   16.40270    0.55510   23.46500    -999.25   19.91420    2.00610    -999.25    0.50840    0.00030    0.00000    0.00000   -0.03740    -999.25    0.00000   17.56480    -999.25    0.02230 4071.98140    -999.25    -999.25
 9481.50000    0.01330    0.00120    0.00040    0.00860    0.00300    0.00480    0.00420    0.00000    0.00000 1548.20890   -1.33260    0.00900    0.00370    0.00100    0.02070    3.75410  214.96470    0.00000    0.00000   25.72200    0.00000    3.55850   25.11220   23.53710  204.53360   18.34760    0.61600   21.92060    -999.25   21.94300    2.27250    -999.25    0.51280    0.00030    0.00000    0.00000   -0.03100    -999.25    0.00000   17.56480    -999.25    0.02230 4065.46290    -999.25    -999.25
 9482.00000    0.01560    0.00780    0.00750    0.00030    0.00000    0.00800    0.00520    0.00000    0.00000 1562.93680   -3.92400    0.01330    0.00370    0.00100    0.01360    2.62830  214.96470    0.00000    0.00000   27.10450    0.00000    3.55070   26.46190   25.24400  204.54080   21.01830    0.68460   29.98910    -999.25   24.27710    2.72660    -999.25    0.48410    0.00020    0.00140    0.00000   -0.01840    -999.25    0.00000    7.73490    -999.25    0.02890 4087.77780    -999.25    -999.25
 9482.50000    0.02540    0.01350    0.01180    0.00020    0.00000    0.00450    0.00620    0.00000    0.00000 1557.07070   -3.89120    0.01070    0.00370    0.00100    0.01090    1.37800  214.96470    0.00000    0.00000   31.30260    0.00000    3.51540   30.56050   27.63580  204.54800   24.03860    0.78790   27.48200    -999.25   27.24530    3.08960    -999.25    0.46230    0.00010    0.00300    0.00000   -0.00640    -999.25    0.00000    3.74070    -999.25    0.03610 4079.32080    -999.25    -999.25
