~Version ---------------------------------------------------
VERS     .                                                                                     2.0 : CWLS log ASCII Standard -VERSION 2.0
WRAP     .                                                                                      NO : One Line per depth step
PROD     .                                                                            Schlumberger : LAS Producer
PROG     .                                                                       DLIS to ASCII 2.3 : LAS Program name and version
CREA     .             2014/09/27 10:36                          :LAS Creation date {YYYY/MM/DD hh : mm}
DLIS_CREA. 2014-Sep-26 05:39                          :DLIS Creation date and time {YYYY-MMM-DD hh : mm}
SOURCE   .                                                    91826cdd-719c-42a6-af83-d6b9542bd142 : DLIS File Name
~Well ------------------------------------------------------
STRT.F                       8395.0 : START DEPTH
STOP.F                      10723.0 : STOP DEPTH
STEP.F                          0.5 : STEP
NULL.                       -999.25 : NULL VALUE
COMP.                               : COMPANY
WELL.                       Bakken2 : WELL
FLD .                               : FIELD
LOC .                               : LOCATION
CNTY.                               : COUNTY
STAT.                  NORTH DAKOTA : STATE
CTRY.                               : COUNTRY
SRVC.                  Schlumberger : SERVICE COMPANY
LATI.DEG                     : LATITUDE
LONG.DEG         -  : LONGITUDE
API .                    : API NUMBER
DATE.                     : LOG DATE
UWI .                  : UNIQUE WELL ID
~Curve Information -----------------------------------------
DEPT        .F     : DEPTH (BOREHOLE) {F12.4}
BFV         .CFCF  : Bound Fluid Volume {F11.4}
CBP1        .CFCF  : CMR Bin Porosity 1 {F11.4}
CBP2        .CFCF  : CMR Bin Porosity 2 {F11.4}
CBP3        .CFCF  : CMR Bin Porosity 3 {F11.4}
CBP4        .CFCF  : CMR Bin Porosity 4 {F11.4}
CBP5        .CFCF  : CMR Bin Porosity 5 {F11.4}
CBP6        .CFCF  : CMR Bin Porosity 6 {F11.4}
CBP7        .CFCF  : CMR Bin Porosity 7 {F11.4}
CBP8        .CFCF  : CMR Bin Porosity 8 {F11.4}
CDF         .LBF   : Calibrated Downhole Force {F11.4}
CFTC        .HZ    : Corrected Far Thermal Count Rate {F11.4}
CMFF        .CFCF  : CMR Free Fluid {F11.4}
CMFF_SIG    .CFCF  : Standard Deviation of CMR Free Fluid {F11.4}
CMR_PHI_CONV.      : CMR Porosity Conversion factor {F11.4}
CMRP_3MS    .CFCF  : CMR Porosity with T2 values greater than 3 ms {F11.4}
CNTC        .HZ    : Corrected Near Thermal Count Rate {F11.4}
CTEM        .DEGF  : Cartridge Temperature {F11.4}
DCAL        .IN    : Differential Caliper {F11.4}
DNPH        .CFCF  : Difference between Corrected Thermal Neutron Porosity and Uncorrected {F11.4}
ECGR        .GAPI  : Environmentally Corrected Gamma Ray {F11.4}
ED          .F     : East Departure {F11.4}
GDEV        .DEG   : HGNS Hole Deviation from Gravity {F11.4}
GR          .GAPI  : Gamma Ray {F11.4}
GR_EDTC     .GAPI  : Gamma Ray {F11.4}
GTEM        .DEGF  : Generalized Borehole Temperature {F11.4}
HCGR        .GAPI  : HNGS Computed Gamma Ray {F11.4}
HFK         .%     : HNGS Formation Potassium Concentration {F11.4}
HGR         .GAPI  : High Resolution Gamma Ray {F11.4}
HNPO        .CFCF  : High Resolution Enhanced Thermal Neutron Porosity in Selected Lithology {F11.4}
HSGR        .GAPI  : HNGS Standard Gamma-Ray {F11.4}
HTHO        .PPM   : HNGS Formation Thorium Concentration {F11.4}
HTNP        .CFCF  : High Resolution Thermal Neutron Porosity (Ratio Method) in Selected Lithology {F11.4}
HURA        .PPM   : HNGS Formation Uranium Concentration {F11.4}
KSDR        .MD    : SDR Permeability {F11.4}
KTIM        .MD    : Timur/Coates Permeability {F11.4}
ND          .F     : North Departure {F11.4}
NPHI        .CFCF  : Thermal Neutron Porosity (original Ratio Method) in Selected Lithology {F11.4}
NPOR        .CFCF  : Enhanced Thermal Neutron Porosity in Selected Lithology {F11.4}
STIT        .F     : Stuck Tool Indicator, Total {F11.4}
T2LM        .MS    : T2 Logarithmic Mean {F11.4}
T2LM_SIG    .MS    : Standard Deviation of T2 Logarithmic Mean {F11.4}
TCMR        .CFCF  : Total CMR Porosity {F11.4}
TENS        .LBF   : Cable Tension {F11.4}
TNPH        .CFCF  : Thermal Neutron Porosity (Ratio Method) in Selected Lithology {F11.4}
HTNP_SAN    .CFCF  : HiRes Thermal Neutron Porosity (matrix Sandstone) {F11.4}
~Params ----------------------------------------------------
CN  .        WHITING OIL & GAS CORPORATION : Company Name
WN  .                           JB 11-6TFH : Well Name
FN  .                               SANISH : Field Name
FL  .                  219' FNL & 948' FWL : Field Location
FL1 .                                 LOT4 : Field Location, Line 1
COUN.                            MOUNTRAIL : Rig Name
STAT.                         NORTH DAKOTA : State or Province
NATI.                                      : Nation
DATE.                           25/09/2014 : Tools Above Rotary Table Date
APIN.                         33-061-03238 : API Serial Number
SECT.                                    6 : Section
TOWN.                                 153N : Township
RANG.                                  92W : Range
DMF .                                   MR : Drilling Measured From (Name of Drilling Elevation Reference)
LMF .                                   MR : Logging Measured From (Name of Logging Elevation Reference)
PDAT.                                   NM : Permanent Datum
ENGI.                        AARON BAGWELL : Engineer s Name
WITN.                         JOHN SCHAFER : Witness s Name
LATI.                    48.092747 degrees : Latitude
LONG.                   -102.56534 degrees : Longitude
LUL .                            WILLISTON : Logging Unit Location
LUN .                                 2223 : Logging Unit Number
RUN .                                  TWO : Run Number
SON .                           CWSZ-00040 : Service Order Number
BHT .DEGF                            212.0 : Bottom Hole Temperature
BS  .IN                               8.75 : Bit Size
DFD .LB/G                             10.3 : Drilling Fluid Density
DFV .S                                63.0 : Drilling Fluid Viscosity
DFL .C3                                6.0 : Drilling Fluid Loss
RMFS.OHMM                          -999.25 : Resistivity of Mud Filtrate Sample
EKB .F                              2078.0 : Elevation of Kelly Bushing
EGL .F                              2052.0 : Elevation of Ground Level
BLI .F                             10712.0 : Bottom Log Interval
BSAL.PPM                               0.0 : Borehole Salinity
FLEV.F                                 8.0 : Depth of Drilling Fluid Level to LMF (Log Measured From)
MCST.DEGF                          -999.25 : Mudcake Sample Temperature
MFST.DEGF                          -999.25 : Mud Filtrate Sample Temperature
MRT .DEGF                            220.0 : Maximum Recorded Temperature
MST .DEGF                          -999.25 : Mud Sample Temperature
RMCS.OHMM                          -999.25 : Resistivity of Mud Cake Sample
RMS .OHMM                          -999.25 : Resistivity of Mud Sample
RW  .OHMM                              1.0 : Connate Water Resistivity
TDD .F                             10720.0 : Total Depth (Driller)
TDL .F                             10720.0 : Logger Total Depth
TLI .F                              8575.0 : Top Log Interval
HIDE.                               SANISH : Header Identifier
MATR.                                 LIME : Rock Matrix for Neutron Porosity Corrections
FNUM.                                  1.0 : F-Numerator for Formation Factor Formula
FEXP.                                  2.0 : Exponent "m" for Formation Factor Formula
DFT .                                  OIL : Drilling Fluid Type
DFPH.                              -999.25 : Drilling Fluid pH
MCSS.                              Pressed : Mudcake Sample Source
MFSS.                                      : Mud Filtrate Sample Source
FD  .G/C3                              1.0 : Fluid Density
MSS .                          Active Tank : Mud Sample Source
OS1 .                                      : Other Services Line 1
OS2 .                                      : Other Services Line 2
OS3 .                                      : Other Services Line 3
OS4 .                                      : Other Services Line 4
OS5 .                                      : Other Services Line 5
R1  .                                      : Remarks Line 1
R2  .                                      : Remarks Line 2
R3  .                                      : Remarks Line 3
R4  .                                      : Remarks Line 4
R5  .                                      : Remarks Line 5
R6  .                                      : Remarks Line 6
R7  .                                      : Remarks Line 7
R8  . Thank you for choosing Schlumberger. : Remarks Line 8
TCS .                              00 30 h : Time Circulation Stopped
TLAB.                              21 12 h : Time Logging on Bottom
NMT .                             NOBARITE : HRDD Mud Type for Nuclear Devices
EPD .C3                             2052.0 : Elevation of Permanent Datum above Mean Sea Level
APD .F                                26.0 : Elevation of Depth Reference (LMF) above Permanent Datum
~Other -----------------------------------------------------
~ASCII -----------------------------------------------------
# ...
 10099.00000    0.01380    0.01060    0.00260    0.00040    0.00020    0.00460    0.00000    0.00000    0.00160 1597.56630   -1.22790    0.00620    0.00380    0.00100    0.00680    1.90300  220.89410    0.00000    0.00000   31.47860    0.00000    3.72130   30.73230   30.47080  213.42560   27.82230    0.99420   31.47900    -999.25   31.69650    3.09550    -999.25    0.65850    0.00000    0.00000    0.00000   -0.03160    -999.25    0.00000    3.69120    -999.25    0.02000 4311.05570    -999.25    -999.25
 10099.50000    0.01500    0.00920    0.00190    0.00340    0.00050    0.00310    0.00000    0.00000    0.00200 1577.19420   -3.00500    0.00510    0.00380    0.00100    0.00900    2.49500  220.89410    0.00000    0.00000   26.76110    0.00000    3.80860   26.12660   28.12020  213.43280   25.47740    0.89830   26.18640    -999.25   28.95740    2.90510    -999.25    0.62340    0.00000    0.00000    0.00000   -0.02260    -999.25    0.00000    4.31320    -999.25    0.02010 4317.30370    -999.25    -999.25
 10100.00000    0.01300    0.00650    0.00000    0.00560    0.00080    0.00290    0.00020    0.00000    0.00250 1582.92500   -2.28920    0.00570    0.00390    0.00100    0.01210    0.92240  220.89410    0.00000    0.00000   23.32540    0.00000    3.70830   22.77240   24.49630  213.44000   21.92920    0.78480   20.63560    -999.25   24.97010    2.43270    -999.25    0.53750    0.00000    0.00000    0.00000   -0.02250    -999.25    0.00000    8.28670    -999.25    0.01870 4270.32130    -999.25    -999.25
 10100.50000    0.00760    0.00070    0.00000    0.00530    0.00160    0.00000    0.00180    0.00300    0.00000 1566.67630   -3.80390    0.00480    0.00380    0.00100    0.01170    2.00680  220.89410    0.00000    0.00000   20.89130    0.00000    3.68780   20.39600   19.00810  213.44720   19.11540    0.68650   21.45900    -999.25   21.76330    2.10650    -999.25    0.46520    0.00010    0.00000    0.00000   -0.02390    -999.25    0.00000   28.38060    -999.25    0.01240 4298.78560    -999.25    -999.25
 10101.00000    0.00680    0.00000    0.00000    0.00510    0.00170    0.00000    0.00230    0.00120    0.00000 1572.13750   -4.97720    0.00350    0.00360    0.00100    0.01030    1.65590  220.89410    0.00000    0.00000   20.92180    0.00000    3.58270   20.42580   17.56390  213.45440   16.74310    0.59370   19.12060    -999.25   19.37310    1.88950    -999.25    0.46740    0.00000    0.00000    0.00000   -0.03670    -999.25    0.00000   26.55500    -999.25    0.01030 4291.03560    -999.25    -999.25
 10101.50000    0.01970    0.00000    0.00010    0.01840    0.00120    0.00000    0.00180    0.00140    0.00000 1593.57790   -6.91190    0.00320    0.00360    0.00100    0.02280    2.81730  220.89410    0.00000    0.00000   20.46750    0.00000    3.66670   19.98230   17.27620  213.46160   16.36740    0.57840   20.70850    -999.25   19.30130    1.85850    -999.25    0.47850    0.00010    0.00010    0.00000   -0.03400    -999.25    0.00000   10.25430    -999.25    0.02290 4308.21440    -999.25    -999.25
 10102.00000    0.02690    0.00000    0.00180    0.02080    0.00440    0.00000    0.00190    0.00020    0.00060 1576.79220   -4.27850    0.00270    0.00360    0.00100    0.02780    2.87390  220.89410    0.00000    0.00000   19.94850    0.00000    3.83590   19.47550   17.77210  213.46880   15.79910    0.56150   20.07100    -999.25   19.21880    1.77570    -999.25    0.52080    0.00020    0.00010    0.00000   -0.02960    -999.25    0.00000    8.76470    -999.25    0.02960 4287.98140    -999.25    -999.25
 10102.50000    0.02690    0.00850    0.00730    0.00060    0.01050    0.00480    0.00000    0.00000    0.00080 1571.58130   -1.76310    0.00560    0.00370    0.00100    0.01670    3.52990  220.89410    0.00000    0.00000   20.70760    0.00000    3.76230   20.21670   18.64940  213.47600   16.01610    0.57070   17.62170    -999.25   19.82930    1.79110    -999.25    0.57570    0.00010    0.00050    0.00000   -0.01960    -999.25    0.00000    5.51900    -999.25    0.03260 4299.89450    -999.25    -999.25
 10103.00000    0.02140    0.01100    0.00240    0.00000    0.00800    0.00680    0.00000    0.00000    0.00160 1567.84390    1.53320    0.00840    0.00390    0.00100    0.01640    2.76080  220.89410    0.00000    0.00000   24.78990    0.00000    3.77050   24.20220   20.97760  213.48320   18.09900    0.67120   22.86770    -999.25   22.39850    1.87040    -999.25    0.63220    0.00020    0.00120    0.00000   -0.02450    -999.25    0.00000    6.99500    -999.25    0.02980 4274.01710    -999.25    -999.25
 10103.50000    0.00940    0.00140    0.00220    0.00000    0.00580    0.00530    0.00000    0.00000    0.00240 1576.64840    1.72040    0.00770    0.00400    0.00100    0.01360    3.28800  220.89410    0.00000    0.00000   30.37700    0.00000    3.67400   29.65690   26.54110  213.49040   22.27540    0.83210   32.13940    -999.25   27.34740    2.26680    -999.25    0.75210    0.00030    0.00000    0.00000   -0.02090    -999.25    0.00000   29.40480    -999.25    0.01720 4306.67240    -999.25    -999.25
 10104.00000    0.00820    0.00010    0.00000    0.00050    0.00760    0.00520    0.00050    0.00000    0.00060 1585.27870    2.73290    0.00620    0.00370    0.00100    0.01430    1.19500  220.89410    0.00000    0.00000   35.15040    0.00000    3.74430   34.31710   31.16840  213.49760   26.60830    0.98580   33.96740    -999.25   32.89220    2.75570    -999.25    0.93670    0.00020    0.00000    0.00000   -0.02310    -999.25    0.00000   34.03490    -999.25    0.01440 4277.33940    -999.25    -999.25
 10104.50000    0.01130    0.00010    0.00180    0.00120    0.00830    0.00690    0.00030    0.00000    0.00020 1570.58130    2.06970    0.00740    0.00360    0.00100    0.01690    1.13780  220.89410    0.00000    0.00000   35.67550    0.00000    3.75690   34.82970   33.18280  213.50480   29.22180    1.08900   36.85520    -999.25   36.60620    2.98850    -999.25    1.06980    0.00020    0.00000    0.00000   -0.01750    -999.25    0.00000   22.40820    -999.25    0.01870 4311.96530    -999.25    -999.25
 10105.00000    0.01490    0.00030    0.00670    0.00040    0.00740    0.00700    0.00000    0.00000    0.00160 1583.87700    0.31670    0.00860    0.00400    0.00100    0.01650    1.42340  220.89410    0.00000    0.00000   36.88990    0.00000    3.63860   36.01530   32.81920  213.51200   29.78500    1.11910   33.63770    -999.25   37.63070    2.99320    -999.25    1.10350    0.00040    0.00010    0.00000   -0.01910    -999.25    0.00000   17.29100    -999.25    0.02360 4298.36230    -999.25    -999.25
 10105.50000    0.01950    0.00450    0.01240    0.00020    0.00230    0.00570    0.00000    0.00000    0.00300 1562.47680   -0.79440    0.00870    0.00420    0.00100    0.01130    0.90130  220.89410    0.00000    0.00000   37.52120    0.00000    3.76940   36.63170   36.90780  213.51920   31.58990    1.18590   37.55700    -999.25   40.17620    3.18010    -999.25    1.22830    0.00020    0.00110    0.00000   -0.01590    -999.25    0.00000    7.79870    -999.25    0.02830 4286.24560    -999.25    -999.25
 10106.00000    0.03010    0.02000    0.00990    0.00000    0.00020    0.00460    0.00000    0.00000    0.00220 1594.39940   -0.66920    0.00680    0.00400    0.00100    0.00700   -0.11740  220.89410    0.00000    0.00000   43.31600    0.00000    3.76650   42.28910   41.38810  213.52640   33.75520    1.25240   38.65060    -999.25   43.72920    3.48470    -999.25    1.41000    0.00000    0.00090    0.00000   -0.01820    -999.25    0.00000    2.13930    -999.25    0.03690 4332.33350    -999.25    -999.25
 10106.50000    0.02870    0.02040    0.00740    0.00090    0.00000    0.00460    0.00060    0.00000    0.00150 1575.33510    0.65230    0.00670    0.00390    0.00100    0.00760   -0.23370  220.89410    0.00000    0.00000   46.97080    0.00000    3.82050   45.85720   45.01080  213.53360   35.25030    1.30910   50.49080    -999.25   45.98970    3.63200    -999.25    1.48050    0.00000    0.00080    0.00000    -999.25    -999.25    0.00000    2.05220    -999.25    0.03540 4296.21440    -999.25    -999.25
