~Version ---------------------------------------------------
VERS     .                                                                                     2.0 : CWLS log ASCII Standard -VERSION 2.0
WRAP     .                                                                                      NO : One Line per depth step
PROD     .                                                                            Schlumberger : LAS Producer
PROG     .                                                                       DLIS to ASCII 2.3 : LAS Program name and version
CREA     .             2014/09/27 10:36                          :LAS Creation date {YYYY/MM/DD hh : mm}
DLIS_CREA. 2014-Sep-26 05:39                          :DLIS Creation date and time {YYYY-MMM-DD hh : mm}
SOURCE   .                                                    91826cdd-719c-42a6-af83-d6b9542bd142 : DLIS File Name
~Well ------------------------------------------------------
STRT.F                       8395.0 : START DEPTH
STOP.F                      10723.0 : STOP DEPTH
STEP.F                          0.5 : STEP
NULL.                       -999.25 : NULL VALUE
COMP.                               : COMPANY
WELL.                       Bakken2 : WELL
FLD .                               : FIELD
LOC .                               : LOCATION
CNTY.                               : COUNTY
STAT.                  NORTH DAKOTA : STATE
CTRY.                               : COUNTRY
SRVC.                  Schlumberger : SERVICE COMPANY
LATI.DEG                     : LATITUDE
LONG.DEG         -  : LONGITUDE
API .                    : API NUMBER
DATE.                     : LOG DATE
UWI .                  : UNIQUE WELL ID
~Curve Information -----------------------------------------
DEPT        .F     : DEPTH (BOREHOLE) {F12.4}
BFV         .CFCF  : Bound Fluid Volume {F11.4}
CBP1        .CFCF  : CMR Bin Porosity 1 {F11.4}
CBP2        .CFCF  : CMR Bin Porosity 2 {F11.4}
CBP3        .CFCF  : CMR Bin Porosity 3 {F11.4}
CBP4        .CFCF  : CMR Bin Porosity 4 {F11.4}
CBP5        .CFCF  : CMR Bin Porosity 5 {F11.4}
CBP6        .CFCF  : CMR Bin Porosity 6 {F11.4}
CBP7        .CFCF  : CMR Bin Porosity 7 {F11.4}
CBP8        .CFCF  : CMR Bin Porosity 8 {F11.4}
CDF         .LBF   : Calibrated Downhole Force {F11.4}
CFTC        .HZ    : Corrected Far Thermal Count Rate {F11.4}
CMFF        .CFCF  : CMR Free Fluid {F11.4}
CMFF_SIG    .CFCF  : Standard Deviation of CMR Free Fluid {F11.4}
CMR_PHI_CONV.      : CMR Porosity Conversion factor {F11.4}
CMRP_3MS    .CFCF  : CMR Porosity with T2 values greater than 3 ms {F11.4}
CNTC        .HZ    : Corrected Near Thermal Count Rate {F11.4}
CTEM        .DEGF  : Cartridge Temperature {F11.4}
DCAL        .IN    : Differential Caliper {F11.4}
DNPH        .CFCF  : Difference between Corrected Thermal Neutron Porosity and Uncorrected {F11.4}
ECGR        .GAPI  : Environmentally Corrected Gamma Ray {F11.4}
ED          .F     : East Departure {F11.4}
GDEV        .DEG   : HGNS Hole Deviation from Gravity {F11.4}
GR          .GAPI  : Gamma Ray {F11.4}
GR_EDTC     .GAPI  : Gamma Ray {F11.4}
GTEM        .DEGF  : Generalized Borehole Temperature {F11.4}
HCGR        .GAPI  : HNGS Computed Gamma Ray {F11.4}
HFK         .%     : HNGS Formation Potassium Concentration {F11.4}
HGR         .GAPI  : High Resolution Gamma Ray {F11.4}
HNPO        .CFCF  : High Resolution Enhanced Thermal Neutron Porosity in Selected Lithology {F11.4}
HSGR        .GAPI  : HNGS Standard Gamma-Ray {F11.4}
HTHO        .PPM   : HNGS Formation Thorium Concentration {F11.4}
HTNP        .CFCF  : High Resolution Thermal Neutron Porosity (Ratio Method) in Selected Lithology {F11.4}
HURA        .PPM   : HNGS Formation Uranium Concentration {F11.4}
KSDR        .MD    : SDR Permeability {F11.4}
KTIM        .MD    : Timur/Coates Permeability {F11.4}
ND          .F     : North Departure {F11.4}
NPHI        .CFCF  : Thermal Neutron Porosity (original Ratio Method) in Selected Lithology {F11.4}
NPOR        .CFCF  : Enhanced Thermal Neutron Porosity in Selected Lithology {F11.4}
STIT        .F     : Stuck Tool Indicator, Total {F11.4}
T2LM        .MS    : T2 Logarithmic Mean {F11.4}
T2LM_SIG    .MS    : Standard Deviation of T2 Logarithmic Mean {F11.4}
TCMR        .CFCF  : Total CMR Porosity {F11.4}
TENS        .LBF   : Cable Tension {F11.4}
TNPH        .CFCF  : Thermal Neutron Porosity (Ratio Method) in Selected Lithology {F11.4}
HTNP_SAN    .CFCF  : HiRes Thermal Neutron Porosity (matrix Sandstone) {F11.4}
~Params ----------------------------------------------------
CN  .        WHITING OIL & GAS CORPORATION : Company Name
WN  .                           JB 11-6TFH : Well Name
FN  .                               SANISH : Field Name
FL  .                  219' FNL & 948' FWL : Field Location
FL1 .                                 LOT4 : Field Location, Line 1
COUN.                            MOUNTRAIL : Rig Name
STAT.                         NORTH DAKOTA : State or Province
NATI.                                      : Nation
DATE.                           25/09/2014 : Tools Above Rotary Table Date
APIN.                         33-061-03238 : API Serial Number
SECT.                                    6 : Section
TOWN.                                 153N : Township
RANG.                                  92W : Range
DMF .                                   MR : Drilling Measured From (Name of Drilling Elevation Reference)
LMF .                                   MR : Logging Measured From (Name of Logging Elevation Reference)
PDAT.                                   NM : Permanent Datum
ENGI.                        AARON BAGWELL : Engineer s Name
WITN.                         JOHN SCHAFER : Witness s Name
LATI.                    48.092747 degrees : Latitude
LONG.                   -102.56534 degrees : Longitude
LUL .                            WILLISTON : Logging Unit Location
LUN .                                 2223 : Logging Unit Number
RUN .                                  TWO : Run Number
SON .                           CWSZ-00040 : Service Order Number
BHT .DEGF                            212.0 : Bottom Hole Temperature
BS  .IN                               8.75 : Bit Size
DFD .LB/G                             10.3 : Drilling Fluid Density
DFV .S                                63.0 : Drilling Fluid Viscosity
DFL .C3                                6.0 : Drilling Fluid Loss
RMFS.OHMM                          -999.25 : Resistivity of Mud Filtrate Sample
EKB .F                              2078.0 : Elevation of Kelly Bushing
EGL .F                              2052.0 : Elevation of Ground Level
BLI .F                             10712.0 : Bottom Log Interval
BSAL.PPM                               0.0 : Borehole Salinity
FLEV.F                                 8.0 : Depth of Drilling Fluid Level to LMF (Log Measured From)
MCST.DEGF                          -999.25 : Mudcake Sample Temperature
MFST.DEGF                          -999.25 : Mud Filtrate Sample Temperature
MRT .DEGF                            220.0 : Maximum Recorded Temperature
MST .DEGF                          -999.25 : Mud Sample Temperature
RMCS.OHMM                          -999.25 : Resistivity of Mud Cake Sample
RMS .OHMM                          -999.25 : Resistivity of Mud Sample
RW  .OHMM                              1.0 : Connate Water Resistivity
TDD .F                             10720.0 : Total Depth (Driller)
TDL .F                             10720.0 : Logger Total Depth
TLI .F                              8575.0 : Top Log Interval
HIDE.                               SANISH : Header Identifier
MATR.                                 LIME : Rock Matrix for Neutron Porosity Corrections
FNUM.                                  1.0 : F-Numerator for Formation Factor Formula
FEXP.                                  2.0 : Exponent "m" for Formation Factor Formula
DFT .                                  OIL : Drilling Fluid Type
DFPH.                              -999.25 : Drilling Fluid pH
MCSS.                              Pressed : Mudcake Sample Source
MFSS.                                      : Mud Filtrate Sample Source
FD  .G/C3                              1.0 : Fluid Density
MSS .                          Active Tank : Mud Sample Source
OS1 .                                      : Other Services Line 1
OS2 .                                      : Other Services Line 2
OS3 .                                      : Other Services Line 3
OS4 .                                      : Other Services Line 4
OS5 .                                      : Other Services Line 5
R1  .                                      : Remarks Line 1
R2  .                                      : Remarks Line 2
R3  .                                      : Remarks Line 3
R4  .                                      : Remarks Line 4
R5  .                                      : Remarks Line 5
R6  .                                      : Remarks Line 6
R7  .                                      : Remarks Line 7
R8  . Thank you for choosing Schlumberger. : Remarks Line 8
TCS .                              00 30 h : Time Circulation Stopped
TLAB.                              21 12 h : Time Logging on Bottom
NMT .                             NOBARITE : HRDD Mud Type for Nuclear Devices
EPD .C3                             2052.0 : Elevation of Permanent Datum above Mean Sea Level
APD .F                                26.0 : Elevation of Depth Reference (LMF) above Permanent Datum
~Other -----------------------------------------------------
~ASCII -----------------------------------------------------
# ...
 10715.00000    0.02190    0.00900    0.00080    0.01040    0.00170    0.00020    0.00200    0.00000    0.00000 1252.11560   -9.64360    0.00220    0.00370    0.00100    0.01440   -3.42020  226.82350    0.00000    0.00000   20.60040    0.00000    4.10540   20.11200   21.24560  222.29600   15.14430    0.24110   20.42630    -999.25   15.58190    3.44100    -999.25    0.29290    0.00000    0.00000    0.00000   -0.03050    -999.25    1.25120    3.06150    -999.25    0.02410 4164.68120    -999.25    -999.25
 10715.50000    0.01300    0.00080    0.00220    0.00960    0.00040    0.00000    0.00020    0.00140    0.00000 1207.80110   -9.64360    0.00160    0.00390    0.00100    0.01160   -3.42020  226.82350    0.00000    0.00000   20.60040    0.00000    4.10540   20.11200   21.24560  222.30320   15.14430    0.24110   20.42630    -999.25   15.58190    3.44100    -999.25    0.29290    0.00000    0.00000    0.00000   -0.03050    -999.25    0.62560    6.56400    -999.25    0.01460 4108.17680    -999.25    -999.25
 10716.00000    0.01320    0.00020    0.00570    0.00710    0.00020    0.00000    0.00030    0.00080    0.00000 1162.83540   -9.64360    0.00100    0.00390    0.00100    0.00840   -3.42020  226.82350    0.00000    0.00000   20.60040    0.00000    4.10540   20.11200   21.24560  222.31040   15.14430    0.24110   20.42630    -999.25   15.58190    3.44100    -999.25    0.29290    0.00000    0.00000    0.00000   -0.03050    -999.25    0.00000    4.58970    -999.25    0.01430 4076.15140    -999.25    -999.25
 10716.50000    0.01250    0.00000    0.00450    0.00810    0.00000    0.00000    0.00000    0.00240    0.00030 1121.92760   -9.64360    0.00270    0.00380    0.00100    0.01070   -3.42020  226.82350    0.00000    0.00000   20.60040    0.00000    4.10540   20.11200   21.24560  222.31760   15.14430    0.24110   20.42630    -999.25   15.58190    3.44100    -999.25    0.29290    0.00000    0.00000    0.00000   -0.03050    -999.25    0.00000    8.82170    -999.25    0.01520 3996.97090    -999.25    -999.25
 10717.00000    0.01500    0.00000    0.00050    0.01280    0.00180    0.00000    0.00000    0.00000    0.00000 1075.27750   -9.64360    0.00000    0.00380    0.00100    0.01460   -3.42020  226.82350    0.00000    0.00000   20.60040    0.00000    4.10540   20.11200   21.24560  222.32480   15.14430    0.24110   20.42630    -999.25   15.58190    3.44100    -999.25    0.29290    0.00000    0.00000    0.00000   -0.03050    -999.25    0.00000    6.18910    -999.25    0.01500 3930.36770    -999.25    -999.25
 10717.50000    0.01380    0.00070    0.00000    0.00990    0.00320    0.00090    0.00140    0.00000    0.00000 1031.59830   -9.64360    0.00230    0.00380    0.00100    0.01540   -3.42020  226.82350    0.00000    0.00000   20.60040    0.00000    4.10540   20.11200   21.24560  222.33200   15.14430    0.24110   20.42630    -999.25   15.58190    3.44100    -999.25    0.29290    0.00000    0.00000    0.00000   -0.03050    -999.25    0.00000    9.51540    -999.25    0.01620 3909.54570    -999.25    -999.25
 10718.00000    0.01640    0.00680    0.00150    0.00160    0.00650    0.00170    0.00000    0.00000    0.00000  988.15540   -9.64360    0.00170    0.00380    0.00100    0.00980   -3.42020  226.82350    0.00000    0.00000   20.60040    0.00000    4.10540   20.11200   21.24560  222.33920   15.14430    0.24110   20.42630    -999.25   15.58190    3.44100    -999.25    0.29290    0.00000    0.00000    0.00000   -0.03050    -999.25    0.00000    3.88220    -999.25    0.01810 3829.93650    -999.25    -999.25
 10718.50000    0.01690    0.00220    0.01200    0.00280    0.00000    0.00000    0.00300    0.00000    0.00000  942.73760   -9.64360    0.00300    0.00330    0.00100    0.00580   -3.42020  226.82350    0.00000    0.00000   20.60040    0.00000    4.10540   20.11200   21.24560  222.34640   15.14430    0.24110   20.42630    -999.25   15.58190    3.44100    -999.25    0.29290    0.00000    0.00000    0.00000   -0.03050    -999.25    0.00000    3.62520    -999.25    0.01990 3788.76560    -999.25    -999.25
 10719.00000    0.01410    0.00060    0.01080    0.00270    0.00000    0.00000    0.00310    0.00120    0.00100  898.42280   -9.64360    0.00530    0.00400    0.00100    0.00800   -3.42020  226.82350    0.00000    0.00000   20.60040    0.00000    4.10540   20.11200   21.24560  222.35360   15.14430    0.24110   20.42630    -999.25   15.58190    3.44100    -999.25    0.29290    0.00000    0.00000    0.00000   -0.03050    -999.25    0.00000    8.38010    -999.25    0.01940 3735.72310    -999.25    -999.25
 10719.50000    0.01330    0.00300    0.00960    0.00070    0.00000    0.00040    0.00370    0.00000    0.00000  852.07890   -9.64360    0.00420    0.00340    0.00100    0.00490   -3.42020  226.82350    0.00000    0.00000   20.60040    0.00000    4.10540   20.11200   21.24560  222.36080   15.14430    0.24110   20.42630    -999.25   15.58190    3.44100    -999.25    0.29290    0.00000    0.00000    0.00000   -0.03050    -999.25    0.00000    4.31750    -999.25    0.01750 3670.16140    -999.25    -999.25
 10720.00000    0.02850    0.01700    0.01160    0.00000    0.00000    0.00000    0.00370    0.00070    0.00140  805.29640   -9.64360    0.00580    0.00400    0.00100    0.00580   -3.42020  226.82350    0.00000    0.00000   20.60040    0.00000    4.10540   20.11200   21.24560  222.36800   15.14430    0.24110   20.42630    -999.25   15.58190    3.44100    -999.25    0.29290    0.00000    0.00060    0.00000   -0.03050    -999.25    0.00000    2.38000    -999.25    0.03440 3628.91920    -999.25    -999.25
 10720.50000    0.02850    0.01700    0.01160    0.00000    0.00000    0.00000    0.00370    0.00070    0.00140  762.11540   -9.64360    0.00580    0.00400    0.00100    0.00580   -3.42020  226.82350    0.00000    0.00000   20.60040    0.00000    4.10540   20.11200   21.24560  222.37520   15.14430    0.24110   20.42630    -999.25   15.58190    3.44100    -999.25    0.29290    0.00000    0.00060    0.00000   -0.03050    -999.25    0.00000    2.38000    -999.25    0.03440 3580.96830    -999.25    -999.25
 10721.00000    0.02850    0.01700    0.01160    0.00000    0.00000    0.00000    0.00370    0.00070    0.00140  738.54310   -9.64360    0.00580    0.00400    0.00100    0.00580   -3.42020  226.82350    0.00000    0.00000   20.60040    0.00000    4.10540   20.11200   21.24560  222.38240   15.14430    0.24110   20.42630    -999.25   15.58190    3.44100    -999.25    0.29290    0.00000    0.00060    0.00000   -0.03050    -999.25    0.00000    2.38000    -999.25    0.03440 3494.93550    -999.25    -999.25
 10721.50000    0.02850    0.01700    0.01160    0.00000    0.00000    0.00000    0.00370    0.00070    0.00140  738.16620   -9.64360    0.00580    0.00400    0.00100    0.00580   -3.42020  226.82350    0.00000    0.00000   20.60040    0.00000    4.10540   20.11200   21.24560  222.38960   15.14430    0.24110   20.42630    -999.25   15.58190    3.44100    -999.25    0.29290    0.00000    0.00060    0.00000   -0.03050    -999.25    0.00000    2.38000    -999.25    0.03440 3466.87940    -999.25    -999.25
 10722.00000    0.02850    0.01700    0.01160    0.00000    0.00000    0.00000    0.00370    0.00070    0.00140  736.56880   -9.64360    0.00580    0.00400    0.00100    0.00580   -3.42020  226.82350    0.00000    0.00000   20.60040    0.00000    4.10540   20.11200   21.24560  222.39680   15.14430    0.24110   20.42630    -999.25   15.58190    3.44100    -999.25    0.29290    0.00000    0.00060    0.00000   -0.03050    -999.25    0.00000    2.38000    -999.25    0.03440 3278.63890    -999.25    -999.25
 10722.50000    0.02850    0.01700    0.01160    0.00000    0.00000    0.00000    0.00370    0.00070    0.00140  735.93840   -9.64360    0.00580    0.00400    0.00100    0.00580   -3.42020  226.82350    0.00000    0.00000   20.60040    0.00000    4.10540   20.11200   21.24560  222.40400   15.14430    0.24110   20.42630    -999.25   15.58190    3.44100    -999.25    0.29290    0.00000    0.00060    0.00000   -0.03050    -999.25    0.00000    2.38000    -999.25    0.03440 3172.71800    -999.25    -999.25
