~Version ---------------------------------------------------
VERS     .                                                                                     2.0 : CWLS log ASCII Standard -VERSION 2.0
WRAP     .                                                                                      NO : One Line per depth step
PROD     .                                                                            Schlumberger : LAS Producer
PROG     .                                                                       DLIS to ASCII 2.3 : LAS Program name and version
CREA     .             2014/09/27 10:36                          :LAS Creation date {YYYY/MM/DD hh : mm}
DLIS_CREA. 2014-Sep-26 05:39                          :DLIS Creation date and time {YYYY-MMM-DD hh : mm}
SOURCE   .                                                    91826cdd-719c-42a6-af83-d6b9542bd142 : DLIS File Name
~Well ------------------------------------------------------
STRT.F                       8395.0 : START DEPTH
STOP.F                      10723.0 : STOP DEPTH
STEP.F                          0.5 : STEP
NULL.                       -999.25 : NULL VALUE
COMP.                               : COMPANY
WELL.                       Bakken2 : WELL
FLD .                               : FIELD
LOC .                               : LOCATION
CNTY.                               : COUNTY
STAT.                  NORTH DAKOTA : STATE
CTRY.                               : COUNTRY
SRVC.                  Schlumberger : SERVICE COMPANY
LATI.DEG                     : LATITUDE
LONG.DEG         -  : LONGITUDE
API .                    : API NUMBER
DATE.                     : LOG DATE
UWI .                  : UNIQUE WELL ID
~Curve Information -----------------------------------------
DEPT        .F     : DEPTH (BOREHOLE) {F12.4}
BFV         .CFCF  : Bound Fluid Volume {F11.4}
CBP1        .CFCF  : CMR Bin Porosity 1 {F11.4}
CBP2        .CFCF  : CMR Bin Porosity 2 {F11.4}
CBP3        .CFCF  : CMR Bin Porosity 3 {F11.4}
CBP4        .CFCF  : CMR Bin Porosity 4 {F11.4}
CBP5        .CFCF  : CMR Bin Porosity 5 {F11.4}
CBP6        .CFCF  : CMR Bin Porosity 6 {F11.4}
CBP7        .CFCF  : CMR Bin Porosity 7 {F11.4}
CBP8        .CFCF  : CMR Bin Porosity 8 {F11.4}
CDF         .LBF   : Calibrated Downhole Force {F11.4}
CFTC        .HZ    : Corrected Far Thermal Count Rate {F11.4}
CMFF        .CFCF  : CMR Free Fluid {F11.4}
CMFF_SIG    .CFCF  : Standard Deviation of CMR Free Fluid {F11.4}
CMR_PHI_CONV.      : CMR Porosity Conversion factor {F11.4}
CMRP_3MS    .CFCF  : CMR Porosity with T2 values greater than 3 ms {F11.4}
CNTC        .HZ    : Corrected Near Thermal Count Rate {F11.4}
CTEM        .DEGF  : Cartridge Temperature {F11.4}
DCAL        .IN    : Differential Caliper {F11.4}
DNPH        .CFCF  : Difference between Corrected Thermal Neutron Porosity and Uncorrected {F11.4}
ECGR        .GAPI  : Environmentally Corrected Gamma Ray {F11.4}
ED          .F     : East Departure {F11.4}
GDEV        .DEG   : HGNS Hole Deviation from Gravity {F11.4}
GR          .GAPI  : Gamma Ray {F11.4}
GR_EDTC     .GAPI  : Gamma Ray {F11.4}
GTEM        .DEGF  : Generalized Borehole Temperature {F11.4}
HCGR        .GAPI  : HNGS Computed Gamma Ray {F11.4}
HFK         .%     : HNGS Formation Potassium Concentration {F11.4}
HGR         .GAPI  : High Resolution Gamma Ray {F11.4}
HNPO        .CFCF  : High Resolution Enhanced Thermal Neutron Porosity in Selected Lithology {F11.4}
HSGR        .GAPI  : HNGS Standard Gamma-Ray {F11.4}
HTHO        .PPM   : HNGS Formation Thorium Concentration {F11.4}
HTNP        .CFCF  : High Resolution Thermal Neutron Porosity (Ratio Method) in Selected Lithology {F11.4}
HURA        .PPM   : HNGS Formation Uranium Concentration {F11.4}
KSDR        .MD    : SDR Permeability {F11.4}
KTIM        .MD    : Timur/Coates Permeability {F11.4}
ND          .F     : North Departure {F11.4}
NPHI        .CFCF  : Thermal Neutron Porosity (original Ratio Method) in Selected Lithology {F11.4}
NPOR        .CFCF  : Enhanced Thermal Neutron Porosity in Selected Lithology {F11.4}
STIT        .F     : Stuck Tool Indicator, Total {F11.4}
T2LM        .MS    : T2 Logarithmic Mean {F11.4}
T2LM_SIG    .MS    : Standard Deviation of T2 Logarithmic Mean {F11.4}
TCMR        .CFCF  : Total CMR Porosity {F11.4}
TENS        .LBF   : Cable Tension {F11.4}
TNPH        .CFCF  : Thermal Neutron Porosity (Ratio Method) in Selected Lithology {F11.4}
HTNP_SAN    .CFCF  : HiRes Thermal Neutron Porosity (matrix Sandstone) {F11.4}
~Params ----------------------------------------------------
CN  .        WHITING OIL & GAS CORPORATION : Company Name
WN  .                           JB 11-6TFH : Well Name
FN  .                               SANISH : Field Name
FL  .                  219' FNL & 948' FWL : Field Location
FL1 .                                 LOT4 : Field Location, Line 1
COUN.                            MOUNTRAIL : Rig Name
STAT.                         NORTH DAKOTA : State or Province
NATI.                                      : Nation
DATE.                           25/09/2014 : Tools Above Rotary Table Date
APIN.                         33-061-03238 : API Serial Number
SECT.                                    6 : Section
TOWN.                                 153N : Township
RANG.                                  92W : Range
DMF .                                   MR : Drilling Measured From (Name of Drilling Elevation Reference)
LMF .                                   MR : Logging Measured From (Name of Logging Elevation Reference)
PDAT.                                   NM : Permanent Datum
ENGI.                        AARON BAGWELL : Engineer s Name
WITN.                         JOHN SCHAFER : Witness s Name
LATI.                    48.092747 degrees : Latitude
LONG.                   -102.56534 degrees : Longitude
LUL .                            WILLISTON : Logging Unit Location
LUN .                                 2223 : Logging Unit Number
RUN .                                  TWO : Run Number
SON .                           CWSZ-00040 : Service Order Number
BHT .DEGF                            212.0 : Bottom Hole Temperature
BS  .IN                               8.75 : Bit Size
DFD .LB/G                             10.3 : Drilling Fluid Density
DFV .S                                63.0 : Drilling Fluid Viscosity
DFL .C3                                6.0 : Drilling Fluid Loss
RMFS.OHMM                          -999.25 : Resistivity of Mud Filtrate Sample
EKB .F                              2078.0 : Elevation of Kelly Bushing
EGL .F                              2052.0 : Elevation of Ground Level
BLI .F                             10712.0 : Bottom Log Interval
BSAL.PPM                               0.0 : Borehole Salinity
FLEV.F                                 8.0 : Depth of Drilling Fluid Level to LMF (Log Measured From)
MCST.DEGF                          -999.25 : Mudcake Sample Temperature
MFST.DEGF                          -999.25 : Mud Filtrate Sample Temperature
MRT .DEGF                            220.0 : Maximum Recorded Temperature
MST .DEGF                          -999.25 : Mud Sample Temperature
RMCS.OHMM                          -999.25 : Resistivity of Mud Cake Sample
RMS .OHMM                          -999.25 : Resistivity of Mud Sample
RW  .OHMM                              1.0 : Connate Water Resistivity
TDD .F                             10720.0 : Total Depth (Driller)
TDL .F                             10720.0 : Logger Total Depth
TLI .F                              8575.0 : Top Log Interval
HIDE.                               SANISH : Header Identifier
MATR.                                 LIME : Rock Matrix for Neutron Porosity Corrections
FNUM.                                  1.0 : F-Numerator for Formation Factor Formula
FEXP.                                  2.0 : Exponent "m" for Formation Factor Formula
DFT .                                  OIL : Drilling Fluid Type
DFPH.                              -999.25 : Drilling Fluid pH
MCSS.                              Pressed : Mudcake Sample Source
MFSS.                                      : Mud Filtrate Sample Source
FD  .G/C3                              1.0 : Fluid Density
MSS .                          Active Tank : Mud Sample Source
OS1 .                                      : Other Services Line 1
OS2 .                                      : Other Services Line 2
OS3 .                                      : Other Services Line 3
OS4 .                                      : Other Services Line 4
OS5 .                                      : Other Services Line 5
R1  .                                      : Remarks Line 1
R2  .                                      : Remarks Line 2
R3  .                                      : Remarks Line 3
R4  .                                      : Remarks Line 4
R5  .                                      : Remarks Line 5
R6  .                                      : Remarks Line 6
R7  .                                      : Remarks Line 7
R8  . Thank you for choosing Schlumberger. : Remarks Line 8
TCS .                              00 30 h : Time Circulation Stopped
TLAB.                              21 12 h : Time Logging on Bottom
NMT .                             NOBARITE : HRDD Mud Type for Nuclear Devices
EPD .C3                             2052.0 : Elevation of Permanent Datum above Mean Sea Level
APD .F                                26.0 : Elevation of Depth Reference (LMF) above Permanent Datum
~Other -----------------------------------------------------
~ASCII -----------------------------------------------------
# ...
 9323.00000    0.02500    0.00480    0.00010    0.01220    0.00800    0.00000    0.00150    0.00380    0.00020 1582.55790   -1.94470    0.00540    0.00390    0.00100    0.02550    1.23350  212.98820    0.00000    0.00000   25.46640    0.00000    3.65210   24.86270   24.29650  202.25120    9.74570    0.31740   25.71680    -999.25   22.99940    1.26490    -999.25    1.75310    0.00040    0.00040    0.00000   -0.03030    -999.25    0.00000   10.40000    -999.25    0.03050 4032.40670    -999.25    -999.25
 9323.50000    0.02430    0.00020    0.00100    0.01740    0.00570    0.00000    0.00190    0.00180    0.00120 1567.64660   -2.81470    0.00490    0.00380    0.00100    0.02800    1.04540  212.98820    0.00000    0.00000   25.82720    0.00000    3.66040   25.21490   25.29250  202.25840   10.05540    0.31980   25.97650    -999.25   23.14540    1.35000    -999.25    1.74140    0.00050    0.00030    0.00000   -0.03340    -999.25    0.00000   13.64260    -999.25    0.02920 4070.71440    -999.25    -999.25
 9324.00000    0.02500    0.00000    0.00000    0.00980    0.01520    0.00000    0.00020    0.00320    0.00010 1585.31080   -3.61150    0.00340    0.00370    0.00100    0.02840    1.10330  212.98820    0.00000    0.00000   25.27370    0.00000    3.70660   24.67450   27.55040  202.26560   10.17240    0.32400   23.91500    -999.25   24.17020    1.36320    -999.25    1.86810    0.00080    0.00010    0.00000   -0.02120    -999.25    0.00000   17.57640    -999.25    0.02840 4059.39650    -999.25    -999.25
 9324.50000    0.02150    0.00230    0.00000    0.01130    0.00780    0.00000    0.00530    0.00250    0.00000 1574.30810   -4.97780    0.00770    0.00400    0.00100    0.02690    0.77170  212.98820    0.00000    0.00000   24.01970    0.00000    3.74420   23.45030   25.40270  202.27280   10.22120    0.32280   24.15830    -999.25   23.15110    1.38570    -999.25    1.68510    0.00080    0.00090    0.00000   -0.02320    -999.25    0.00000   16.80870    -999.25    0.02920 4041.72410    -999.25    -999.25
 9325.00000    0.01830    0.01040    0.00070    0.00550    0.00160    0.00250    0.00870    0.00200    0.00130 1550.17300   -3.49870    0.01440    0.00410    0.00100    0.02160    1.81810  212.98820    0.00000    0.00000   20.71260    0.00000    3.67890   20.22160   21.82590  202.28000    8.77720    0.28050   22.31250    -999.25   19.87970    1.17060    -999.25    1.43570    0.00070    0.00460    0.00000   -0.02350    -999.25    0.00000   12.73700    -999.25    0.03270 4022.00020    -999.25    -999.25
 9325.50000    0.01530    0.01230    0.00310    0.00000    0.00000    0.00610    0.00980    0.00120    0.00320 1549.11850   -2.46450    0.02020    0.00420    0.00100    0.02020    1.22190  212.98820    0.00000    0.00000   16.72490    0.00000    3.64260   16.32840   16.37590  202.28720    7.20260    0.22720   14.23700    -999.25   15.72830    0.97770    -999.25    1.09860    0.00180    0.00970    0.00000   -0.02130    -999.25    0.00000   16.55550    -999.25    0.03560 4017.22830    -999.25    -999.25
 9326.00000    0.01400    0.01240    0.00040    0.00000    0.00120    0.01130    0.00440    0.00650    0.00260 1560.69840   -0.53930    0.02480    0.00410    0.00100    0.02600    0.77470  212.98820    0.00000    0.00000   13.89260    0.00000    3.76380   13.56330   14.68230  202.29440    6.06650    0.19450   12.39590    -999.25   13.34570    0.80540    -999.25    0.93830    0.00510    0.02010    0.00000   -0.01740    -999.25    0.00000   23.70320    -999.25    0.03880 4036.48270    -999.25    -999.25
 9326.50000    0.03010    0.01770    0.00020    0.00070    0.01160    0.00220    0.00560    0.01100    0.00000 1548.32730   -0.42410    0.01880    0.00400    0.00100    0.03100    0.54200  212.98820    0.00000    0.00000   14.77180    0.00000    3.52210   14.42160   15.10450  202.30160    6.74710    0.22550   14.04150    -999.25   14.01260    0.84200    -999.25    0.92770    0.00430    0.02230    0.00000   -0.01770    -999.25    0.00000   13.64090    -999.25    0.04890 4011.34550    -999.25    -999.25
 9327.00000    0.03560    0.01900    0.00010    0.00570    0.01080    0.00000    0.00460    0.01260    0.00000 1550.04870    0.03780    0.01720    0.00410    0.00100    0.03370    1.72190  212.98820    0.00000    0.00000   16.60100    0.00000    3.52280   16.20740   16.55450  202.30880    7.98630    0.26050   16.83920    -999.25   15.00590    1.03400    -999.25    0.89530    0.00390    0.01810    0.00000   -0.02550    -999.25    0.00000   11.24570    -999.25    0.05280 4008.52730    -999.25    -999.25
 9327.50000    0.03350    0.01790    0.00030    0.00490    0.01030    0.00000    0.00330    0.01290    0.00120 1539.27700   -3.60010    0.01740    0.00410    0.00100    0.03260    0.94140  212.98820    0.00000    0.00000   15.57970    0.00000    3.62010   15.21040   16.10380  202.31600    8.57300    0.28510   17.85300    -999.25   14.55220    1.07830    -999.25    0.74220    0.00460    0.01800    0.00000   -0.03010    -999.25    0.00000   13.08610    -999.25    0.05080 4015.61110    -999.25    -999.25
 9328.00000    0.02580    0.01600    0.00050    0.00260    0.00670    0.00000    0.00570    0.01100    0.00540 1533.41020   -4.29010    0.02210    0.00410    0.00100    0.03150    1.47340  212.98820    0.00000    0.00000   13.12430    0.00000    3.68860   12.81320   13.58300  202.32320    7.68620    0.24790   11.01950    -999.25   12.35630    1.01180    -999.25    0.58490    0.01150    0.03880    0.00000   -0.02780    -999.25    0.00000   23.26810    -999.25    0.04800 4000.19340    -999.25    -999.25
 9328.50000    0.01480    0.00850    0.00000    0.00280    0.00340    0.00010    0.00930    0.00940    0.00930 1563.21180   -4.99140    0.02810    0.00410    0.00100    0.03430    1.60360  212.98820    0.00000    0.00000   10.57250    0.00000    3.58970   10.32180   10.62000  202.33040    6.30490    0.19660    9.65130    -999.25    9.98310    0.86950    -999.25    0.45330    0.07470    0.04390    0.00000   -0.03220    -999.25    0.00000   74.46040    -999.25    0.04280 4033.78960    -999.25    -999.25
 9329.00000    0.01230    0.00380    0.00000    0.00490    0.00360    0.00010    0.00860    0.01090    0.00920 1556.64270   -3.56090    0.02880    0.00410    0.00100    0.03730    2.30140  212.98820    0.00000    0.00000    9.67380    0.00000    3.48490    9.44440    9.15900  202.33760    4.89230    0.16750   10.29940    -999.25    8.31860    0.58700    -999.25    0.41790    0.17360    0.03210    0.00000   -0.03090    -999.25    0.00000  123.03090    -999.25    0.04120 4048.05350    -999.25    -999.25
 9329.50000    0.01260    0.00350    0.00000    0.00520    0.00390    0.00020    0.00720    0.01110    0.00680 1565.18230   -5.08550    0.02530    0.00410    0.00100    0.03440    2.51860  212.98820    0.00000    0.00000   10.32480    0.00000    3.48310   10.08000    7.90690  202.34480    4.53940    0.15370    8.38590    -999.25    7.78410    0.55480    -999.25    0.39260    0.08880    0.01650    0.00000   -0.02930    -999.25    0.00000  103.75610    -999.25    0.03790 4026.08790    -999.25    -999.25
 9330.00000    0.00880    0.00700    0.00000    0.00050    0.00130    0.00140    0.00830    0.00690    0.00460 1540.54090   -4.40130    0.02130    0.00420    0.00100    0.02300    2.31080  212.98820    0.00000    0.00000   12.12970    0.00000    3.60540   11.84220   10.19430  202.35200    5.28070    0.17100   11.52080    -999.25    8.86930    0.69120    -999.25    0.44500    0.01310    0.00210    0.00000   -0.02330    -999.25    0.00000   63.42950    -999.25    0.03000 4013.26780    -999.25    -999.25
 9330.50000    0.00460    0.00300    0.00000    0.00060    0.00100    0.00190    0.00970    0.00350    0.00160 1541.15390   -3.74270    0.01670    0.00410    0.00100    0.01830    1.30200  212.98820    0.00000    0.00000   16.17850    0.00000    3.64280   15.79500   12.85620  202.35920    7.39590    0.24400   15.58600    -999.25   12.22970    0.94140    -999.25    0.60280    0.00490    0.00000    0.00000   -0.02150    -999.25    0.00000   77.21030    -999.25    0.02130 4019.19650    -999.25    -999.25
