~Version ---------------------------------------------------
VERS     .                                                                                     2.0 : CWLS log ASCII Standard -VERSION 2.0
WRAP     .                                                                                      NO : One Line per depth step
PROD     .                                                                            Schlumberger : LAS Producer
PROG     .                                                                       DLIS to ASCII 2.3 : LAS Program name and version
CREA     .             2014/09/27 10:36                          :LAS Creation date {YYYY/MM/DD hh : mm}
DLIS_CREA. 2014-Sep-26 05:39                          :DLIS Creation date and time {YYYY-MMM-DD hh : mm}
SOURCE   .                                                    91826cdd-719c-42a6-af83-d6b9542bd142 : DLIS File Name
~Well ------------------------------------------------------
STRT.F                       8395.0 : START DEPTH
STOP.F                      10723.0 : STOP DEPTH
STEP.F                          0.5 : STEP
NULL.                       -999.25 : NULL VALUE
COMP.                               : COMPANY
WELL.                       Bakken2 : WELL
FLD .                               : FIELD
LOC .                               : LOCATION
CNTY.                               : COUNTY
STAT.                  NORTH DAKOTA : STATE
CTRY.                               : COUNTRY
SRVC.                  Schlumberger : SERVICE COMPANY
LATI.DEG                     : LATITUDE
LONG.DEG         -  : LONGITUDE
API .                    : API NUMBER
DATE.                     : LOG DATE
UWI .                  : UNIQUE WELL ID
~Curve Information -----------------------------------------
DEPT        .F     : DEPTH (BOREHOLE) {F12.4}
BFV         .CFCF  : Bound Fluid Volume {F11.4}
CBP1        .CFCF  : CMR Bin Porosity 1 {F11.4}
CBP2        .CFCF  : CMR Bin Porosity 2 {F11.4}
CBP3        .CFCF  : CMR Bin Porosity 3 {F11.4}
CBP4        .CFCF  : CMR Bin Porosity 4 {F11.4}
CBP5        .CFCF  : CMR Bin Porosity 5 {F11.4}
CBP6        .CFCF  : CMR Bin Porosity 6 {F11.4}
CBP7        .CFCF  : CMR Bin Porosity 7 {F11.4}
CBP8        .CFCF  : CMR Bin Porosity 8 {F11.4}
CDF         .LBF   : Calibrated Downhole Force {F11.4}
CFTC        .HZ    : Corrected Far Thermal Count Rate {F11.4}
CMFF        .CFCF  : CMR Free Fluid {F11.4}
CMFF_SIG    .CFCF  : Standard Deviation of CMR Free Fluid {F11.4}
CMR_PHI_CONV.      : CMR Porosity Conversion factor {F11.4}
CMRP_3MS    .CFCF  : CMR Porosity with T2 values greater than 3 ms {F11.4}
CNTC        .HZ    : Corrected Near Thermal Count Rate {F11.4}
CTEM        .DEGF  : Cartridge Temperature {F11.4}
DCAL        .IN    : Differential Caliper {F11.4}
DNPH        .CFCF  : Difference between Corrected Thermal Neutron Porosity and Uncorrected {F11.4}
ECGR        .GAPI  : Environmentally Corrected Gamma Ray {F11.4}
ED          .F     : East Departure {F11.4}
GDEV        .DEG   : HGNS Hole Deviation from Gravity {F11.4}
GR          .GAPI  : Gamma Ray {F11.4}
GR_EDTC     .GAPI  : Gamma Ray {F11.4}
GTEM        .DEGF  : Generalized Borehole Temperature {F11.4}
HCGR        .GAPI  : HNGS Computed Gamma Ray {F11.4}
HFK         .%     : HNGS Formation Potassium Concentration {F11.4}
HGR         .GAPI  : High Resolution Gamma Ray {F11.4}
HNPO        .CFCF  : High Resolution Enhanced Thermal Neutron Porosity in Selected Lithology {F11.4}
HSGR        .GAPI  : HNGS Standard Gamma-Ray {F11.4}
HTHO        .PPM   : HNGS Formation Thorium Concentration {F11.4}
HTNP        .CFCF  : High Resolution Thermal Neutron Porosity (Ratio Method) in Selected Lithology {F11.4}
HURA        .PPM   : HNGS Formation Uranium Concentration {F11.4}
KSDR        .MD    : SDR Permeability {F11.4}
KTIM        .MD    : Timur/Coates Permeability {F11.4}
ND          .F     : North Departure {F11.4}
NPHI        .CFCF  : Thermal Neutron Porosity (original Ratio Method) in Selected Lithology {F11.4}
NPOR        .CFCF  : Enhanced Thermal Neutron Porosity in Selected Lithology {F11.4}
STIT        .F     : Stuck Tool Indicator, Total {F11.4}
T2LM        .MS    : T2 Logarithmic Mean {F11.4}
T2LM_SIG    .MS    : Standard Deviation of T2 Logarithmic Mean {F11.4}
TCMR        .CFCF  : Total CMR Porosity {F11.4}
TENS        .LBF   : Cable Tension {F11.4}
TNPH        .CFCF  : Thermal Neutron Porosity (Ratio Method) in Selected Lithology {F11.4}
HTNP_SAN    .CFCF  : HiRes Thermal Neutron Porosity (matrix Sandstone) {F11.4}
~Params ----------------------------------------------------
CN  .        WHITING OIL & GAS CORPORATION : Company Name
WN  .                           JB 11-6TFH : Well Name
FN  .                               SANISH : Field Name
FL  .                  219' FNL & 948' FWL : Field Location
FL1 .                                 LOT4 : Field Location, Line 1
COUN.                            MOUNTRAIL : Rig Name
STAT.                         NORTH DAKOTA : State or Province
NATI.                                      : Nation
DATE.                           25/09/2014 : Tools Above Rotary Table Date
APIN.                         33-061-03238 : API Serial Number
SECT.                                    6 : Section
TOWN.                                 153N : Township
RANG.                                  92W : Range
DMF .                                   MR : Drilling Measured From (Name of Drilling Elevation Reference)
LMF .                                   MR : Logging Measured From (Name of Logging Elevation Reference)
PDAT.                                   NM : Permanent Datum
ENGI.                        AARON BAGWELL : Engineer s Name
WITN.                         JOHN SCHAFER : Witness s Name
LATI.                    48.092747 degrees : Latitude
LONG.                   -102.56534 degrees : Longitude
LUL .                            WILLISTON : Logging Unit Location
LUN .                                 2223 : Logging Unit Number
RUN .                                  TWO : Run Number
SON .                           CWSZ-00040 : Service Order Number
BHT .DEGF                            212.0 : Bottom Hole Temperature
BS  .IN                               8.75 : Bit Size
DFD .LB/G                             10.3 : Drilling Fluid Density
DFV .S                                63.0 : Drilling Fluid Viscosity
DFL .C3                                6.0 : Drilling Fluid Loss
RMFS.OHMM                          -999.25 : Resistivity of Mud Filtrate Sample
EKB .F                              2078.0 : Elevation of Kelly Bushing
EGL .F                              2052.0 : Elevation of Ground Level
BLI .F                             10712.0 : Bottom Log Interval
BSAL.PPM                               0.0 : Borehole Salinity
FLEV.F                                 8.0 : Depth of Drilling Fluid Level to LMF (Log Measured From)
MCST.DEGF                          -999.25 : Mudcake Sample Temperature
MFST.DEGF                          -999.25 : Mud Filtrate Sample Temperature
MRT .DEGF                            220.0 : Maximum Recorded Temperature
MST .DEGF                          -999.25 : Mud Sample Temperature
RMCS.OHMM                          -999.25 : Resistivity of Mud Cake Sample
RMS .OHMM                          -999.25 : Resistivity of Mud Sample
RW  .OHMM                              1.0 : Connate Water Resistivity
TDD .F                             10720.0 : Total Depth (Driller)
TDL .F                             10720.0 : Logger Total Depth
TLI .F                              8575.0 : Top Log Interval
HIDE.                               SANISH : Header Identifier
MATR.                                 LIME : Rock Matrix for Neutron Porosity Corrections
FNUM.                                  1.0 : F-Numerator for Formation Factor Formula
FEXP.                                  2.0 : Exponent "m" for Formation Factor Formula
DFT .                                  OIL : Drilling Fluid Type
DFPH.                              -999.25 : Drilling Fluid pH
MCSS.                              Pressed : Mudcake Sample Source
MFSS.                                      : Mud Filtrate Sample Source
FD  .G/C3                              1.0 : Fluid Density
MSS .                          Active Tank : Mud Sample Source
OS1 .                                      : Other Services Line 1
OS2 .                                      : Other Services Line 2
OS3 .                                      : Other Services Line 3
OS4 .                                      : Other Services Line 4
OS5 .                                      : Other Services Line 5
R1  .                                      : Remarks Line 1
R2  .                                      : Remarks Line 2
R3  .                                      : Remarks Line 3
R4  .                                      : Remarks Line 4
R5  .                                      : Remarks Line 5
R6  .                                      : Remarks Line 6
R7  .                                      : Remarks Line 7
R8  . Thank you for choosing Schlumberger. : Remarks Line 8
TCS .                              00 30 h : Time Circulation Stopped
TLAB.                              21 12 h : Time Logging on Bottom
NMT .                             NOBARITE : HRDD Mud Type for Nuclear Devices
EPD .C3                             2052.0 : Elevation of Permanent Datum above Mean Sea Level
APD .F                                26.0 : Elevation of Depth Reference (LMF) above Permanent Datum
~Other -----------------------------------------------------
~ASCII -----------------------------------------------------
# ...
 9787.00000    0.01690    0.00150    0.00680    0.00540    0.00310    0.00200    0.00120    0.00050    0.00000 1594.17240   -1.45570    0.00360    0.00330    0.00100    0.01220    1.82920  216.94120    0.00000    0.00000   16.74360    0.00000    3.66960   16.34670   16.14550  208.93280   14.33280    0.48750   15.76840    -999.25   16.05270    1.73920    -999.25    0.26230    0.00000    0.00000    0.00000   -0.03510    -999.25    0.00000    6.42780    -999.25    0.02050 4229.73240    -999.25    -999.25
 9787.50000    0.00700    0.00010    0.00270    0.00130    0.00280    0.00300    0.00060    0.00000    0.00000 1590.56530    0.28220    0.00370    0.00350    0.00100    0.00780    2.88430  216.94120    0.00000    0.00000   17.04090    0.00000    3.44990   16.63690   16.47620  208.94000   14.59600    0.50730   15.63420    -999.25   16.70040    1.70760    -999.25    0.30830    0.00000    0.00000    0.00000   -0.02740    -999.25    0.00000   12.98190    -999.25    0.01060 4201.67820    -999.25    -999.25
 9788.00000    0.01020    0.00190    0.00390    0.00160    0.00290    0.00210    0.00130    0.00000    0.00000 1586.97530    1.55390    0.00340    0.00350    0.00100    0.00790    1.80570  216.94120    0.00000    0.00000   16.91300    0.00000    3.81310   16.51200   15.25750  208.94720   14.01580    0.48330   18.45200    -999.25   15.88680    1.66210    -999.25    0.28380    0.00000    0.00000    0.00000   -0.03020    -999.25    0.00000    7.41780    -999.25    0.01360 4234.66110    -999.25    -999.25
 9788.50000    0.01310    0.00280    0.00630    0.00240    0.00170    0.00010    0.00350    0.00000    0.00000 1595.71130    1.12850    0.00360    0.00320    0.00100    0.00770    2.64760  216.94120    0.00000    0.00000   18.31220    0.00000    3.65560   17.87810   15.28580  208.95440   13.42150    0.46800   15.39370    -999.25   15.76540    1.56120    -999.25    0.35890    0.00000    0.00000    0.00000   -0.01230    -999.25    0.00000    5.63250    -999.25    0.01670 4213.59330    -999.25    -999.25
 9789.00000    0.01270    0.00390    0.00490    0.00370    0.00020    0.00000    0.00410    0.00010    0.00000 1600.40370    1.50170    0.00420    0.00350    0.00100    0.00810    1.85550  216.94120    0.00000    0.00000   18.94290    0.00000    3.64970   18.49380   16.32500  208.96160   14.20210    0.48790   19.77870    -999.25   16.02500    1.69460    -999.25    0.31340    0.00000    0.00000    0.00000   -0.02170    -999.25    0.00000    5.67250    -999.25    0.01690 4205.75050    -999.25    -999.25
 9789.50000    0.01800    0.00880    0.00760    0.00150    0.00000    0.00040    0.00440    0.00000    0.00000 1585.86190   -1.23950    0.00480    0.00330    0.00100    0.00630    1.55970  216.94120    0.00000    0.00000   19.89550    0.00000    3.66340   19.42380   16.84100  208.96880   15.21720    0.50210   20.28000    -999.25   16.70910    1.93710    -999.25    0.27930    0.00000    0.00010    0.00000   -0.02390    -999.25    0.00000    2.90250    -999.25    0.02280 4224.32760    -999.25    -999.25
 9790.00000    0.02850    0.00970    0.01160    0.00590    0.00120    0.00160    0.00220    0.00000    0.00000 1614.56050   -0.11240    0.00370    0.00360    0.00100    0.01090    1.66750  216.94120    0.00000    0.00000   19.36590    0.00000    3.65380   18.90680   16.71950  208.97600   15.98800    0.50580   18.21110    -999.25   17.12050    2.16210    -999.25    0.22780    0.00000    0.00020    0.00000   -0.03360    -999.25    0.00000    2.59000    -999.25    0.03220 4235.40330    -999.25    -999.25
 9790.50000    0.03170    0.00880    0.01290    0.00940    0.00050    0.00260    0.00000    0.00000    0.00000 1589.33260   -3.31630    0.00270    0.00360    0.00100    0.01260    2.50500  216.94120    0.00000    0.00000   19.77190    0.00000    3.63910   19.30310   18.90290  208.98320   16.65200    0.52300   18.22470    -999.25   17.59380    2.27440    -999.25    0.21700    0.00000    0.00010    0.00000   -0.03410    -999.25    0.00000    2.38100    -999.25    0.03440 4201.83350    -999.25    -999.25
 9791.00000    0.01580    0.00220    0.00640    0.00720    0.00000    0.00300    0.00070    0.00000    0.00000 1578.43240   -1.43500    0.00370    0.00370    0.00100    0.01080    1.90630  216.94120    0.00000    0.00000   20.19890    0.00000    3.69630   19.72000   19.38210  208.99040   16.78260    0.52800   21.52420    -999.25   17.69430    2.28710    -999.25    0.20010    0.00000    0.00000    0.00000   -0.01930    -999.25    0.00000    4.76780    -999.25    0.01940 4233.71440    -999.25    -999.25
 9791.50000    0.00740    0.00310    0.00410    0.00020    0.00000    0.00000    0.00050    0.00150    0.00000 1589.92480   -1.55720    0.00200    0.00310    0.00100    0.00220    1.76030  216.94120    0.00000    0.00000   20.13880    0.00000    3.71280   19.66130   20.54960  208.99760   17.01930    0.55010   19.43440    -999.25   18.12010    2.23320    -999.25    0.23440    0.00000    0.00000    0.00000   -0.01770    -999.25    0.00000    3.67050    -999.25    0.00940 4193.33940    -999.25    -999.25
 9792.00000    0.01280    0.00000    0.00000    0.00870    0.00410    0.00570    0.00000    0.00000    0.00000 1574.89560   -0.43410    0.00570    0.00360    0.00100    0.01850    1.47900  216.94120    0.00000    0.00000   19.16560    0.00000    3.77400   18.71120   19.14450  209.00480   16.27940    0.53290   18.06520    -999.25   17.63570    2.09700    -999.25    0.27150    0.00010    0.00000    0.00000   -0.01460    -999.25    0.00000   14.80170    -999.25    0.01850 4207.44630    -999.25    -999.25
 9792.50000    0.01880    0.00360    0.00610    0.00770    0.00150    0.00570    0.00040    0.00000    0.00000 1583.57790   -1.43540    0.00610    0.00310    0.00100    0.01530    0.22640  216.94120    0.00000    0.00000   19.09640    0.00000    3.76650   18.64370   19.20360  209.01200   17.46970    0.58130   18.68000    -999.25   18.49690    2.19520    -999.25    0.23780    0.00010    0.00020    0.00000   -0.02270    -999.25    0.00000    5.77250    -999.25    0.02500 4216.92770    -999.25    -999.25
 9793.00000    0.02770    0.01040    0.01310    0.00380    0.00040    0.00540    0.00010    0.00000    0.00090 1572.50740   -3.81700    0.00640    0.00350    0.00100    0.01060    0.19160  216.94120    0.00000    0.00000   19.93170    0.00000    3.63220   19.45910   18.62210  209.01920   17.97190    0.59130   19.29720    -999.25   18.94800    2.29720    -999.25    0.23040    0.00000    0.00070    0.00000   -0.02040    -999.25    0.00000    2.95390    -999.25    0.03410 4195.34520    -999.25    -999.25
 9793.50000    0.03140    0.01270    0.01670    0.00180    0.00020    0.00430    0.00000    0.00000    0.00160 1597.22470   -2.93590    0.00590    0.00360    0.00100    0.00790   -0.42370  216.94120    0.00000    0.00000   20.81860    0.00000    3.78440   20.32500   17.11630  209.02640   17.83020    0.60480   20.56150    -999.25   19.02950    2.17330    -999.25    0.25970    0.00000    0.00070    0.00000   -0.01910    -999.25    0.00000    2.53560    -999.25    0.03730 4241.16060    -999.25    -999.25
 9794.00000    0.03410    0.01280    0.01730    0.00200    0.00210    0.00360    0.00000    0.00000    0.00130 1578.81300   -0.34050    0.00500    0.00350    0.00100    0.00900   -0.69060  216.94120    0.00000    0.00000   20.92840    0.00000    3.42450   20.43220   16.61950  209.03360   17.10990    0.59000   21.27760    -999.25   18.02880    2.02880    -999.25    0.19270    0.00010    0.00050    0.00000    -999.25    -999.25    0.00000    2.50970    -999.25    0.03910 4212.01810    -999.25    -999.25
 9794.50000    0.02800    0.00960    0.01230    0.00380    0.00230    0.00150    0.00010    0.00120    0.00000 1575.15710    1.57770    0.00290    0.00330    0.00100    0.00900   -0.23150  216.94120    0.00000    0.00000   19.69480    0.00000    3.75780   19.22790   16.86430  209.04080   15.49280    0.54130   19.59650    -999.25   16.76130    1.79590    -999.25    0.20750    0.00000    0.00010    0.00000    -999.25    -999.25    0.00000    2.48520    -999.25    0.03080 4198.56400    -999.25    -999.25
