~Version ---------------------------------------------------
VERS     .                                                                                     2.0 : CWLS log ASCII Standard -VERSION 2.0
WRAP     .                                                                                      NO : One Line per depth step
PROD     .                                                                            Schlumberger : LAS Producer
PROG     .                                                                       DLIS to ASCII 2.3 : LAS Program name and version
CREA     .             2014/09/27 10:36                          :LAS Creation date {YYYY/MM/DD hh : mm}
DLIS_CREA. 2014-Sep-26 05:39                          :DLIS Creation date and time {YYYY-MMM-DD hh : mm}
SOURCE   .                                                    91826cdd-719c-42a6-af83-d6b9542bd142 : DLIS File Name
~Well ------------------------------------------------------
STRT.F                       8395.0 : START DEPTH
STOP.F                      10723.0 : STOP DEPTH
STEP.F                          0.5 : STEP
NULL.                       -999.25 : NULL VALUE
COMP.                               : COMPANY
WELL.                       Bakken2 : WELL
FLD .                               : FIELD
LOC .                               : LOCATION
CNTY.                               : COUNTY
STAT.                  NORTH DAKOTA : STATE
CTRY.                               : COUNTRY
SRVC.                  Schlumberger : SERVICE COMPANY
LATI.DEG                     : LATITUDE
LONG.DEG         -  : LONGITUDE
API .                    : API NUMBER
DATE.                     : LOG DATE
UWI .                  : UNIQUE WELL ID
~Curve Information -----------------------------------------
DEPT        .F     : DEPTH (BOREHOLE) {F12.4}
BFV         .CFCF  : Bound Fluid Volume {F11.4}
CBP1        .CFCF  : CMR Bin Porosity 1 {F11.4}
CBP2        .CFCF  : CMR Bin Porosity 2 {F11.4}
CBP3        .CFCF  : CMR Bin Porosity 3 {F11.4}
CBP4        .CFCF  : CMR Bin Porosity 4 {F11.4}
CBP5        .CFCF  : CMR Bin Porosity 5 {F11.4}
CBP6        .CFCF  : CMR Bin Porosity 6 {F11.4}
CBP7        .CFCF  : CMR Bin Porosity 7 {F11.4}
CBP8        .CFCF  : CMR Bin Porosity 8 {F11.4}
CDF         .LBF   : Calibrated Downhole Force {F11.4}
CFTC        .HZ    : Corrected Far Thermal Count Rate {F11.4}
CMFF        .CFCF  : CMR Free Fluid {F11.4}
CMFF_SIG    .CFCF  : Standard Deviation of CMR Free Fluid {F11.4}
CMR_PHI_CONV.      : CMR Porosity Conversion factor {F11.4}
CMRP_3MS    .CFCF  : CMR Porosity with T2 values greater than 3 ms {F11.4}
CNTC        .HZ    : Corrected Near Thermal Count Rate {F11.4}
CTEM        .DEGF  : Cartridge Temperature {F11.4}
DCAL        .IN    : Differential Caliper {F11.4}
DNPH        .CFCF  : Difference between Corrected Thermal Neutron Porosity and Uncorrected {F11.4}
ECGR        .GAPI  : Environmentally Corrected Gamma Ray {F11.4}
ED          .F     : East Departure {F11.4}
GDEV        .DEG   : HGNS Hole Deviation from Gravity {F11.4}
GR          .GAPI  : Gamma Ray {F11.4}
GR_EDTC     .GAPI  : Gamma Ray {F11.4}
GTEM        .DEGF  : Generalized Borehole Temperature {F11.4}
HCGR        .GAPI  : HNGS Computed Gamma Ray {F11.4}
HFK         .%     : HNGS Formation Potassium Concentration {F11.4}
HGR         .GAPI  : High Resolution Gamma Ray {F11.4}
HNPO        .CFCF  : High Resolution Enhanced Thermal Neutron Porosity in Selected Lithology {F11.4}
HSGR        .GAPI  : HNGS Standard Gamma-Ray {F11.4}
HTHO        .PPM   : HNGS Formation Thorium Concentration {F11.4}
HTNP        .CFCF  : High Resolution Thermal Neutron Porosity (Ratio Method) in Selected Lithology {F11.4}
HURA        .PPM   : HNGS Formation Uranium Concentration {F11.4}
KSDR        .MD    : SDR Permeability {F11.4}
KTIM        .MD    : Timur/Coates Permeability {F11.4}
ND          .F     : North Departure {F11.4}
NPHI        .CFCF  : Thermal Neutron Porosity (original Ratio Method) in Selected Lithology {F11.4}
NPOR        .CFCF  : Enhanced Thermal Neutron Porosity in Selected Lithology {F11.4}
STIT        .F     : Stuck Tool Indicator, Total {F11.4}
T2LM        .MS    : T2 Logarithmic Mean {F11.4}
T2LM_SIG    .MS    : Standard Deviation of T2 Logarithmic Mean {F11.4}
TCMR        .CFCF  : Total CMR Porosity {F11.4}
TENS        .LBF   : Cable Tension {F11.4}
TNPH        .CFCF  : Thermal Neutron Porosity (Ratio Method) in Selected Lithology {F11.4}
HTNP_SAN    .CFCF  : HiRes Thermal Neutron Porosity (matrix Sandstone) {F11.4}
~Params ----------------------------------------------------
CN  .        WHITING OIL & GAS CORPORATION : Company Name
WN  .                           JB 11-6TFH : Well Name
FN  .                               SANISH : Field Name
FL  .                  219' FNL & 948' FWL : Field Location
FL1 .                                 LOT4 : Field Location, Line 1
COUN.                            MOUNTRAIL : Rig Name
STAT.                         NORTH DAKOTA : State or Province
NATI.                                      : Nation
DATE.                           25/09/2014 : Tools Above Rotary Table Date
APIN.                         33-061-03238 : API Serial Number
SECT.                                    6 : Section
TOWN.                                 153N : Township
RANG.                                  92W : Range
DMF .                                   MR : Drilling Measured From (Name of Drilling Elevation Reference)
LMF .                                   MR : Logging Measured From (Name of Logging Elevation Reference)
PDAT.                                   NM : Permanent Datum
ENGI.                        AARON BAGWELL : Engineer s Name
WITN.                         JOHN SCHAFER : Witness s Name
LATI.                    48.092747 degrees : Latitude
LONG.                   -102.56534 degrees : Longitude
LUL .                            WILLISTON : Logging Unit Location
LUN .                                 2223 : Logging Unit Number
RUN .                                  TWO : Run Number
SON .                           CWSZ-00040 : Service Order Number
BHT .DEGF                            212.0 : Bottom Hole Temperature
BS  .IN                               8.75 : Bit Size
DFD .LB/G                             10.3 : Drilling Fluid Density
DFV .S                                63.0 : Drilling Fluid Viscosity
DFL .C3                                6.0 : Drilling Fluid Loss
RMFS.OHMM                          -999.25 : Resistivity of Mud Filtrate Sample
EKB .F                              2078.0 : Elevation of Kelly Bushing
EGL .F                              2052.0 : Elevation of Ground Level
BLI .F                             10712.0 : Bottom Log Interval
BSAL.PPM                               0.0 : Borehole Salinity
FLEV.F                                 8.0 : Depth of Drilling Fluid Level to LMF (Log Measured From)
MCST.DEGF                          -999.25 : Mudcake Sample Temperature
MFST.DEGF                          -999.25 : Mud Filtrate Sample Temperature
MRT .DEGF                            220.0 : Maximum Recorded Temperature
MST .DEGF                          -999.25 : Mud Sample Temperature
RMCS.OHMM                          -999.25 : Resistivity of Mud Cake Sample
RMS .OHMM                          -999.25 : Resistivity of Mud Sample
RW  .OHMM                              1.0 : Connate Water Resistivity
TDD .F                             10720.0 : Total Depth (Driller)
TDL .F                             10720.0 : Logger Total Depth
TLI .F                              8575.0 : Top Log Interval
HIDE.                               SANISH : Header Identifier
MATR.                                 LIME : Rock Matrix for Neutron Porosity Corrections
FNUM.                                  1.0 : F-Numerator for Formation Factor Formula
FEXP.                                  2.0 : Exponent "m" for Formation Factor Formula
DFT .                                  OIL : Drilling Fluid Type
DFPH.                              -999.25 : Drilling Fluid pH
MCSS.                              Pressed : Mudcake Sample Source
MFSS.                                      : Mud Filtrate Sample Source
FD  .G/C3                              1.0 : Fluid Density
MSS .                          Active Tank : Mud Sample Source
OS1 .                                      : Other Services Line 1
OS2 .                                      : Other Services Line 2
OS3 .                                      : Other Services Line 3
OS4 .                                      : Other Services Line 4
OS5 .                                      : Other Services Line 5
R1  .                                      : Remarks Line 1
R2  .                                      : Remarks Line 2
R3  .                                      : Remarks Line 3
R4  .                                      : Remarks Line 4
R5  .                                      : Remarks Line 5
R6  .                                      : Remarks Line 6
R7  .                                      : Remarks Line 7
R8  . Thank you for choosing Schlumberger. : Remarks Line 8
TCS .                              00 30 h : Time Circulation Stopped
TLAB.                              21 12 h : Time Logging on Bottom
NMT .                             NOBARITE : HRDD Mud Type for Nuclear Devices
EPD .C3                             2052.0 : Elevation of Permanent Datum above Mean Sea Level
APD .F                                26.0 : Elevation of Depth Reference (LMF) above Permanent Datum
~Other -----------------------------------------------------
~ASCII -----------------------------------------------------
# ...
 9939.00000    0.00630    0.00180    0.00000    0.00000    0.00440    0.00680    0.00020    0.00000    0.00100 1568.52730   -3.89200    0.00800    0.00360    0.00100    0.01240   -0.67440  218.91760    0.00000    0.00000   18.17460    0.00000    3.52630   17.74370   16.49900  211.12160   12.91350    0.41510   15.48980    -999.25   16.15510    1.70800    -999.25    0.47500    0.00010    0.00000    0.00000   -0.02030    -999.25    0.00000   28.31980    -999.25    0.01420 4283.85740    -999.25    -999.25
 9939.50000    0.01770    0.01070    0.00270    0.00420    0.00010    0.00370    0.00140    0.00000    0.00130 1575.00370   -5.11830    0.00630    0.00370    0.00100    0.01060   -1.52530  218.91760    0.00000    0.00000   19.57610    0.00000    3.68970   19.11200   19.23520  211.12880   14.82780    0.47450   20.95860    -999.25   18.07440    1.97360    -999.25    0.49580    0.00000    0.00010    0.00000    -999.25    -999.25    0.00000    4.01960    -999.25    0.02400 4235.47360    -999.25    -999.25
 9940.00000    0.01460    0.00660    0.00750    0.00040    0.00000    0.00620    0.00160    0.00000    0.00160 1571.29810   -4.65870    0.00940    0.00390    0.00100    0.00980    0.86670  218.91760    0.00000    0.00000   24.05850    0.00000    3.69000   23.48810   22.10580  211.13600   17.62720    0.56500   20.89270    -999.25   22.05570    2.34090    -999.25    0.67670    0.00010    0.00010    0.00000   -0.03110    -999.25    0.00000    7.13500    -999.25    0.02400 4280.21040    -999.25    -999.25
 9940.50000    0.02270    0.00670    0.00730    0.00050    0.00820    0.00360    0.00240    0.00110    0.00000 1568.53340   -6.95950    0.00710    0.00380    0.00100    0.01590    0.91950  218.91760    0.00000    0.00000   24.64860    0.00000    3.61390   24.06430   23.44480  211.14320   19.18310    0.62010   28.57450    -999.25   23.93400    2.51710    -999.25    0.74960    0.00020    0.00080    0.00000   -0.02870    -999.25    0.00000    7.15700    -999.25    0.02980 4262.82130    -999.25    -999.25
 9941.00000    0.02700    0.00750    0.00370    0.00630    0.00950    0.00000    0.00000    0.00060    0.00180 1584.69460   -6.06460    0.00230    0.00370    0.00100    0.01810    0.19940  218.91760    0.00000    0.00000   25.85180    0.00000    3.69090   25.23890   25.23450  211.15040   19.90280    0.64610   22.69540    -999.25   24.73270    2.59550    -999.25    0.76120    0.00010    0.00010    0.00000   -0.01980    -999.25    0.00000    5.69930    -999.25    0.02930 4293.94820    -999.25    -999.25
 9941.50000    0.01820    0.00830    0.00030    0.00800    0.00150    0.00000    0.00000    0.00000    0.00260 1587.97560   -4.83400    0.00260    0.00380    0.00100    0.01210    1.29100  218.91760    0.00000    0.00000   26.19350    0.00000    3.71540   25.57250   26.48220  211.15760   21.27500    0.69250   24.44240    -999.25   26.28250    2.76360    -999.25    0.79820    0.00000    0.00000    0.00000   -0.02410    -999.25    0.00000    4.86030    -999.25    0.02080 4273.35740    -999.25    -999.25
 9942.00000    0.01300    0.00020    0.00030    0.01160    0.00100    0.00000    0.00000    0.00000    0.00250 1586.50010   -1.83820    0.00250    0.00380    0.00100    0.01500    2.08480  218.91760    0.00000    0.00000   29.05550    0.00000    3.75290   28.36670   26.09250  211.16480   22.36700    0.74710   29.62270    -999.25   28.07300    2.79370    -999.25    0.89000    0.00010    0.00000    0.00000   -0.02450    -999.25    0.00000   15.47750    -999.25    0.01550 4289.50880    -999.25    -999.25
 9942.50000    0.00870    0.00000    0.00000    0.00700    0.00180    0.00000    0.00000    0.00000    0.00250 1573.98540   -1.66860    0.00250    0.00370    0.00100    0.01130   -0.17530  218.91760    0.00000    0.00000   28.83380    0.00000    3.70520   28.15020   25.00650  211.17200   21.97690    0.72720   31.19750    -999.25   27.02910    2.78550    -999.25    0.77210    0.00010    0.00000    0.00000   -0.02400    -999.25    0.00000   28.37290    -999.25    0.01130 4253.21040    -999.25    -999.25
 9943.00000    0.01320    0.00050    0.00000    0.00630    0.00640    0.00000    0.00000    0.00000    0.00200 1572.21110   -2.00850    0.00200    0.00350    0.00100    0.01470    0.61530  218.91760    0.00000    0.00000   26.60700    0.00000    3.62960   25.97620   23.59070  211.17920   19.33590    0.64600   23.77910    -999.25   23.86300    2.41420    -999.25    0.66640    0.00010    0.00000    0.00000   -0.02350    -999.25    0.00000   17.90440    -999.25    0.01520 4268.14310    -999.25    -999.25
 9943.50000    0.02390    0.00350    0.00320    0.01220    0.00490    0.00000    0.00000    0.00000    0.00190 1590.79630   -3.90790    0.00190    0.00360    0.00100    0.01910    1.08230  218.91760    0.00000    0.00000   25.70560    0.00000    3.77270   25.09620   23.64490  211.18640   18.45440    0.62450   23.12590    -999.25   22.70520    2.25770    -999.25    0.61290    0.00010    0.00000    0.00000   -0.03100    -999.25    0.00000    6.58490    -999.25    0.02590 4264.26320    -999.25    -999.25
 9944.00000    0.02110    0.00000    0.00310    0.01240    0.00560    0.00020    0.00000    0.00000    0.00100 1577.57060   -1.27780    0.00120    0.00340    0.00100    0.01920    1.76670  218.91760    0.00000    0.00000   28.04960    0.00000    3.63520   27.38460   25.75940  211.19360   21.21110    0.70350   28.43770    -999.25   25.62700    2.67840    -999.25    0.65140    0.00010    0.00000    0.00000   -0.02490    -999.25    0.00000    8.39720    -999.25    0.02230 4258.73680    -999.25    -999.25
 9944.50000    0.01300    0.00000    0.00000    0.00570    0.00730    0.00000    0.00000    0.00000    0.00150 1587.13560    0.49070    0.00150    0.00360    0.00100    0.01450    0.98010  218.91760    0.00000    0.00000   27.53290    0.00000    3.77940   26.88020   25.26910  211.20080   22.20750    0.72570   30.76850    -999.25   26.34950    2.86820    -999.25    0.59580    0.00010    0.00000    0.00000   -0.02600    -999.25    0.00000   18.85150    -999.25    0.01450 4280.54390    -999.25    -999.25
 9945.00000    0.01470    0.00000    0.00030    0.01190    0.00250    0.00000    0.00000    0.00020    0.00240 1572.04520    2.28840    0.00260    0.00370    0.00100    0.01690    1.74580  218.91760    0.00000    0.00000   24.75760    0.00000    3.75190   24.17060   25.59150  211.20800   20.13190    0.66630   21.58950    -999.25   24.52790    2.55030    -999.25    0.62670    0.00010    0.00000    0.00000   -0.01860    -999.25    0.00000   14.95210    -999.25    0.01720 4267.48290    -999.25    -999.25
 9945.50000    0.02580    0.00440    0.00720    0.01110    0.00310    0.00000    0.00000    0.00180    0.00120 1590.84410   -0.70210    0.00300    0.00380    0.00100    0.01720    0.63860  218.91760    0.00000    0.00000   22.14690    0.00000    3.77090   21.62180   23.49820  211.21520   18.30690    0.59970   20.22950    -999.25   22.00160    2.35550    -999.25    0.50800    0.00010    0.00010    0.00000   -0.02800    -999.25    0.00000    5.60810    -999.25    0.02880 4281.21440    -999.25    -999.25
 9946.00000    0.04140    0.01050    0.01340    0.01100    0.00650    0.00000    0.00000    0.00090    0.00130 1591.56160   -3.70450    0.00220    0.00370    0.00100    0.01970    2.07480  218.91760    0.00000    0.00000   24.57910    0.00000    3.61520   23.99640   25.47400  211.22240   19.22910    0.62780   22.96880    -999.25   22.55380    2.48680    -999.25    0.44740    0.00020    0.00010    0.00000   -0.02480    -999.25    0.00000    3.44990    -999.25    0.04360 4304.08640    -999.25    -999.25
 9946.50000    0.02760    0.00260    0.00780    0.01150    0.00570    0.00030    0.00080    0.00000    0.00150 1576.96300   -3.83440    0.00270    0.00360    0.00100    0.01990    1.12670  218.91760    0.00000    0.00000   27.04320    0.00000    3.91840   26.40210   27.29390  211.22960   21.10110    0.70710   28.71110    -999.25   24.81370    2.62250    -999.25    0.50390    0.00010    0.00010    0.00000   -0.02150    -999.25    0.00000    6.30770    -999.25    0.03030 4254.94920    -999.25    -999.25
