~Version ---------------------------------------------------
VERS     .                                                                                     2.0 : CWLS log ASCII Standard -VERSION 2.0
WRAP     .                                                                                      NO : One Line per depth step
PROD     .                                                                            Schlumberger : LAS Producer
PROG     .                                                                       DLIS to ASCII 2.3 : LAS Program name and version
CREA     .             2014/09/27 10:36                          :LAS Creation date {YYYY/MM/DD hh : mm}
DLIS_CREA. 2014-Sep-26 05:39                          :DLIS Creation date and time {YYYY-MMM-DD hh : mm}
SOURCE   .                                                    91826cdd-719c-42a6-af83-d6b9542bd142 : DLIS File Name
~Well ------------------------------------------------------
STRT.F                       8395.0 : START DEPTH
STOP.F                      10723.0 : STOP DEPTH
STEP.F                          0.5 : STEP
NULL.                       -999.25 : NULL VALUE
COMP.                               : COMPANY
WELL.                       Bakken2 : WELL
FLD .                               : FIELD
LOC .                               : LOCATION
CNTY.                               : COUNTY
STAT.                  NORTH DAKOTA : STATE
CTRY.                               : COUNTRY
SRVC.                  Schlumberger : SERVICE COMPANY
LATI.DEG                     : LATITUDE
LONG.DEG         -  : LONGITUDE
API .                    : API NUMBER
DATE.                     : LOG DATE
UWI .                  : UNIQUE WELL ID
~Curve Information -----------------------------------------
DEPT        .F     : DEPTH (BOREHOLE) {F12.4}
BFV         .CFCF  : Bound Fluid Volume {F11.4}
CBP1        .CFCF  : CMR Bin Porosity 1 {F11.4}
CBP2        .CFCF  : CMR Bin Porosity 2 {F11.4}
CBP3        .CFCF  : CMR Bin Porosity 3 {F11.4}
CBP4        .CFCF  : CMR Bin Porosity 4 {F11.4}
CBP5        .CFCF  : CMR Bin Porosity 5 {F11.4}
CBP6        .CFCF  : CMR Bin Porosity 6 {F11.4}
CBP7        .CFCF  : CMR Bin Porosity 7 {F11.4}
CBP8        .CFCF  : CMR Bin Porosity 8 {F11.4}
CDF         .LBF   : Calibrated Downhole Force {F11.4}
CFTC        .HZ    : Corrected Far Thermal Count Rate {F11.4}
CMFF        .CFCF  : CMR Free Fluid {F11.4}
CMFF_SIG    .CFCF  : Standard Deviation of CMR Free Fluid {F11.4}
CMR_PHI_CONV.      : CMR Porosity Conversion factor {F11.4}
CMRP_3MS    .CFCF  : CMR Porosity with T2 values greater than 3 ms {F11.4}
CNTC        .HZ    : Corrected Near Thermal Count Rate {F11.4}
CTEM        .DEGF  : Cartridge Temperature {F11.4}
DCAL        .IN    : Differential Caliper {F11.4}
DNPH        .CFCF  : Difference between Corrected Thermal Neutron Porosity and Uncorrected {F11.4}
ECGR        .GAPI  : Environmentally Corrected Gamma Ray {F11.4}
ED          .F     : East Departure {F11.4}
GDEV        .DEG   : HGNS Hole Deviation from Gravity {F11.4}
GR          .GAPI  : Gamma Ray {F11.4}
GR_EDTC     .GAPI  : Gamma Ray {F11.4}
GTEM        .DEGF  : Generalized Borehole Temperature {F11.4}
HCGR        .GAPI  : HNGS Computed Gamma Ray {F11.4}
HFK         .%     : HNGS Formation Potassium Concentration {F11.4}
HGR         .GAPI  : High Resolution Gamma Ray {F11.4}
HNPO        .CFCF  : High Resolution Enhanced Thermal Neutron Porosity in Selected Lithology {F11.4}
HSGR        .GAPI  : HNGS Standard Gamma-Ray {F11.4}
HTHO        .PPM   : HNGS Formation Thorium Concentration {F11.4}
HTNP        .CFCF  : High Resolution Thermal Neutron Porosity (Ratio Method) in Selected Lithology {F11.4}
HURA        .PPM   : HNGS Formation Uranium Concentration {F11.4}
KSDR        .MD    : SDR Permeability {F11.4}
KTIM        .MD    : Timur/Coates Permeability {F11.4}
ND          .F     : North Departure {F11.4}
NPHI        .CFCF  : Thermal Neutron Porosity (original Ratio Method) in Selected Lithology {F11.4}
NPOR        .CFCF  : Enhanced Thermal Neutron Porosity in Selected Lithology {F11.4}
STIT        .F     : Stuck Tool Indicator, Total {F11.4}
T2LM        .MS    : T2 Logarithmic Mean {F11.4}
T2LM_SIG    .MS    : Standard Deviation of T2 Logarithmic Mean {F11.4}
TCMR        .CFCF  : Total CMR Porosity {F11.4}
TENS        .LBF   : Cable Tension {F11.4}
TNPH        .CFCF  : Thermal Neutron Porosity (Ratio Method) in Selected Lithology {F11.4}
HTNP_SAN    .CFCF  : HiRes Thermal Neutron Porosity (matrix Sandstone) {F11.4}
~Params ----------------------------------------------------
CN  .        WHITING OIL & GAS CORPORATION : Company Name
WN  .                           JB 11-6TFH : Well Name
FN  .                               SANISH : Field Name
FL  .                  219' FNL & 948' FWL : Field Location
FL1 .                                 LOT4 : Field Location, Line 1
COUN.                            MOUNTRAIL : Rig Name
STAT.                         NORTH DAKOTA : State or Province
NATI.                                      : Nation
DATE.                           25/09/2014 : Tools Above Rotary Table Date
APIN.                         33-061-03238 : API Serial Number
SECT.                                    6 : Section
TOWN.                                 153N : Township
RANG.                                  92W : Range
DMF .                                   MR : Drilling Measured From (Name of Drilling Elevation Reference)
LMF .                                   MR : Logging Measured From (Name of Logging Elevation Reference)
PDAT.                                   NM : Permanent Datum
ENGI.                        AARON BAGWELL : Engineer s Name
WITN.                         JOHN SCHAFER : Witness s Name
LATI.                    48.092747 degrees : Latitude
LONG.                   -102.56534 degrees : Longitude
LUL .                            WILLISTON : Logging Unit Location
LUN .                                 2223 : Logging Unit Number
RUN .                                  TWO : Run Number
SON .                           CWSZ-00040 : Service Order Number
BHT .DEGF                            212.0 : Bottom Hole Temperature
BS  .IN                               8.75 : Bit Size
DFD .LB/G                             10.3 : Drilling Fluid Density
DFV .S                                63.0 : Drilling Fluid Viscosity
DFL .C3                                6.0 : Drilling Fluid Loss
RMFS.OHMM                          -999.25 : Resistivity of Mud Filtrate Sample
EKB .F                              2078.0 : Elevation of Kelly Bushing
EGL .F                              2052.0 : Elevation of Ground Level
BLI .F                             10712.0 : Bottom Log Interval
BSAL.PPM                               0.0 : Borehole Salinity
FLEV.F                                 8.0 : Depth of Drilling Fluid Level to LMF (Log Measured From)
MCST.DEGF                          -999.25 : Mudcake Sample Temperature
MFST.DEGF                          -999.25 : Mud Filtrate Sample Temperature
MRT .DEGF                            220.0 : Maximum Recorded Temperature
MST .DEGF                          -999.25 : Mud Sample Temperature
RMCS.OHMM                          -999.25 : Resistivity of Mud Cake Sample
RMS .OHMM                          -999.25 : Resistivity of Mud Sample
RW  .OHMM                              1.0 : Connate Water Resistivity
TDD .F                             10720.0 : Total Depth (Driller)
TDL .F                             10720.0 : Logger Total Depth
TLI .F                              8575.0 : Top Log Interval
HIDE.                               SANISH : Header Identifier
MATR.                                 LIME : Rock Matrix for Neutron Porosity Corrections
FNUM.                                  1.0 : F-Numerator for Formation Factor Formula
FEXP.                                  2.0 : Exponent "m" for Formation Factor Formula
DFT .                                  OIL : Drilling Fluid Type
DFPH.                              -999.25 : Drilling Fluid pH
MCSS.                              Pressed : Mudcake Sample Source
MFSS.                                      : Mud Filtrate Sample Source
FD  .G/C3                              1.0 : Fluid Density
MSS .                          Active Tank : Mud Sample Source
OS1 .                                      : Other Services Line 1
OS2 .                                      : Other Services Line 2
OS3 .                                      : Other Services Line 3
OS4 .                                      : Other Services Line 4
OS5 .                                      : Other Services Line 5
R1  .                                      : Remarks Line 1
R2  .                                      : Remarks Line 2
R3  .                                      : Remarks Line 3
R4  .                                      : Remarks Line 4
R5  .                                      : Remarks Line 5
R6  .                                      : Remarks Line 6
R7  .                                      : Remarks Line 7
R8  . Thank you for choosing Schlumberger. : Remarks Line 8
TCS .                              00 30 h : Time Circulation Stopped
TLAB.                              21 12 h : Time Logging on Bottom
NMT .                             NOBARITE : HRDD Mud Type for Nuclear Devices
EPD .C3                             2052.0 : Elevation of Permanent Datum above Mean Sea Level
APD .F                                26.0 : Elevation of Depth Reference (LMF) above Permanent Datum
~Other -----------------------------------------------------
~ASCII -----------------------------------------------------
# ...
 10251.00000    0.04630    0.00390    0.00230    0.02570    0.01430    0.00010    0.00800    0.00730    0.00060 1564.65200   -6.20690    0.01600    0.00420    0.00100    0.05600    0.31500  224.84700    0.00000    0.00000   73.83690    0.00000    3.91540   72.08640   65.82580  215.61440   51.70690    1.78410   69.95450    -999.25   66.47770    6.12430    -999.25    1.93630    0.01600    0.01790    0.00000   -0.02200    -999.25    0.00000   16.32300    -999.25    0.06230 4354.29830    -999.25    -999.25
 10251.50000    0.04580    0.00030    0.00820    0.02480    0.01250    0.00000    0.00520    0.00490    0.00000 1575.69650   -6.63970    0.01020    0.00420    0.00100    0.04750    0.30660  224.84700    0.00000    0.00000   71.14290    0.00000    3.90710   69.45630   65.76770  215.62160   52.99930    1.82430   73.91980    -999.25   66.71410    6.30290    -999.25    1.81510    0.00580    0.00490    0.00000   -0.03270    -999.25    0.00000   12.11900    -999.25    0.05600 4345.29830    -999.25    -999.25
 10252.00000    0.03880    0.00010    0.00900    0.01910    0.01050    0.00350    0.00390    0.00000    0.00050 1570.17830   -3.29400    0.00790    0.00400    0.00100    0.03750    1.17070  224.84700    0.00000    0.00000   66.80340    0.00000    3.94760   65.21970   62.53890  215.62880   50.12370    1.73720   64.47720    -999.25   63.42580    5.89130    -999.25    1.72590    0.00180    0.00190    0.00000   -0.03400    -999.25    0.00000    9.61430    -999.25    0.04670 4328.17530    -999.25    -999.25
 10252.50000    0.02820    0.00000    0.00430    0.01460    0.00930    0.01010    0.00000    0.00000    0.00030 1562.81420   -1.64470    0.01040    0.00390    0.00100    0.03430    1.12360  224.84700    0.00000    0.00000   66.24330    0.00000    3.92460   64.67290   60.52930  215.63600   48.08050    1.65250   57.30610    -999.25   60.57310    5.73270    -999.25    1.63920    0.00130    0.00300    0.00000   -0.03400    -999.25    0.00000   12.31410    -999.25    0.03860 4330.50880    -999.25    -999.25
 10253.00000    0.03040    0.00000    0.00480    0.01510    0.01040    0.01470    0.00010    0.00000    0.00100 1563.97110   -1.02020    0.01580    0.00400    0.00100    0.04140    1.62670  224.84700    0.00000    0.00000   68.57650    0.00000    3.94080   66.95070   60.33630  215.64320   48.25590    1.65320   72.20390    -999.25   59.89380    5.78460    -999.25    1.54990    0.00430    0.01230    0.00000   -0.02310    -999.25    0.00000   15.36800    -999.25    0.04620 4336.36870    -999.25    -999.25
 10253.50000    0.03810    0.00020    0.00480    0.01900    0.01410    0.01490    0.00200    0.00000    0.00150 1560.85340   -2.36610    0.01840    0.00410    0.00100    0.05160    1.76370  224.84700    0.00000    0.00000   74.98610    0.00000    3.94780   73.20840   60.94880  215.65040   51.48500    1.75000   71.33600    -999.25   63.21210    6.25250    -999.25    1.63010    0.01120    0.02400    0.00000   -0.02310    -999.25    0.00000   16.54810    -999.25    0.05660 4316.25000    -999.25    -999.25
 10254.00000    0.04790    0.00150    0.00320    0.02860    0.01460    0.00740    0.00880    0.00000    0.00050 1559.68100   -2.76280    0.01670    0.00420    0.00100    0.05980    1.87790  224.84700    0.00000    0.00000   77.43550    0.00000    3.94970   75.59970   65.37610  215.65760   55.48190    1.86500   76.10600    -999.25   66.69470    6.86000    -999.25    1.60480    0.01340    0.02110    0.00000   -0.02200    -999.25    0.00000   13.87700    -999.25    0.06460 4329.01760    -999.25    -999.25
 10254.50000    0.05330    0.00500    0.00450    0.03470    0.00910    0.00280    0.01230    0.00010    0.00000 1567.32730   -3.51390    0.01510    0.00420    0.00100    0.05890    0.73890  224.84700    0.00000    0.00000   80.19550    0.00000    4.02550   78.29430   65.73430  215.66480   55.79040    1.87870   79.46200    -999.25   68.51790    6.87850    -999.25    1.78850    0.00880    0.01760    0.00000   -0.03080    -999.25    0.00000   10.01150    -999.25    0.06840 4347.29830    -999.25    -999.25
 10255.00000    0.06280    0.00750    0.00770    0.03960    0.00800    0.00040    0.01170    0.00290    0.00000 1567.72500   -5.72880    0.01510    0.00410    0.00100    0.06270    1.89230  224.84700    0.00000    0.00000   78.95230    0.00000    3.90770   77.08060   68.29110  215.67200   56.62380    1.89500   79.23160    -999.25   69.33340    7.05060    -999.25    1.77310    0.01120    0.02110    0.00000   -0.02440    -999.25    0.00000    8.74370    -999.25    0.07790 4329.75440    -999.25    -999.25
 10255.50000    0.07050    0.00520    0.00760    0.04220    0.01550    0.00000    0.00390    0.00660    0.00060 1564.91720   -3.03650    0.01110    0.00380    0.00100    0.06890    1.21830  224.84700    0.00000    0.00000   76.06720    0.00000    3.82940   74.26380   66.67670  215.67920   57.02020    1.92670   72.52090    -999.25   68.93740    6.99200    -999.25    1.65310    0.01550    0.01100    0.00000   -0.01830    -999.25    0.00000    9.33580    -999.25    0.08160 4336.87500    -999.25    -999.25
 10256.00000    0.07110    0.00000    0.00430    0.04660    0.02020    0.00000    0.00040    0.00510    0.00300 1561.36790   -1.03320    0.00850    0.00430    0.00100    0.07540    0.81140  224.84700    0.00000    0.00000   72.97810    0.00000    3.85960   71.24790   66.32870  215.68640   57.30910    1.94550   71.00320    -999.25   69.03770    6.97430    -999.25    1.65360    0.02200    0.00580    0.00000   -0.01460    -999.25    0.00000   11.68410    -999.25    0.07960 4329.93070    -999.25    -999.25
 10256.50000    0.06460    0.00000    0.00080    0.03730    0.02650    0.00000    0.00000    0.00070    0.00590 1555.82800    0.15740    0.00660    0.00500    0.00100    0.07030    1.28680  224.84700    0.00000    0.00000   74.84360    0.00000    3.77710   73.06920   66.34430  215.69360   57.53710    1.96190   70.38060    -999.25   69.69400    6.95130    -999.25    1.73660    0.02020    0.00270    0.00000   -0.02340    -999.25    0.00000   14.03420    -999.25    0.07110 4333.55180    -999.25    -999.25
 10257.00000    0.04930    0.00060    0.00730    0.01610    0.02530    0.00220    0.00000    0.00430    0.00320 1553.93070   -2.97470    0.00960    0.00430    0.00100    0.05110    1.85810  224.84700    0.00000    0.00000   76.75780    0.00000    3.86710   74.93800   66.68260  215.70080   57.04470    1.96970   77.83450    -999.25   70.80350    6.74770    -999.25    1.90720    0.01280    0.00460    0.00000   -0.03410    -999.25    0.00000   16.26300    -999.25    0.05890 4348.52540    -999.25    -999.25
 10257.50000    0.04500    0.00040    0.00970    0.01450    0.02050    0.00410    0.00080    0.00430    0.00190 1554.61960   -3.77130    0.01100    0.00430    0.00100    0.04600    1.38240  224.84700    0.00000    0.00000   79.19150    0.00000    3.88240   77.31410   68.61000  215.70800   57.45070    1.98810   76.65900    -999.25   72.02580    6.77020    -999.25    2.04140    0.00850    0.00600    0.00000   -0.03300    -999.25    0.00000   14.67120    -999.25    0.05610 4320.28080    -999.25    -999.25
 10258.00000    0.04660    0.00050    0.00980    0.01730    0.01890    0.00530    0.00380    0.00010    0.00400 1555.60290   -4.38330    0.01330    0.00430    0.00100    0.04950    2.34150  224.84700    0.00000    0.00000   78.01900    0.00000    3.81590   76.16940   67.07790  215.71520   55.75070    1.95260   77.42030    -999.25   70.61750    6.43330    -999.25    2.08720    0.01130    0.01040    0.00000   -0.02840    -999.25    0.00000   14.87290    -999.25    0.05980 4346.25830    -999.25    -999.25
 10258.50000    0.04420    0.00070    0.00730    0.01810    0.01810    0.00720    0.00300    0.00010    0.00450 1558.68100   -2.70600    0.01470    0.00440    0.00100    0.05090    2.42150  224.84700    0.00000    0.00000   76.18010    0.00000    3.85230   74.37410   67.65450  215.72240   55.39950    1.94940   74.59890    -999.25   70.44830    6.33990    -999.25    2.09820    0.01320    0.01320    0.00000   -0.02860    -999.25    0.00000   16.59650    -999.25    0.05890 4349.10160    -999.25    -999.25
