~Version ---------------------------------------------------
VERS     .                                                                                     2.0 : CWLS log ASCII Standard -VERSION 2.0
WRAP     .                                                                                      NO : One Line per depth step
PROD     .                                                                            Schlumberger : LAS Producer
PROG     .                                                                       DLIS to ASCII 2.3 : LAS Program name and version
CREA     .             2014/09/27 10:36                          :LAS Creation date {YYYY/MM/DD hh : mm}
DLIS_CREA. 2014-Sep-26 05:39                          :DLIS Creation date and time {YYYY-MMM-DD hh : mm}
SOURCE   .                                                    91826cdd-719c-42a6-af83-d6b9542bd142 : DLIS File Name
~Well ------------------------------------------------------
STRT.F                       8395.0 : START DEPTH
STOP.F                      10723.0 : STOP DEPTH
STEP.F                          0.5 : STEP
NULL.                       -999.25 : NULL VALUE
COMP.                               : COMPANY
WELL.                       Bakken2 : WELL
FLD .                               : FIELD
LOC .                               : LOCATION
CNTY.                               : COUNTY
STAT.                  NORTH DAKOTA : STATE
CTRY.                               : COUNTRY
SRVC.                  Schlumberger : SERVICE COMPANY
LATI.DEG                     : LATITUDE
LONG.DEG         -  : LONGITUDE
API .                    : API NUMBER
DATE.                     : LOG DATE
UWI .                  : UNIQUE WELL ID
~Curve Information -----------------------------------------
DEPT        .F     : DEPTH (BOREHOLE) {F12.4}
BFV         .CFCF  : Bound Fluid Volume {F11.4}
CBP1        .CFCF  : CMR Bin Porosity 1 {F11.4}
CBP2        .CFCF  : CMR Bin Porosity 2 {F11.4}
CBP3        .CFCF  : CMR Bin Porosity 3 {F11.4}
CBP4        .CFCF  : CMR Bin Porosity 4 {F11.4}
CBP5        .CFCF  : CMR Bin Porosity 5 {F11.4}
CBP6        .CFCF  : CMR Bin Porosity 6 {F11.4}
CBP7        .CFCF  : CMR Bin Porosity 7 {F11.4}
CBP8        .CFCF  : CMR Bin Porosity 8 {F11.4}
CDF         .LBF   : Calibrated Downhole Force {F11.4}
CFTC        .HZ    : Corrected Far Thermal Count Rate {F11.4}
CMFF        .CFCF  : CMR Free Fluid {F11.4}
CMFF_SIG    .CFCF  : Standard Deviation of CMR Free Fluid {F11.4}
CMR_PHI_CONV.      : CMR Porosity Conversion factor {F11.4}
CMRP_3MS    .CFCF  : CMR Porosity with T2 values greater than 3 ms {F11.4}
CNTC        .HZ    : Corrected Near Thermal Count Rate {F11.4}
CTEM        .DEGF  : Cartridge Temperature {F11.4}
DCAL        .IN    : Differential Caliper {F11.4}
DNPH        .CFCF  : Difference between Corrected Thermal Neutron Porosity and Uncorrected {F11.4}
ECGR        .GAPI  : Environmentally Corrected Gamma Ray {F11.4}
ED          .F     : East Departure {F11.4}
GDEV        .DEG   : HGNS Hole Deviation from Gravity {F11.4}
GR          .GAPI  : Gamma Ray {F11.4}
GR_EDTC     .GAPI  : Gamma Ray {F11.4}
GTEM        .DEGF  : Generalized Borehole Temperature {F11.4}
HCGR        .GAPI  : HNGS Computed Gamma Ray {F11.4}
HFK         .%     : HNGS Formation Potassium Concentration {F11.4}
HGR         .GAPI  : High Resolution Gamma Ray {F11.4}
HNPO        .CFCF  : High Resolution Enhanced Thermal Neutron Porosity in Selected Lithology {F11.4}
HSGR        .GAPI  : HNGS Standard Gamma-Ray {F11.4}
HTHO        .PPM   : HNGS Formation Thorium Concentration {F11.4}
HTNP        .CFCF  : High Resolution Thermal Neutron Porosity (Ratio Method) in Selected Lithology {F11.4}
HURA        .PPM   : HNGS Formation Uranium Concentration {F11.4}
KSDR        .MD    : SDR Permeability {F11.4}
KTIM        .MD    : Timur/Coates Permeability {F11.4}
ND          .F     : North Departure {F11.4}
NPHI        .CFCF  : Thermal Neutron Porosity (original Ratio Method) in Selected Lithology {F11.4}
NPOR        .CFCF  : Enhanced Thermal Neutron Porosity in Selected Lithology {F11.4}
STIT        .F     : Stuck Tool Indicator, Total {F11.4}
T2LM        .MS    : T2 Logarithmic Mean {F11.4}
T2LM_SIG    .MS    : Standard Deviation of T2 Logarithmic Mean {F11.4}
TCMR        .CFCF  : Total CMR Porosity {F11.4}
TENS        .LBF   : Cable Tension {F11.4}
TNPH        .CFCF  : Thermal Neutron Porosity (Ratio Method) in Selected Lithology {F11.4}
HTNP_SAN    .CFCF  : HiRes Thermal Neutron Porosity (matrix Sandstone) {F11.4}
~Params ----------------------------------------------------
CN  .        WHITING OIL & GAS CORPORATION : Company Name
WN  .                           JB 11-6TFH : Well Name
FN  .                               SANISH : Field Name
FL  .                  219' FNL & 948' FWL : Field Location
FL1 .                                 LOT4 : Field Location, Line 1
COUN.                            MOUNTRAIL : Rig Name
STAT.                         NORTH DAKOTA : State or Province
NATI.                                      : Nation
DATE.                           25/09/2014 : Tools Above Rotary Table Date
APIN.                         33-061-03238 : API Serial Number
SECT.                                    6 : Section
TOWN.                                 153N : Township
RANG.                                  92W : Range
DMF .                                   MR : Drilling Measured From (Name of Drilling Elevation Reference)
LMF .                                   MR : Logging Measured From (Name of Logging Elevation Reference)
PDAT.                                   NM : Permanent Datum
ENGI.                        AARON BAGWELL : Engineer s Name
WITN.                         JOHN SCHAFER : Witness s Name
LATI.                    48.092747 degrees : Latitude
LONG.                   -102.56534 degrees : Longitude
LUL .                            WILLISTON : Logging Unit Location
LUN .                                 2223 : Logging Unit Number
RUN .                                  TWO : Run Number
SON .                           CWSZ-00040 : Service Order Number
BHT .DEGF                            212.0 : Bottom Hole Temperature
BS  .IN                               8.75 : Bit Size
DFD .LB/G                             10.3 : Drilling Fluid Density
DFV .S                                63.0 : Drilling Fluid Viscosity
DFL .C3                                6.0 : Drilling Fluid Loss
RMFS.OHMM                          -999.25 : Resistivity of Mud Filtrate Sample
EKB .F                              2078.0 : Elevation of Kelly Bushing
EGL .F                              2052.0 : Elevation of Ground Level
BLI .F                             10712.0 : Bottom Log Interval
BSAL.PPM                               0.0 : Borehole Salinity
FLEV.F                                 8.0 : Depth of Drilling Fluid Level to LMF (Log Measured From)
MCST.DEGF                          -999.25 : Mudcake Sample Temperature
MFST.DEGF                          -999.25 : Mud Filtrate Sample Temperature
MRT .DEGF                            220.0 : Maximum Recorded Temperature
MST .DEGF                          -999.25 : Mud Sample Temperature
RMCS.OHMM                          -999.25 : Resistivity of Mud Cake Sample
RMS .OHMM                          -999.25 : Resistivity of Mud Sample
RW  .OHMM                              1.0 : Connate Water Resistivity
TDD .F                             10720.0 : Total Depth (Driller)
TDL .F                             10720.0 : Logger Total Depth
TLI .F                              8575.0 : Top Log Interval
HIDE.                               SANISH : Header Identifier
MATR.                                 LIME : Rock Matrix for Neutron Porosity Corrections
FNUM.                                  1.0 : F-Numerator for Formation Factor Formula
FEXP.                                  2.0 : Exponent "m" for Formation Factor Formula
DFT .                                  OIL : Drilling Fluid Type
DFPH.                              -999.25 : Drilling Fluid pH
MCSS.                              Pressed : Mudcake Sample Source
MFSS.                                      : Mud Filtrate Sample Source
FD  .G/C3                              1.0 : Fluid Density
MSS .                          Active Tank : Mud Sample Source
OS1 .                                      : Other Services Line 1
OS2 .                                      : Other Services Line 2
OS3 .                                      : Other Services Line 3
OS4 .                                      : Other Services Line 4
OS5 .                                      : Other Services Line 5
R1  .                                      : Remarks Line 1
R2  .                                      : Remarks Line 2
R3  .                                      : Remarks Line 3
R4  .                                      : Remarks Line 4
R5  .                                      : Remarks Line 5
R6  .                                      : Remarks Line 6
R7  .                                      : Remarks Line 7
R8  . Thank you for choosing Schlumberger. : Remarks Line 8
TCS .                              00 30 h : Time Circulation Stopped
TLAB.                              21 12 h : Time Logging on Bottom
NMT .                             NOBARITE : HRDD Mud Type for Nuclear Devices
EPD .C3                             2052.0 : Elevation of Permanent Datum above Mean Sea Level
APD .F                                26.0 : Elevation of Depth Reference (LMF) above Permanent Datum
~Other -----------------------------------------------------
~ASCII -----------------------------------------------------
# ...
 10403.00000    0.07170    0.00440    0.02190    0.03190    0.01350    0.00000    0.00000    0.00000    0.00270 1589.98790   -2.63320    0.00270    0.00410    0.00100    0.04810    1.59680  228.80000    0.00000    0.00000   88.79590    0.00000    3.93120   86.69080   82.40140  217.80320   76.64110    2.85700   89.18720    -999.25   86.96120    7.83170    -999.25    1.42620    0.00340    0.00040    0.00000   -0.02850    -999.25    0.00000    5.23820    -999.25    0.07440 4447.19970    -999.25    -999.25
 10403.50000    0.06690    0.00100    0.01750    0.03870    0.00970    0.00000    0.00000    0.00000    0.00270 1581.46300   -2.18150    0.00270    0.00410    0.00100    0.05110    1.82510  228.80000    0.00000    0.00000   90.09600    0.00000    3.86170   87.96000   83.32320  217.81040   77.64570    2.86600   85.11760    -999.25   88.14060    8.10140    -999.25    1.42080    0.00330    0.00040    0.00000   -0.02070    -999.25    0.00000    5.88470    -999.25    0.06960 4461.73680    -999.25    -999.25
 10404.00000    0.07050    0.00260    0.01720    0.04440    0.00640    0.00000    0.00000    0.00000    0.00280 1586.94020   -2.60680    0.00280    0.00410    0.00100    0.05360    1.45030  228.80000    0.00000    0.00000   89.77090    0.00000    3.97000   87.64260   86.58190  217.81760   79.23460    2.92970   89.57450    -999.25   91.27080    8.23750    -999.25    1.55850    0.00340    0.00050    0.00000   -0.01730    -999.25    0.00000    5.40220    -999.25    0.07330 4477.50000    -999.25    -999.25
 10404.50000    0.08080    0.00970    0.02050    0.04150    0.00910    0.00040    0.00010    0.00000    0.00270 1599.79590   -2.55140    0.00320    0.00410    0.00100    0.05380    0.71630  228.80000    0.00000    0.00000   92.54680    0.00000    3.83140   90.35270   90.36530  217.82480   79.93440    2.96040   88.23500    -999.25   92.42680    8.28210    -999.25    1.68680    0.00380    0.00080    0.00000   -0.01950    -999.25    0.00000    4.38080    -999.25    0.08400 4456.38330    -999.25    -999.25
 10405.00000    0.08530    0.01180    0.02170    0.03400    0.01780    0.00120    0.00000    0.00000    0.00130 1587.10940   -4.49210    0.00240    0.00410    0.00100    0.05430   -0.21190  228.80000    0.00000    0.00000   87.65450    0.00000    3.97700   85.57640   87.17130  217.83200   76.94960    2.82250   93.24320    -999.25   89.34740    8.13270    -999.25    1.67350    0.00440    0.00050    0.00000   -0.02270    -999.25    0.00000    4.28870    -999.25    0.08780 4478.47460    -999.25    -999.25
 10405.50000    0.07520    0.00130    0.01760    0.03280    0.02350    0.00120    0.00000    0.00000    0.00090 1574.12020   -4.97880    0.00220    0.00410    0.00100    0.05840   -0.20660  228.80000    0.00000    0.00000   85.88060    0.00000    3.92130   83.84460   82.86610  217.83920   71.69740    2.64060   75.24640    -999.25   84.24400    7.51450    -999.25    1.68770    0.00600    0.00030    0.00000    -999.25    -999.25    0.00000    6.48750    -999.25    0.07730 4429.46680    -999.25    -999.25
 10406.00000    0.06930    0.00180    0.01800    0.02980    0.01970    0.00190    0.00000    0.00000    0.00080 1571.11770   -5.92640    0.00270    0.00400    0.00100    0.05220    0.68730  228.80000    0.00000    0.00000   89.85070    0.00000    3.87790   87.72060   81.18680  217.84640   71.00090    2.62570   83.03950    -999.25   84.61560    7.37880    -999.25    1.85980    0.00400    0.00040    0.00000   -0.02910    -999.25    0.00000    6.12050    -999.25    0.07200 4417.47460    -999.25    -999.25
 10406.50000    0.07700    0.00650    0.02320    0.02800    0.01940    0.00100    0.00000    0.00000    0.00120 1563.73390   -4.23510    0.00210    0.00390    0.00100    0.04950    1.24850  228.80000    0.00000    0.00000   95.20190    0.00000    3.91220   92.94490   81.62220  217.85360   71.74810    2.69760  104.79610    -999.25   87.23630    7.19740    -999.25    2.09660    0.00380    0.00030    0.00000   -0.02420    -999.25    0.00000    4.88800    -999.25    0.07920 4439.91500    -999.25    -999.25
 10407.00000    0.08470    0.00970    0.02330    0.02940    0.02230    0.00070    0.00000    0.00000    0.00100 1586.18860   -3.60180    0.00170    0.00390    0.00100    0.05350    0.86180  228.80000    0.00000    0.00000   94.64010    0.00000    3.83790   92.39640   82.73160  217.86080   71.62170    2.69910   91.19220    -999.25   87.70230    7.14790    -999.25    2.14660    0.00480    0.00020    0.00000   -0.01860    -999.25    0.00000    4.63510    -999.25    0.08640 4439.47460    -999.25    -999.25
 10407.50000    0.08210    0.00810    0.01810    0.03020    0.02570    0.00020    0.00000    0.00000    0.00110 1594.61250   -3.41190    0.00130    0.00400    0.00100    0.05720    0.47540  228.80000    0.00000    0.00000   87.63640    0.00000    4.15240   85.55880   78.97300  217.86800   65.94240    2.53660   81.39410    -999.25   82.37940    6.27990    -999.25    2.20060    0.00550    0.00010    0.00000   -0.01050    -999.25    0.00000    5.34830    -999.25    0.08340 4432.44970    -999.25    -999.25
 10408.00000    0.07300    0.00760    0.01260    0.02970    0.02310    0.00010    0.00210    0.00030    0.00000 1597.52810   -2.75160    0.00260    0.00420    0.00100    0.05540   -0.35410  228.80000    0.00000    0.00000   88.06560    0.00000    4.07080   85.97780   80.42040  217.87520   65.21410    2.51940   84.36300    -999.25   82.39750    6.14710    -999.25    2.31750    0.00440    0.00040    0.00000   -0.01330    -999.25    0.00000    5.78380    -999.25    0.07560 4499.11470    -999.25    -999.25
 10408.50000    0.07320    0.00980    0.01310    0.03020    0.02010    0.00010    0.00340    0.00030    0.00000 1601.19490   -0.69670    0.00380    0.00410    0.00100    0.05420   -2.06580  228.80000    0.00000    0.00000   93.66860    0.00000    3.99160   91.44800   85.10650  217.88240   70.51640    2.69490   92.20980    -999.25   88.60970    6.81880    -999.25    2.43870    0.00410    0.00100    0.00000    -999.25    -999.25    0.00000    5.36460    -999.25    0.07710 4483.01660    -999.25    -999.25
 10409.00000    0.08520    0.00980    0.01400    0.04050    0.02080    0.00140    0.00160    0.00000    0.00240 1606.70200   -1.17440    0.00540    0.00420    0.00100    0.06670   -2.57130  228.80000    0.00000    0.00000   95.44920    0.00000    4.22430   93.18630   89.99470  217.88960   73.52460    2.81290   97.96060    -999.25   92.35400    7.09140    -999.25    2.52730    0.00940    0.00270    0.00000    -999.25    -999.25    0.00000    5.92230    -999.25    0.09050 4502.06540    -999.25    -999.25
 10409.50000    0.08960    0.01090    0.01220    0.04030    0.02630    0.00190    0.00010    0.00140    0.00250 1621.43550    0.14490    0.00590    0.00420    0.00100    0.07240   -1.02590  228.80000    0.00000    0.00000   94.10450    0.00000    4.05810   91.87350   88.26700  217.89680   73.48780    2.80510   89.61600    -999.25   91.26690    7.12540    -999.25    2.35140    0.01400    0.00360    0.00000    -999.25    -999.25    0.00000    6.47790    -999.25    0.09550 4494.85740    -999.25    -999.25
 10410.00000    0.08180    0.00390    0.01430    0.04070    0.02290    0.00850    0.00020    0.00000    0.00260 1594.34640   -0.84690    0.01130    0.00420    0.00100    0.07490   -0.87460  228.80000    0.00000    0.00000   87.74120    0.00000    3.99060   85.66110   80.96870  217.90400   68.05200    2.54730   88.41210    -999.25   84.26280    6.89330    -999.25    2.11410    0.02000    0.01420    0.00000    -999.25    -999.25    0.00000    8.17270    -999.25    0.09310 4450.62890    -999.25    -999.25
 10410.50000    0.07440    0.00100    0.01760    0.03550    0.02030    0.01380    0.00000    0.00000    0.00190 1596.82410    1.02270    0.01570    0.00420    0.00100    0.07140   -0.31290  228.80000    0.00000    0.00000   86.33650    0.00000    4.15500   84.28970   75.29300  217.91120   63.42020    2.38160   79.15410    -999.25   79.29030    6.37910    -999.25    2.02660    0.02130    0.02920    0.00000    -999.25    -999.25    0.00000    8.99050    -999.25    0.09010 4516.73050    -999.25    -999.25
