~Version ---------------------------------------------------
VERS     .                                                                                     2.0 : CWLS log ASCII Standard -VERSION 2.0
WRAP     .                                                                                      NO : One Line per depth step
PROD     .                                                                            Schlumberger : LAS Producer
PROG     .                                                                       DLIS to ASCII 2.3 : LAS Program name and version
CREA     .             2014/09/27 10:36                          :LAS Creation date {YYYY/MM/DD hh : mm}
DLIS_CREA. 2014-Sep-26 05:39                          :DLIS Creation date and time {YYYY-MMM-DD hh : mm}
SOURCE   .                                                    91826cdd-719c-42a6-af83-d6b9542bd142 : DLIS File Name
~Well ------------------------------------------------------
STRT.F                       8395.0 : START DEPTH
STOP.F                      10723.0 : STOP DEPTH
STEP.F                          0.5 : STEP
NULL.                       -999.25 : NULL VALUE
COMP.                               : COMPANY
WELL.                       Bakken2 : WELL
FLD .                               : FIELD
LOC .                               : LOCATION
CNTY.                               : COUNTY
STAT.                  NORTH DAKOTA : STATE
CTRY.                               : COUNTRY
SRVC.                  Schlumberger : SERVICE COMPANY
LATI.DEG                     : LATITUDE
LONG.DEG         -  : LONGITUDE
API .                    : API NUMBER
DATE.                     : LOG DATE
UWI .                  : UNIQUE WELL ID
~Curve Information -----------------------------------------
DEPT        .F     : DEPTH (BOREHOLE) {F12.4}
BFV         .CFCF  : Bound Fluid Volume {F11.4}
CBP1        .CFCF  : CMR Bin Porosity 1 {F11.4}
CBP2        .CFCF  : CMR Bin Porosity 2 {F11.4}
CBP3        .CFCF  : CMR Bin Porosity 3 {F11.4}
CBP4        .CFCF  : CMR Bin Porosity 4 {F11.4}
CBP5        .CFCF  : CMR Bin Porosity 5 {F11.4}
CBP6        .CFCF  : CMR Bin Porosity 6 {F11.4}
CBP7        .CFCF  : CMR Bin Porosity 7 {F11.4}
CBP8        .CFCF  : CMR Bin Porosity 8 {F11.4}
CDF         .LBF   : Calibrated Downhole Force {F11.4}
CFTC        .HZ    : Corrected Far Thermal Count Rate {F11.4}
CMFF        .CFCF  : CMR Free Fluid {F11.4}
CMFF_SIG    .CFCF  : Standard Deviation of CMR Free Fluid {F11.4}
CMR_PHI_CONV.      : CMR Porosity Conversion factor {F11.4}
CMRP_3MS    .CFCF  : CMR Porosity with T2 values greater than 3 ms {F11.4}
CNTC        .HZ    : Corrected Near Thermal Count Rate {F11.4}
CTEM        .DEGF  : Cartridge Temperature {F11.4}
DCAL        .IN    : Differential Caliper {F11.4}
DNPH        .CFCF  : Difference between Corrected Thermal Neutron Porosity and Uncorrected {F11.4}
ECGR        .GAPI  : Environmentally Corrected Gamma Ray {F11.4}
ED          .F     : East Departure {F11.4}
GDEV        .DEG   : HGNS Hole Deviation from Gravity {F11.4}
GR          .GAPI  : Gamma Ray {F11.4}
GR_EDTC     .GAPI  : Gamma Ray {F11.4}
GTEM        .DEGF  : Generalized Borehole Temperature {F11.4}
HCGR        .GAPI  : HNGS Computed Gamma Ray {F11.4}
HFK         .%     : HNGS Formation Potassium Concentration {F11.4}
HGR         .GAPI  : High Resolution Gamma Ray {F11.4}
HNPO        .CFCF  : High Resolution Enhanced Thermal Neutron Porosity in Selected Lithology {F11.4}
HSGR        .GAPI  : HNGS Standard Gamma-Ray {F11.4}
HTHO        .PPM   : HNGS Formation Thorium Concentration {F11.4}
HTNP        .CFCF  : High Resolution Thermal Neutron Porosity (Ratio Method) in Selected Lithology {F11.4}
HURA        .PPM   : HNGS Formation Uranium Concentration {F11.4}
KSDR        .MD    : SDR Permeability {F11.4}
KTIM        .MD    : Timur/Coates Permeability {F11.4}
ND          .F     : North Departure {F11.4}
NPHI        .CFCF  : Thermal Neutron Porosity (original Ratio Method) in Selected Lithology {F11.4}
NPOR        .CFCF  : Enhanced Thermal Neutron Porosity in Selected Lithology {F11.4}
STIT        .F     : Stuck Tool Indicator, Total {F11.4}
T2LM        .MS    : T2 Logarithmic Mean {F11.4}
T2LM_SIG    .MS    : Standard Deviation of T2 Logarithmic Mean {F11.4}
TCMR        .CFCF  : Total CMR Porosity {F11.4}
TENS        .LBF   : Cable Tension {F11.4}
TNPH        .CFCF  : Thermal Neutron Porosity (Ratio Method) in Selected Lithology {F11.4}
HTNP_SAN    .CFCF  : HiRes Thermal Neutron Porosity (matrix Sandstone) {F11.4}
~Params ----------------------------------------------------
CN  .        WHITING OIL & GAS CORPORATION : Company Name
WN  .                           JB 11-6TFH : Well Name
FN  .                               SANISH : Field Name
FL  .                  219' FNL & 948' FWL : Field Location
FL1 .                                 LOT4 : Field Location, Line 1
COUN.                            MOUNTRAIL : Rig Name
STAT.                         NORTH DAKOTA : State or Province
NATI.                                      : Nation
DATE.                           25/09/2014 : Tools Above Rotary Table Date
APIN.                         33-061-03238 : API Serial Number
SECT.                                    6 : Section
TOWN.                                 153N : Township
RANG.                                  92W : Range
DMF .                                   MR : Drilling Measured From (Name of Drilling Elevation Reference)
LMF .                                   MR : Logging Measured From (Name of Logging Elevation Reference)
PDAT.                                   NM : Permanent Datum
ENGI.                        AARON BAGWELL : Engineer s Name
WITN.                         JOHN SCHAFER : Witness s Name
LATI.                    48.092747 degrees : Latitude
LONG.                   -102.56534 degrees : Longitude
LUL .                            WILLISTON : Logging Unit Location
LUN .                                 2223 : Logging Unit Number
RUN .                                  TWO : Run Number
SON .                           CWSZ-00040 : Service Order Number
BHT .DEGF                            212.0 : Bottom Hole Temperature
BS  .IN                               8.75 : Bit Size
DFD .LB/G                             10.3 : Drilling Fluid Density
DFV .S                                63.0 : Drilling Fluid Viscosity
DFL .C3                                6.0 : Drilling Fluid Loss
RMFS.OHMM                          -999.25 : Resistivity of Mud Filtrate Sample
EKB .F                              2078.0 : Elevation of Kelly Bushing
EGL .F                              2052.0 : Elevation of Ground Level
BLI .F                             10712.0 : Bottom Log Interval
BSAL.PPM                               0.0 : Borehole Salinity
FLEV.F                                 8.0 : Depth of Drilling Fluid Level to LMF (Log Measured From)
MCST.DEGF                          -999.25 : Mudcake Sample Temperature
MFST.DEGF                          -999.25 : Mud Filtrate Sample Temperature
MRT .DEGF                            220.0 : Maximum Recorded Temperature
MST .DEGF                          -999.25 : Mud Sample Temperature
RMCS.OHMM                          -999.25 : Resistivity of Mud Cake Sample
RMS .OHMM                          -999.25 : Resistivity of Mud Sample
RW  .OHMM                              1.0 : Connate Water Resistivity
TDD .F                             10720.0 : Total Depth (Driller)
TDL .F                             10720.0 : Logger Total Depth
TLI .F                              8575.0 : Top Log Interval
HIDE.                               SANISH : Header Identifier
MATR.                                 LIME : Rock Matrix for Neutron Porosity Corrections
FNUM.                                  1.0 : F-Numerator for Formation Factor Formula
FEXP.                                  2.0 : Exponent "m" for Formation Factor Formula
DFT .                                  OIL : Drilling Fluid Type
DFPH.                              -999.25 : Drilling Fluid pH
MCSS.                              Pressed : Mudcake Sample Source
MFSS.                                      : Mud Filtrate Sample Source
FD  .G/C3                              1.0 : Fluid Density
MSS .                          Active Tank : Mud Sample Source
OS1 .                                      : Other Services Line 1
OS2 .                                      : Other Services Line 2
OS3 .                                      : Other Services Line 3
OS4 .                                      : Other Services Line 4
OS5 .                                      : Other Services Line 5
R1  .                                      : Remarks Line 1
R2  .                                      : Remarks Line 2
R3  .                                      : Remarks Line 3
R4  .                                      : Remarks Line 4
R5  .                                      : Remarks Line 5
R6  .                                      : Remarks Line 6
R7  .                                      : Remarks Line 7
R8  . Thank you for choosing Schlumberger. : Remarks Line 8
TCS .                              00 30 h : Time Circulation Stopped
TLAB.                              21 12 h : Time Logging on Bottom
NMT .                             NOBARITE : HRDD Mud Type for Nuclear Devices
EPD .C3                             2052.0 : Elevation of Permanent Datum above Mean Sea Level
APD .F                                26.0 : Elevation of Depth Reference (LMF) above Permanent Datum
~Other -----------------------------------------------------
~ASCII -----------------------------------------------------
# ...
 9011.00000    0.00640    0.00000    0.00000    0.00000    0.00640    0.01270    0.00990    0.01440    0.00390 1571.15600   -2.09180    0.04080    0.00420    0.00090    0.04720    1.45230  211.01170    0.00000    0.00000   21.91520    0.00000    3.37890   21.39570   20.16220  197.75840    8.50820    0.24310   19.60630    -999.25   20.61620    1.30280    -999.25    1.49800    0.53050    0.09160    0.00000   -0.02220    -999.25    0.00000  163.54440    -999.25    0.04720 3924.98290    -999.25    -999.25
 9011.50000    0.00060    0.00000    0.00000    0.00000    0.00060    0.01380    0.01650    0.01490    0.00220 1562.43470   -0.59000    0.04740    0.00410    0.00090    0.04800    1.63610  211.01170    0.00000    0.00000   20.04530    0.00000    3.41610   19.57010   19.55750  197.76560    7.83440    0.21510   18.27970    -999.25   19.25180    1.25110    -999.25    1.43950    0.79320    0.10430    0.00000   -0.01960    -999.25    0.00000  193.13050    -999.25    0.04800 3907.14040    -999.25    -999.25
 9012.00000    0.00120    0.00010    0.00100    0.00000    0.00010    0.01460    0.01960    0.01230    0.00150 1556.77600    0.23490    0.04790    0.00420    0.00090    0.04810    1.21440  211.01170    0.00000    0.00000   20.52910    0.00000    3.46810   20.04240   19.29800  197.77280    7.21840    0.19760   20.87740    -999.25   18.59680    1.15620    -999.25    1.45010    0.58160    0.12450    0.00000   -0.02750    -999.25    0.00000  157.64430    -999.25    0.04920 3919.84200    -999.25    -999.25
 9012.50000    0.00290    0.00050    0.00120    0.00000    0.00120    0.01560    0.01740    0.01020    0.00180 1557.02490   -2.23410    0.04510    0.00410    0.00090    0.04620    1.79460  211.01170    0.00000    0.00000   20.97140    0.00000    3.45480   20.47420   19.37770  197.78000    7.30520    0.18330   20.96350    -999.25   18.51880    1.26760    -999.25    1.44100    0.36860    0.10280    0.00000   -0.02820    -999.25    0.00000  132.18360    -999.25    0.04790 3921.77590    -999.25    -999.25
 9013.00000    0.01290    0.00720    0.00000    0.00000    0.00570    0.01440    0.01170    0.00740    0.00640 1553.57070   -2.40500    0.03990    0.00400    0.00090    0.04560    1.56780  211.01170    0.00000    0.00000   19.70320    0.00000    3.38500   19.23610   19.00100  197.78720    6.65090    0.17610   19.55070    -999.25   17.63290    1.09980    -999.25    1.44230    0.15130    0.20960    0.00000   -0.02990    -999.25    0.00000   69.69730    -999.25    0.05280 3908.05200    -999.25    -999.25
 9013.50000    0.01340    0.00810    0.00000    0.00000    0.00530    0.01320    0.00630    0.01010    0.00730 1553.35420   -1.44020    0.03690    0.00420    0.00090    0.04220    1.71990  211.01170    0.00000    0.00000   18.44540    0.00000    3.37430   18.00810   17.98960  197.79440    6.33540    0.16400   17.13540    -999.25   16.22900    1.07000    -999.25    1.29130    0.12070    0.14650    0.00000   -0.02320    -999.25    0.00000   68.71690    -999.25    0.05030 3920.21040    -999.25    -999.25
 9014.00000    0.00340    0.00270    0.00000    0.00000    0.00070    0.01290    0.00740    0.01340    0.00710 1550.04530   -0.88180    0.04070    0.00420    0.00090    0.04140    1.72220  211.01170    0.00000    0.00000   17.69610    0.00000    3.51890   17.27660   17.13570  197.80160    6.27750    0.17640   17.30750    -999.25   16.53360    0.97850    -999.25    1.37620    0.43680    0.05490    0.00000   -0.01740    -999.25    0.00000  169.89010    -999.25    0.04410 3911.96530    -999.25    -999.25
 9014.50000    0.00180    0.00180    0.00000    0.00000    0.00000    0.01120    0.01380    0.01370    0.00940 1549.52380   -2.15620    0.04810    0.00370    0.00090    0.04810    0.49620  211.01170    0.00000    0.00000   17.96390    0.00000    3.41720   17.53800   17.82970  197.80880    6.50860    0.18650   17.38340    -999.25   16.93110    0.99370    -999.25    1.38290    1.36600    0.13760    0.00000   -0.01460    -999.25    0.00000  235.15840    -999.25    0.04990 3896.22440    -999.25    -999.25
 9015.00000    0.01270    0.00030    0.00820    0.00420    0.00000    0.00810    0.01980    0.01390    0.01140 1552.36010   -2.97790    0.05320    0.00410    0.00090    0.05740   -0.79080  211.01170    0.00000    0.00000   17.96380    0.00000    3.40430   17.53800   18.34510  197.81600    6.10060    0.18450   18.00110    -999.25   17.19930    0.87470    -999.25    1.44290    1.23420    0.99600    0.00000   -0.01450    -999.25    0.00000  127.80790    -999.25    0.06590 3927.48190    -999.25    -999.25
 9015.50000    0.02370    0.00060    0.01590    0.00710    0.00000    0.00680    0.01970    0.01430    0.01200 1550.50420   -3.69170    0.05270    0.00480    0.00090    0.05990   -0.83530  211.01170    0.00000    0.00000   18.53360    0.00000    3.47370   18.09430   18.35190  197.82320    5.98810    0.18070   17.23660    -999.25   16.58720    0.86050    -999.25    1.40220    0.74850    1.69070    0.00000    -999.25    -999.25    0.00000   74.02890    -999.25    0.07640 3912.00000    -999.25    -999.25
 9016.00000    0.01900    0.00010    0.01030    0.00860    0.00000    0.00510    0.01890    0.01690    0.00810 1548.84720   -1.76570    0.04900    0.00400    0.00090    0.05770   -0.55820  211.01170    0.00000    0.00000   18.69490    0.00000    3.39640   18.25170   17.27180  197.83040    5.66500    0.17480   19.04940    -999.25   17.12610    0.79180    -999.25    1.53820    0.67300    1.23160    0.00000    -999.25    -999.25    0.00000   88.70680    -999.25    0.06800 3889.50850    -999.25    -999.25
 9016.50000    0.01800    0.00230    0.00610    0.00870    0.00090    0.00440    0.01670    0.01950    0.00410 1553.33760   -0.02200    0.04470    0.00400    0.00090    0.05420   -0.78590  211.01170    0.00000    0.00000   19.66240    0.00000    3.58820   19.19630   17.14170  197.83760    4.76310    0.16150   18.35050    -999.25   17.08310    0.58050    -999.25    1.65080    0.41440    0.70250    0.00000    -999.25    -999.25    0.00000   81.93660    -999.25    0.06270 3922.62330    -999.25    -999.25
 9017.00000    0.03210    0.01140    0.00570    0.00700    0.00790    0.00110    0.01500    0.01120    0.00750 1547.20010   -0.76240    0.03480    0.00400    0.00090    0.04970    0.91440  211.01170    0.00000    0.00000   19.53100    0.00000    3.38650   19.06800   17.83100  197.84480    4.97810    0.16940   20.14310    -999.25   16.80370    0.60320    -999.25    1.56460    0.09800    0.23430    0.00000   -0.01420    -999.25    0.00000   35.02250    -999.25    0.06680 3899.18650    -999.25    -999.25
 9017.50000    0.01710    0.00110    0.00460    0.00580    0.00570    0.00300    0.01590    0.00620    0.01000 1555.69140   -1.12300    0.03500    0.00400    0.00090    0.04650    0.57490  211.01170    0.00000    0.00000   19.71320    0.00000    3.40790   19.24590   17.62840  197.85200    4.88030    0.16490   18.62640    -999.25   16.33570    0.59830    -999.25    1.50100    0.25170    0.19200    0.00000   -0.02210    -999.25    0.00000   92.12440    -999.25    0.05220 3918.24170    -999.25    -999.25
 9018.00000    0.01140    0.00020    0.00310    0.00020    0.00780    0.00720    0.01310    0.01070    0.00820 1557.11300   -5.06670    0.03920    0.00390    0.00090    0.04730    0.50100  211.01170    0.00000    0.00000   19.81000    0.00000    3.43540   19.34030   18.37140  197.85920    4.84220    0.17670   19.04500    -999.25   17.21040    0.51700    -999.25    1.61190    0.53720    0.15360    0.00000   -0.01990    -999.25    0.00000  143.10400    -999.25    0.05060 3924.00020    -999.25    -999.25
 9018.50000    0.00850    0.00000    0.00000    0.00000    0.00850    0.01010    0.01070    0.01620    0.00450 1555.97770   -5.06580    0.04150    0.00400    0.00090    0.05000   -0.14100  211.01170    0.00000    0.00000   21.14540    0.00000    3.45320   20.64410   17.50140  197.86640    5.50440    0.18910   20.43170    -999.25   19.03450    0.65630    -999.25    1.77310    0.72200    0.14130    0.00000   -0.02080    -999.25    0.00000  169.72660    -999.25    0.05000 3913.41650    -999.25    -999.25
