~Version ---------------------------------------------------
VERS     .                                                                                     2.0 : CWLS log ASCII Standard -VERSION 2.0
WRAP     .                                                                                      NO : One Line per depth step
PROD     .                                                                            Schlumberger : LAS Producer
PROG     .                                                                       DLIS to ASCII 2.3 : LAS Program name and version
CREA     .             2014/09/27 10:36                          :LAS Creation date {YYYY/MM/DD hh : mm}
DLIS_CREA. 2014-Sep-26 05:39                          :DLIS Creation date and time {YYYY-MMM-DD hh : mm}
SOURCE   .                                                    91826cdd-719c-42a6-af83-d6b9542bd142 : DLIS File Name
~Well ------------------------------------------------------
STRT.F                       8395.0 : START DEPTH
STOP.F                      10723.0 : STOP DEPTH
STEP.F                          0.5 : STEP
NULL.                       -999.25 : NULL VALUE
COMP.                               : COMPANY
WELL.                       Bakken2 : WELL
FLD .                               : FIELD
LOC .                               : LOCATION
CNTY.                               : COUNTY
STAT.                  NORTH DAKOTA : STATE
CTRY.                               : COUNTRY
SRVC.                  Schlumberger : SERVICE COMPANY
LATI.DEG                     : LATITUDE
LONG.DEG         -  : LONGITUDE
API .                    : API NUMBER
DATE.                     : LOG DATE
UWI .                  : UNIQUE WELL ID
~Curve Information -----------------------------------------
DEPT        .F     : DEPTH (BOREHOLE) {F12.4}
BFV         .CFCF  : Bound Fluid Volume {F11.4}
CBP1        .CFCF  : CMR Bin Porosity 1 {F11.4}
CBP2        .CFCF  : CMR Bin Porosity 2 {F11.4}
CBP3        .CFCF  : CMR Bin Porosity 3 {F11.4}
CBP4        .CFCF  : CMR Bin Porosity 4 {F11.4}
CBP5        .CFCF  : CMR Bin Porosity 5 {F11.4}
CBP6        .CFCF  : CMR Bin Porosity 6 {F11.4}
CBP7        .CFCF  : CMR Bin Porosity 7 {F11.4}
CBP8        .CFCF  : CMR Bin Porosity 8 {F11.4}
CDF         .LBF   : Calibrated Downhole Force {F11.4}
CFTC        .HZ    : Corrected Far Thermal Count Rate {F11.4}
CMFF        .CFCF  : CMR Free Fluid {F11.4}
CMFF_SIG    .CFCF  : Standard Deviation of CMR Free Fluid {F11.4}
CMR_PHI_CONV.      : CMR Porosity Conversion factor {F11.4}
CMRP_3MS    .CFCF  : CMR Porosity with T2 values greater than 3 ms {F11.4}
CNTC        .HZ    : Corrected Near Thermal Count Rate {F11.4}
CTEM        .DEGF  : Cartridge Temperature {F11.4}
DCAL        .IN    : Differential Caliper {F11.4}
DNPH        .CFCF  : Difference between Corrected Thermal Neutron Porosity and Uncorrected {F11.4}
ECGR        .GAPI  : Environmentally Corrected Gamma Ray {F11.4}
ED          .F     : East Departure {F11.4}
GDEV        .DEG   : HGNS Hole Deviation from Gravity {F11.4}
GR          .GAPI  : Gamma Ray {F11.4}
GR_EDTC     .GAPI  : Gamma Ray {F11.4}
GTEM        .DEGF  : Generalized Borehole Temperature {F11.4}
HCGR        .GAPI  : HNGS Computed Gamma Ray {F11.4}
HFK         .%     : HNGS Formation Potassium Concentration {F11.4}
HGR         .GAPI  : High Resolution Gamma Ray {F11.4}
HNPO        .CFCF  : High Resolution Enhanced Thermal Neutron Porosity in Selected Lithology {F11.4}
HSGR        .GAPI  : HNGS Standard Gamma-Ray {F11.4}
HTHO        .PPM   : HNGS Formation Thorium Concentration {F11.4}
HTNP        .CFCF  : High Resolution Thermal Neutron Porosity (Ratio Method) in Selected Lithology {F11.4}
HURA        .PPM   : HNGS Formation Uranium Concentration {F11.4}
KSDR        .MD    : SDR Permeability {F11.4}
KTIM        .MD    : Timur/Coates Permeability {F11.4}
ND          .F     : North Departure {F11.4}
NPHI        .CFCF  : Thermal Neutron Porosity (original Ratio Method) in Selected Lithology {F11.4}
NPOR        .CFCF  : Enhanced Thermal Neutron Porosity in Selected Lithology {F11.4}
STIT        .F     : Stuck Tool Indicator, Total {F11.4}
T2LM        .MS    : T2 Logarithmic Mean {F11.4}
T2LM_SIG    .MS    : Standard Deviation of T2 Logarithmic Mean {F11.4}
TCMR        .CFCF  : Total CMR Porosity {F11.4}
TENS        .LBF   : Cable Tension {F11.4}
TNPH        .CFCF  : Thermal Neutron Porosity (Ratio Method) in Selected Lithology {F11.4}
HTNP_SAN    .CFCF  : HiRes Thermal Neutron Porosity (matrix Sandstone) {F11.4}
~Params ----------------------------------------------------
CN  .        WHITING OIL & GAS CORPORATION : Company Name
WN  .                           JB 11-6TFH : Well Name
FN  .                               SANISH : Field Name
FL  .                  219' FNL & 948' FWL : Field Location
FL1 .                                 LOT4 : Field Location, Line 1
COUN.                            MOUNTRAIL : Rig Name
STAT.                         NORTH DAKOTA : State or Province
NATI.                                      : Nation
DATE.                           25/09/2014 : Tools Above Rotary Table Date
APIN.                         33-061-03238 : API Serial Number
SECT.                                    6 : Section
TOWN.                                 153N : Township
RANG.                                  92W : Range
DMF .                                   MR : Drilling Measured From (Name of Drilling Elevation Reference)
LMF .                                   MR : Logging Measured From (Name of Logging Elevation Reference)
PDAT.                                   NM : Permanent Datum
ENGI.                        AARON BAGWELL : Engineer s Name
WITN.                         JOHN SCHAFER : Witness s Name
LATI.                    48.092747 degrees : Latitude
LONG.                   -102.56534 degrees : Longitude
LUL .                            WILLISTON : Logging Unit Location
LUN .                                 2223 : Logging Unit Number
RUN .                                  TWO : Run Number
SON .                           CWSZ-00040 : Service Order Number
BHT .DEGF                            212.0 : Bottom Hole Temperature
BS  .IN                               8.75 : Bit Size
DFD .LB/G                             10.3 : Drilling Fluid Density
DFV .S                                63.0 : Drilling Fluid Viscosity
DFL .C3                                6.0 : Drilling Fluid Loss
RMFS.OHMM                          -999.25 : Resistivity of Mud Filtrate Sample
EKB .F                              2078.0 : Elevation of Kelly Bushing
EGL .F                              2052.0 : Elevation of Ground Level
BLI .F                             10712.0 : Bottom Log Interval
BSAL.PPM                               0.0 : Borehole Salinity
FLEV.F                                 8.0 : Depth of Drilling Fluid Level to LMF (Log Measured From)
MCST.DEGF                          -999.25 : Mudcake Sample Temperature
MFST.DEGF                          -999.25 : Mud Filtrate Sample Temperature
MRT .DEGF                            220.0 : Maximum Recorded Temperature
MST .DEGF                          -999.25 : Mud Sample Temperature
RMCS.OHMM                          -999.25 : Resistivity of Mud Cake Sample
RMS .OHMM                          -999.25 : Resistivity of Mud Sample
RW  .OHMM                              1.0 : Connate Water Resistivity
TDD .F                             10720.0 : Total Depth (Driller)
TDL .F                             10720.0 : Logger Total Depth
TLI .F                              8575.0 : Top Log Interval
HIDE.                               SANISH : Header Identifier
MATR.                                 LIME : Rock Matrix for Neutron Porosity Corrections
FNUM.                                  1.0 : F-Numerator for Formation Factor Formula
FEXP.                                  2.0 : Exponent "m" for Formation Factor Formula
DFT .                                  OIL : Drilling Fluid Type
DFPH.                              -999.25 : Drilling Fluid pH
MCSS.                              Pressed : Mudcake Sample Source
MFSS.                                      : Mud Filtrate Sample Source
FD  .G/C3                              1.0 : Fluid Density
MSS .                          Active Tank : Mud Sample Source
OS1 .                                      : Other Services Line 1
OS2 .                                      : Other Services Line 2
OS3 .                                      : Other Services Line 3
OS4 .                                      : Other Services Line 4
OS5 .                                      : Other Services Line 5
R1  .                                      : Remarks Line 1
R2  .                                      : Remarks Line 2
R3  .                                      : Remarks Line 3
R4  .                                      : Remarks Line 4
R5  .                                      : Remarks Line 5
R6  .                                      : Remarks Line 6
R7  .                                      : Remarks Line 7
R8  . Thank you for choosing Schlumberger. : Remarks Line 8
TCS .                              00 30 h : Time Circulation Stopped
TLAB.                              21 12 h : Time Logging on Bottom
NMT .                             NOBARITE : HRDD Mud Type for Nuclear Devices
EPD .C3                             2052.0 : Elevation of Permanent Datum above Mean Sea Level
APD .F                                26.0 : Elevation of Depth Reference (LMF) above Permanent Datum
~Other -----------------------------------------------------
~ASCII -----------------------------------------------------
# ...
 9635.00000    0.02420    0.00850    0.01170    0.00160    0.00250    0.00740    0.00090    0.00000    0.00000 1557.06370   -4.98360    0.00830    0.00340    0.00100    0.01230    0.81700  214.96470    0.00000    0.00000   28.77250    0.00000    3.58720   28.09040   29.93710  206.74400   23.70120    0.81720   29.84030    -999.25   28.94560    2.81100    -999.25    0.73890    0.00010    0.00130    0.00000   -0.02150    -999.25    0.00000    4.06700    -999.25    0.03240 4132.17330    -999.25    -999.25
 9635.50000    0.02850    0.00770    0.01610    0.00260    0.00210    0.00360    0.00330    0.00000    0.00000 1553.32450   -3.61670    0.00690    0.00350    0.00100    0.01160    0.14160  215.03400    0.00000    0.00000   28.45000    0.00000    3.51990   27.77550   28.29630  206.75120   23.21710    0.80450   26.70910    -999.25   28.62230    2.73000    -999.25    0.71860    0.00010    0.00090    0.00000   -0.02650    -999.25    0.00000    3.69470    -999.25    0.03550 4122.47170    -999.25    -999.25
 9636.00000    0.03080    0.00870    0.01720    0.00370    0.00120    0.00210    0.00340    0.00000    0.00000 1554.02160   -2.54460    0.00550    0.00330    0.00100    0.01040    1.36310  215.06870    0.00000    0.00000   26.40500    0.00000    3.68360   25.77900   26.59250  206.75840   22.54770    0.78830   26.85780    -999.25   27.51370    2.61020    -999.25    0.63760    0.00010    0.00060    0.00000   -0.02870    -999.25    0.00000    2.97200    -999.25    0.03630 4151.49120    -999.25    -999.25
 9636.50000    0.03440    0.01180    0.01540    0.00500    0.00210    0.00070    0.00380    0.00000    0.00000 1549.57470   -2.93950    0.00450    0.00340    0.00100    0.01170    1.69170  215.17650    0.00000    0.00000   26.69110    0.00000    3.54760   26.05830   23.28920  206.76560   21.30890    0.74650   23.86010    -999.25   25.03040    2.45830    -999.25    0.48040    0.00010    0.00040    0.00000   -0.02420    -999.25    0.00000    2.62360    -999.25    0.03890 4098.54540    -999.25    -999.25
 9637.00000    0.03170    0.01370    0.01350    0.00170    0.00280    0.00510    0.00020    0.00000    0.00110 1562.32730   -4.92520    0.00630    0.00360    0.00100    0.01080    0.09460  215.15120    0.00000    0.00000   27.55050    0.00000    3.57550   26.89740   23.60200  206.77280   20.88360    0.72890   27.50580    -999.25   25.00310    2.42500    -999.25    0.52720    0.00010    0.00080    0.00000   -0.02370    -999.25    0.00000    2.82130    -999.25    0.03800 4142.96340    -999.25    -999.25
 9637.50000    0.03190    0.01370    0.01320    0.00070    0.00430    0.00510    0.00000    0.00000    0.00130 1550.28480   -3.64900    0.00640    0.00370    0.00100    0.01140    1.04800  215.27680    0.00000    0.00000   30.07930    0.00000    3.66700   29.36620   24.59300  206.78000   22.02580    0.75580   29.21930    -999.25   25.63200    2.63380    -999.25    0.45040    0.00010    0.00090    0.00000   -0.01530    -999.25    0.00000    3.10880    -999.25    0.03830 4127.31490    -999.25    -999.25
 9638.00000    0.03040    0.00950    0.01380    0.00410    0.00290    0.00410    0.00020    0.00000    0.00160 1550.42110   -3.14060    0.00590    0.00370    0.00100    0.01300    0.09180  215.57810    0.00000    0.00000   31.53800    0.00000    3.56830   30.79030   27.53770  206.78720   23.64020    0.80610   31.24790    -999.25   27.83140    2.85630    -999.25    0.55660    0.00010    0.00070    0.00000   -0.02270    -999.25    0.00000    3.69170    -999.25    0.03630 4111.77340    -999.25    -999.25
 9638.50000    0.02640    0.00560    0.01180    0.00840    0.00060    0.00030    0.00270    0.00000    0.00060 1563.63880   -0.96390    0.00360    0.00350    0.00100    0.01260   -0.79430  215.41550    0.00000    0.00000   30.65600    0.00000    3.64210   29.92920   28.31140  206.79440   23.88440    0.80840   31.84560    -999.25   27.67190    2.92140    -999.25    0.49470    0.00000    0.00020    0.00000   -0.02350    -999.25    0.00000    3.63550    -999.25    0.03000 4150.96390    -999.25    -999.25
 9639.00000    0.01630    0.00200    0.00510    0.00890    0.00030    0.00000    0.00200    0.00060    0.00000 1560.20370   -1.79860    0.00260    0.00330    0.00100    0.01170   -0.89240  215.58880    0.00000    0.00000   30.65720    0.00000    3.58600   29.93040   28.21070  206.80160   24.41030    0.83830   26.79730    -999.25   28.39720    2.91450    -999.25    0.52980    0.00000    0.00000    0.00000    -999.25    -999.25    0.00000    5.27430    -999.25    0.01890 4135.37500    -999.25    -999.25
 9639.50000    0.01350    0.00000    0.00090    0.01180    0.00080    0.00000    0.00110    0.00010    0.00000 1557.23720   -0.55660    0.00120    0.00360    0.00100    0.01380    0.65870  215.76220    0.00000    0.00000   32.09880    0.00000    3.71470   31.33780   30.52440  206.80880   26.25000    0.89440   31.28520    -999.25   30.35880    3.17560    -999.25    0.53650    0.00000    0.00000    0.00000   -0.02510    -999.25    0.00000    7.41360    -999.25    0.01470 4114.03560    -999.25    -999.25
 9640.00000    0.01780    0.00000    0.00120    0.01330    0.00320    0.00000    0.00000    0.00000    0.00050 1550.99570   -2.78960    0.00050    0.00360    0.00100    0.01710    0.04480  215.79690    0.00000    0.00000   34.22900    0.00000    3.69560   33.41750   32.82940  206.81600   28.57850    0.97840   35.98250    -999.25   33.26630    3.42990    -999.25    0.61270    0.00000    0.00000    0.00000   -0.02130    -999.25    0.00000    7.31590    -999.25    0.01830 4129.12940    -999.25    -999.25
 9640.50000    0.01940    0.00000    0.00150    0.01010    0.00780    0.00000    0.00000    0.00000    0.00120 1554.92530   -4.69200    0.00120    0.00340    0.00100    0.01910    0.62140  215.84700    0.00000    0.00000   32.42160    0.00000    3.65720   31.65300   31.81760  206.82320   28.29640    0.95280   33.00000    -999.25   32.26450    3.48980    -999.25    0.51100    0.00010    0.00000    0.00000   -0.02570    -999.25    0.00000   11.02210    -999.25    0.02060 4130.74070    -999.25    -999.25
 9641.00000    0.02070    0.00000    0.00070    0.00690    0.01310    0.00010    0.00000    0.00000    0.00180 1563.70360   -4.21160    0.00190    0.00360    0.00100    0.02180    0.83820  215.95290    0.00000    0.00000   28.77540    0.00000    3.71660   28.09320   26.65050  206.83040   24.40380    0.84080   25.95240    -999.25   27.97900    2.89780    -999.25    0.48260    0.00030    0.00000    0.00000   -0.02480    -999.25    0.00000   17.10270    -999.25    0.02250 4137.69630    -999.25    -999.25
 9641.50000    0.02200    0.00550    0.00270    0.00060    0.01320    0.00220    0.00000    0.00000    0.00140 1549.23230   -2.89020    0.00370    0.00360    0.00100    0.01740    0.80550  215.97020    0.00000    0.00000   25.78620    0.00000    3.65910   25.17490   21.54090  206.83760   21.08000    0.71730   25.30320    -999.25   24.36700    2.55560    -999.25    0.45700    0.00020    0.00010    0.00000   -0.02430    -999.25    0.00000    9.37420    -999.25    0.02570 4127.58940    -999.25    -999.25
 9642.00000    0.01930    0.00800    0.00530    0.00000    0.00600    0.00570    0.00000    0.00000    0.00120 1549.59960    0.45800    0.00690    0.00360    0.00100    0.01300    0.82070  215.91890    0.00000    0.00000   24.52850    0.00000    3.68650   23.94700   20.69290  206.84480   19.67070    0.66090   24.24500    -999.25   23.05260    2.43430    -999.25    0.45070    0.00010    0.00050    0.00000   -0.02910    -999.25    0.00000    6.19500    -999.25    0.02630 4113.32760    -999.25    -999.25
 9642.50000    0.01940    0.00480    0.00460    0.00100    0.00900    0.00100    0.00000    0.00000    0.00190 1558.80520   -0.98330    0.00290    0.00360    0.00100    0.01290    1.68010  215.98820    0.00000    0.00000   25.83540    0.00000    3.58800   25.22290   22.61750  206.85200   20.30340    0.67410   22.28530    -999.25   23.65160    2.55970    -999.25    0.46840    0.00010    0.00000    0.00000   -0.03660    -999.25    0.00000    8.10390    -999.25    0.02230 4142.49070    -999.25    -999.25
