~Version ---------------------------------------------------
VERS     .                                                                                     2.0 : CWLS log ASCII Standard -VERSION 2.0
WRAP     .                                                                                      NO : One Line per depth step
PROD     .                                                                            Schlumberger : LAS Producer
PROG     .                                                                       DLIS to ASCII 2.3 : LAS Program name and version
CREA     .             2014/09/27 10:36                          :LAS Creation date {YYYY/MM/DD hh : mm}
DLIS_CREA. 2014-Sep-26 05:39                          :DLIS Creation date and time {YYYY-MMM-DD hh : mm}
SOURCE   .                                                    91826cdd-719c-42a6-af83-d6b9542bd142 : DLIS File Name
~Well ------------------------------------------------------
STRT.F                       8395.0 : START DEPTH
STOP.F                      10723.0 : STOP DEPTH
STEP.F                          0.5 : STEP
NULL.                       -999.25 : NULL VALUE
COMP.                               : COMPANY
WELL.                       Bakken2 : WELL
FLD .                               : FIELD
LOC .                               : LOCATION
CNTY.                               : COUNTY
STAT.                  NORTH DAKOTA : STATE
CTRY.                               : COUNTRY
SRVC.                  Schlumberger : SERVICE COMPANY
LATI.DEG                     : LATITUDE
LONG.DEG         -  : LONGITUDE
API .                    : API NUMBER
DATE.                     : LOG DATE
UWI .                  : UNIQUE WELL ID
~Curve Information -----------------------------------------
DEPT        .F     : DEPTH (BOREHOLE) {F12.4}
BFV         .CFCF  : Bound Fluid Volume {F11.4}
CBP1        .CFCF  : CMR Bin Porosity 1 {F11.4}
CBP2        .CFCF  : CMR Bin Porosity 2 {F11.4}
CBP3        .CFCF  : CMR Bin Porosity 3 {F11.4}
CBP4        .CFCF  : CMR Bin Porosity 4 {F11.4}
CBP5        .CFCF  : CMR Bin Porosity 5 {F11.4}
CBP6        .CFCF  : CMR Bin Porosity 6 {F11.4}
CBP7        .CFCF  : CMR Bin Porosity 7 {F11.4}
CBP8        .CFCF  : CMR Bin Porosity 8 {F11.4}
CDF         .LBF   : Calibrated Downhole Force {F11.4}
CFTC        .HZ    : Corrected Far Thermal Count Rate {F11.4}
CMFF        .CFCF  : CMR Free Fluid {F11.4}
CMFF_SIG    .CFCF  : Standard Deviation of CMR Free Fluid {F11.4}
CMR_PHI_CONV.      : CMR Porosity Conversion factor {F11.4}
CMRP_3MS    .CFCF  : CMR Porosity with T2 values greater than 3 ms {F11.4}
CNTC        .HZ    : Corrected Near Thermal Count Rate {F11.4}
CTEM        .DEGF  : Cartridge Temperature {F11.4}
DCAL        .IN    : Differential Caliper {F11.4}
DNPH        .CFCF  : Difference between Corrected Thermal Neutron Porosity and Uncorrected {F11.4}
ECGR        .GAPI  : Environmentally Corrected Gamma Ray {F11.4}
ED          .F     : East Departure {F11.4}
GDEV        .DEG   : HGNS Hole Deviation from Gravity {F11.4}
GR          .GAPI  : Gamma Ray {F11.4}
GR_EDTC     .GAPI  : Gamma Ray {F11.4}
GTEM        .DEGF  : Generalized Borehole Temperature {F11.4}
HCGR        .GAPI  : HNGS Computed Gamma Ray {F11.4}
HFK         .%     : HNGS Formation Potassium Concentration {F11.4}
HGR         .GAPI  : High Resolution Gamma Ray {F11.4}
HNPO        .CFCF  : High Resolution Enhanced Thermal Neutron Porosity in Selected Lithology {F11.4}
HSGR        .GAPI  : HNGS Standard Gamma-Ray {F11.4}
HTHO        .PPM   : HNGS Formation Thorium Concentration {F11.4}
HTNP        .CFCF  : High Resolution Thermal Neutron Porosity (Ratio Method) in Selected Lithology {F11.4}
HURA        .PPM   : HNGS Formation Uranium Concentration {F11.4}
KSDR        .MD    : SDR Permeability {F11.4}
KTIM        .MD    : Timur/Coates Permeability {F11.4}
ND          .F     : North Departure {F11.4}
NPHI        .CFCF  : Thermal Neutron Porosity (original Ratio Method) in Selected Lithology {F11.4}
NPOR        .CFCF  : Enhanced Thermal Neutron Porosity in Selected Lithology {F11.4}
STIT        .F     : Stuck Tool Indicator, Total {F11.4}
T2LM        .MS    : T2 Logarithmic Mean {F11.4}
T2LM_SIG    .MS    : Standard Deviation of T2 Logarithmic Mean {F11.4}
TCMR        .CFCF  : Total CMR Porosity {F11.4}
TENS        .LBF   : Cable Tension {F11.4}
TNPH        .CFCF  : Thermal Neutron Porosity (Ratio Method) in Selected Lithology {F11.4}
HTNP_SAN    .CFCF  : HiRes Thermal Neutron Porosity (matrix Sandstone) {F11.4}
~Params ----------------------------------------------------
CN  .        WHITING OIL & GAS CORPORATION : Company Name
WN  .                           JB 11-6TFH : Well Name
FN  .                               SANISH : Field Name
FL  .                  219' FNL & 948' FWL : Field Location
FL1 .                                 LOT4 : Field Location, Line 1
COUN.                            MOUNTRAIL : Rig Name
STAT.                         NORTH DAKOTA : State or Province
NATI.                                      : Nation
DATE.                           25/09/2014 : Tools Above Rotary Table Date
APIN.                         33-061-03238 : API Serial Number
SECT.                                    6 : Section
TOWN.                                 153N : Township
RANG.                                  92W : Range
DMF .                                   MR : Drilling Measured From (Name of Drilling Elevation Reference)
LMF .                                   MR : Logging Measured From (Name of Logging Elevation Reference)
PDAT.                                   NM : Permanent Datum
ENGI.                        AARON BAGWELL : Engineer s Name
WITN.                         JOHN SCHAFER : Witness s Name
LATI.                    48.092747 degrees : Latitude
LONG.                   -102.56534 degrees : Longitude
LUL .                            WILLISTON : Logging Unit Location
LUN .                                 2223 : Logging Unit Number
RUN .                                  TWO : Run Number
SON .                           CWSZ-00040 : Service Order Number
BHT .DEGF                            212.0 : Bottom Hole Temperature
BS  .IN                               8.75 : Bit Size
DFD .LB/G                             10.3 : Drilling Fluid Density
DFV .S                                63.0 : Drilling Fluid Viscosity
DFL .C3                                6.0 : Drilling Fluid Loss
RMFS.OHMM                          -999.25 : Resistivity of Mud Filtrate Sample
EKB .F                              2078.0 : Elevation of Kelly Bushing
EGL .F                              2052.0 : Elevation of Ground Level
BLI .F                             10712.0 : Bottom Log Interval
BSAL.PPM                               0.0 : Borehole Salinity
FLEV.F                                 8.0 : Depth of Drilling Fluid Level to LMF (Log Measured From)
MCST.DEGF                          -999.25 : Mudcake Sample Temperature
MFST.DEGF                          -999.25 : Mud Filtrate Sample Temperature
MRT .DEGF                            220.0 : Maximum Recorded Temperature
MST .DEGF                          -999.25 : Mud Sample Temperature
RMCS.OHMM                          -999.25 : Resistivity of Mud Cake Sample
RMS .OHMM                          -999.25 : Resistivity of Mud Sample
RW  .OHMM                              1.0 : Connate Water Resistivity
TDD .F                             10720.0 : Total Depth (Driller)
TDL .F                             10720.0 : Logger Total Depth
TLI .F                              8575.0 : Top Log Interval
HIDE.                               SANISH : Header Identifier
MATR.                                 LIME : Rock Matrix for Neutron Porosity Corrections
FNUM.                                  1.0 : F-Numerator for Formation Factor Formula
FEXP.                                  2.0 : Exponent "m" for Formation Factor Formula
DFT .                                  OIL : Drilling Fluid Type
DFPH.                              -999.25 : Drilling Fluid pH
MCSS.                              Pressed : Mudcake Sample Source
MFSS.                                      : Mud Filtrate Sample Source
FD  .G/C3                              1.0 : Fluid Density
MSS .                          Active Tank : Mud Sample Source
OS1 .                                      : Other Services Line 1
OS2 .                                      : Other Services Line 2
OS3 .                                      : Other Services Line 3
OS4 .                                      : Other Services Line 4
OS5 .                                      : Other Services Line 5
R1  .                                      : Remarks Line 1
R2  .                                      : Remarks Line 2
R3  .                                      : Remarks Line 3
R4  .                                      : Remarks Line 4
R5  .                                      : Remarks Line 5
R6  .                                      : Remarks Line 6
R7  .                                      : Remarks Line 7
R8  . Thank you for choosing Schlumberger. : Remarks Line 8
TCS .                              00 30 h : Time Circulation Stopped
TLAB.                              21 12 h : Time Logging on Bottom
NMT .                             NOBARITE : HRDD Mud Type for Nuclear Devices
EPD .C3                             2052.0 : Elevation of Permanent Datum above Mean Sea Level
APD .F                                26.0 : Elevation of Depth Reference (LMF) above Permanent Datum
~Other -----------------------------------------------------
~ASCII -----------------------------------------------------
# ...
 8707.00000    0.01120    0.01110    0.00010    0.00000    0.00000    0.00000    0.00000    0.00000    0.00000 1601.55770   -3.81430    0.00000    0.00330    0.00090    0.00000    2.05960  209.03530    0.00000    0.00000    8.26730    0.00000    3.58030    8.07130    7.59220  193.38080    3.19910    0.11450    8.63860    -999.25    6.69970    0.35510    -999.25    0.47040    0.00000    0.00000    0.00000   -0.02590    -999.25    0.00000    0.47900    -999.25    0.01120 3878.66060    -999.25    -999.25
 8707.50000    0.01360    0.01360    0.00000    0.00000    0.00000    0.00000    0.00000    0.00000    0.00000 1575.75990   -2.42010    0.00000    0.00390    0.00090    0.00000    2.12280  209.03530    0.00000    0.00000    8.64730    0.00000    3.59760    8.44230    7.52190  193.38800    3.15010    0.11850    6.86630    -999.25    6.49750    0.31560    -999.25    0.44150    0.00000    0.00000    0.00000   -0.02980    -999.25    0.00000    0.42690    -999.25    0.01360 3860.61400    -999.25    -999.25
 8708.00000    0.00800    0.00800    0.00000    0.00000    0.00000    0.00000    0.00000    0.00000    0.00000 1591.58540   -0.67850    0.00000    0.00380    0.00090    0.00000    2.00470  209.03530    0.00000    0.00000    8.75130    0.00000    3.65420    8.54380    7.62040  193.39520    3.73880    0.14120    9.86140    -999.25    7.21450    0.37160    -999.25    0.47430    0.00000    0.00000    0.00000   -0.03200    -999.25    0.00000    0.43550    -999.25    0.00800 3909.29830    -999.25    -999.25
 8708.50000    0.00910    0.00850    0.00060    0.00000    0.00000    0.00000    0.00000    0.00000    0.00000 1582.71020   -0.59040    0.00000    0.00360    0.00090    0.00000    1.12300  209.03530    0.00000    0.00000   10.93690    0.00000    3.59880   10.67760    7.68120  193.40240    4.51170    0.16470    8.93230    -999.25    7.72170    0.48150    -999.25    0.44630    0.00000    0.00000    0.00000   -0.02210    -999.25    0.00000    0.56960    -999.25    0.00910 3858.79320    -999.25    -999.25
 8709.00000    0.00820    0.00000    0.00000    0.00000    0.00820    0.00260    0.00000    0.00160    0.00220 1582.26430   -1.45320    0.00640    0.00380    0.00090    0.01460    1.17200  209.03530    0.00000    0.00000   12.07720    0.00000    3.61420   11.79090    9.10820  193.40960    5.14170    0.17950   13.27180    -999.25    8.52790    0.59660    -999.25    0.46430    0.00090    0.00000    0.00000   -0.02310    -999.25    0.00000   70.13030    -999.25    0.01460 3875.80370    -999.25    -999.25
 8709.50000    0.01200    0.00000    0.00000    0.00000    0.01200    0.00290    0.00090    0.00360    0.00150 1582.17380   -2.63370    0.00900    0.00400    0.00090    0.02100    2.14760  209.03530    0.00000    0.00000   12.73070    0.00000    3.48940   12.42890    9.96240  193.41680    5.63910    0.18940   13.16550    -999.25    9.04220    0.69820    -999.25    0.48770    0.00270    0.00000    0.00000   -0.02860    -999.25    0.00000   59.49320    -999.25    0.02100 3874.64940    -999.25    -999.25
 8710.00000    0.01670    0.00000    0.00000    0.00410    0.01260    0.00000    0.00000    0.00010    0.00480 1582.58190   -4.02340    0.00500    0.00400    0.00090    0.02160    2.03550  209.03530    0.00000    0.00000   11.59310    0.00000    3.59700   11.31830   10.46170  193.42400    5.92150    0.19960   10.84630    -999.25    9.47860    0.72910    -999.25    0.49620    0.00140    0.00000    0.00000   -0.02630    -999.25    0.00000   40.25150    -999.25    0.02160 3863.60740    -999.25    -999.25
 8710.50000    0.01670    0.00200    0.00010    0.00470    0.00980    0.00000    0.00000    0.00000    0.00400 1596.01720   -4.73020    0.00400    0.00390    0.00090    0.01860    0.46280  209.03530    0.00000    0.00000   10.48730    0.00000    3.46750   10.23870    9.64010  193.43120    5.94530    0.22030    9.92470    -999.25    9.41970    0.61570    -999.25    0.47570    0.00040    0.00000    0.00000   -0.02740    -999.25    0.00000   24.16940    -999.25    0.02070 3890.16060    -999.25    -999.25
 8711.00000    0.02340    0.00780    0.00100    0.00370    0.01100    0.00370    0.00000    0.00000    0.00300 1580.95080   -3.55010    0.00670    0.00390    0.00090    0.02140    1.23200  209.03530    0.00000    0.00000   10.30000    0.00000    3.48920   10.05580    9.73790  193.43840    5.79600    0.21200    9.93490    -999.25    9.46400    0.61640    -999.25    0.48520    0.00040    0.00070    0.00000   -0.02580    -999.25    0.00000   10.71290    -999.25    0.03010 3877.15770    -999.25    -999.25
 8711.50000    0.03230    0.00790    0.00150    0.00650    0.01650    0.00250    0.00000    0.00000    0.00210 1583.87500   -4.18230    0.00460    0.00390    0.00090    0.02760    2.38060  209.03530    0.00000    0.00000   12.13770    0.00000    3.45670   11.84990   10.63680  193.44560    6.01890    0.22150   10.27410    -999.25   10.31800    0.63210    -999.25    0.57150    0.00060    0.00040    0.00000   -0.03100    -999.25    0.00000    9.04280    -999.25    0.03690 3842.93240    -999.25    -999.25
 8712.00000    0.03200    0.00220    0.00480    0.00650    0.01840    0.00200    0.00000    0.00000    0.00100 1565.49730   -3.82930    0.00300    0.00370    0.00090    0.02800    1.78460  209.03530    0.00000    0.00000   15.40520    0.00000    3.48920   15.04000   14.96530  193.45280    7.34330    0.26940   15.25770    -999.25   13.14540    0.77590    -999.25    0.77870    0.00070    0.00010    0.00000   -0.02390    -999.25    0.00000   10.48630    -999.25    0.03500 3875.67290    -999.25    -999.25
 8712.50000    0.01980    0.00010    0.00270    0.00390    0.01310    0.00360    0.00280    0.00000    0.00110 1583.52970   -2.43890    0.00750    0.00380    0.00090    0.02460    0.71940  209.03530    0.00000    0.00000   19.56560    0.00000    3.55360   19.10180   18.12130  193.46000    8.60400    0.32080   19.50500    -999.25   16.21660    0.87930    -999.25    1.03240    0.00100    0.00070    0.00000   -0.01410    -999.25    0.00000   21.22700    -999.25    0.02730 3851.05270    -999.25    -999.25
 8713.00000    0.00820    0.00000    0.00000    0.00000    0.00820    0.00550    0.01220    0.00110    0.00460 1569.76950   -0.30010    0.02330    0.00400    0.00090    0.03160    1.16790  209.03530    0.00000    0.00000   20.10890    0.00000    3.54830   19.63210   19.06010  193.46720    9.48830    0.34270   22.45370    -999.25   17.31950    1.03440    -999.25    1.08600    0.05610    0.00330    0.00000   -0.00760    -999.25    0.00000  118.82140    -999.25    0.03160 3854.56880    -999.25    -999.25
 8713.50000    0.00850    0.00000    0.00000    0.00000    0.00850    0.00970    0.01800    0.01230    0.01100 1579.85410    0.57600    0.05090    0.00400    0.00090    0.05940   -0.34320  209.03530    0.00000    0.00000   18.11730    0.00000    3.55030   17.68770   17.15870  193.47440    8.92660    0.32380   16.90750    -999.25   16.26920    0.96490    -999.25    0.99920    2.17170    0.48410    0.00000   -0.01310    -999.25    0.00000  208.71750    -999.25    0.05940 3876.75420    -999.25    -999.25
 8714.00000    0.02440    0.00780    0.00240    0.00000    0.01420    0.01500    0.01830    0.02400    0.01700 1567.46580    1.03160    0.07420    0.00400    0.00090    0.08840   -1.85440  209.03530    0.00000    0.00000   14.82880    0.00000    3.42450   14.47720   14.52170  193.48160    7.26060    0.26520   13.70170    -999.25   14.20740    0.77420    -999.25    0.93870    5.38930    8.74820    0.00000    -999.25    -999.25    0.00000  119.18650    -999.25    0.09870 3850.49120    -999.25    -999.25
 8714.50000    0.03420    0.01390    0.00080    0.00080    0.01860    0.01660    0.01320    0.02730    0.01740 1597.16970    0.56720    0.07450    0.00400    0.00090    0.09390    0.11210  209.03530    0.00000    0.00000   15.01080    0.00000    3.67480   14.65490   14.17720  193.48880    6.85270    0.24880   12.88500    -999.25   14.03760    0.73950    -999.25    0.97830    4.15650    6.63330    0.00000   -0.02400    -999.25    0.00000   86.24060    -999.25    0.10870 3899.80370    -999.25    -999.25
