~VERSION INFORMATION
VERS.           2.0   :CWLS Log ASCII Standard - VERSION 2.0
WRAP.           NO    :One Line per depth step
PROD.  Schlumberger   :LAS Producer
PROG.  DLIS to ASCII 15C0-309                          :LAS Program name and version
CREA.        2008/02/20 22:50                          :LAS Creation date {YYYY/MM/DD hh:mm}
DLIS_CREA.  2008-Feb-20	21:27			       :DLIS Creation date and time {YYYY-MMM-DD hh:mm}
SOURCE.     MAIN_AIT_TLD_MCFL_CNL_046PUP.DLIS          :DLIS File Name
FILE-ID.     AIT_TLD_MCFL_CNL_046PUP                   :File Identification Number
#--------------------------------------------------
~WELL INFORMATION
#MNEM.UNIT      DATA             DESCRIPTION
#---- ------ --------------   -----------------------------
STRT .F      7700.0          :START DEPTH     
STOP .F      10520.0         :STOP DEPTH     
STEP .F       0.5            :STEP     
NULL .          -999.25      :NULL VALUE
COMP .        FIDELITY EXPLORATION & PRODUCTION CO.      :COMPANY
WELL .        DEADWOOD CANYON RANCH 43-28H             :WELL
FLD  .        WILDCAT                                  :FIELD
LOC  .        NE SE                                    :LOCATION
CNTY .        MOUNTRAIL                                :COUNTY
STAT .        N. DAKOTA                                :STATE
CTRY .                                                 :COUNTRY
API  .        33-061-00581                             :API NUMBER
UWI  .        3306100581                               :UNIQUE WELL ID
DATE .        20-Feb-2008                              :LOG DATE {DD-MMM-YYYY}
SRVC .        Schlumberger                             :SERVICE COMPANY
LATI .DEG                                              :LATITUDE
LONG .DEG                                              :LONGITUDE
GDAT .                                                 :GeoDetic Datum
SECT .        28                                       :Section
RANG .        92W                                      :Range
TOWN .        154N                                     :Township
#-----------------------------------------------------------------------------
~PARAMETER INFORMATION
#MNEM.UNIT    VALUE                      DESCRIPTION
#---- -----   --------------------       ------------------------
RUN  .          ONE                      :RUN NUMBER
PDAT .        GROUND LEVEL               :Permanent Datum
EPD  .F         2111.000000              :Elevation of Permanent Datum above Mean Sea Level
LMF  .          KELLY BUSHING            :Logging Measured From (Name of Logging Elevation Reference)
APD  .F          18.000000               :Elevation of Depth Reference (LMF) above Permanent Datum
#-----------------------------------------------------------------------------
~CURVE INFORMATION
#MNEM.UNIT   API CODE                                  DESCRIPTION
#---- -----  --------                                  -----------------------
DEPT .F                                                :DEPTH (BOREHOLE) {F10.1}
AF20 .OHMM                                             :Array Induction Four Foot Resistivity A20 {F13.4}
AF30 .OHMM                                             :Array Induction Four Foot Resistivity A30 {F13.4}
AF60 .OHMM                                             :Array Induction Four Foot Resistivity A60 {F13.4}
AF90 .OHMM                                             :Array Induction Four Foot Resistivity A90 {F13.4}
AT20 .OHMM                                             :Array Induction Two Foot Resistivity A20 {F13.4}
AT30 .OHMM                                             :Array Induction Two Foot Resistivity A30 {F13.4}
AT60 .OHMM                                             :Array Induction Two Foot Resistivity A60 {F13.4}
AT90 .OHMM                                             :Array Induction Two Foot Resistivity A90 {F13.4}
DPHZ .CFCF                                             :HRDD Standard Resolution Density Porosity {F13.4}
GR_EDTC.GAPI                                           :Gamma Ray {F13.4}
HCAL .IN                                               :HRCC Cal. Caliper {F13.4}
HDRA .G/C3                                             :HRDD Density Correction {F13.4}
NPOR .CFCF                                             :Enhanced Thermal Neutron Porosity {F13.4}
PEFZ .                                                 :HRDD Standard Resolution Formation Photoelectric Factor {F13.4}
PXND_HILT.CFCF                                         :HILT Porosity CrossPlot {F13.4}
RHOZ .G/C3                                             :HRDD Standard Resolution Formation Density {F13.4}
TENS .LBF                                              :Cable Tension {F13.4}
#-----------------------------------------------------------------------------
# 
#     DEPT        AF20         AF30         AF60         AF90         AT20         AT30         AT60         AT90         DPHZ       GR_EDTC        HCAL         HDRA         NPOR         PEFZ      PXND_HILT       RHOZ         TENS
#
~A  
# ...
    9187.5     677.3705    1950.0000    1708.5781     930.9316     854.8837    1762.6982    1345.4951     991.7536      -0.0027      20.1277       8.3305      -0.0025       0.0160       4.3345       0.0164       2.7145    3990.0000
    9188.0     705.8682    1950.0000    1826.9430    1026.3329     928.3409    1922.6931    1418.9358    1228.8516       0.0072      24.6130       8.3600      -0.0028       0.0182       4.4143       0.0147       2.6977    3940.0000
    9188.5     733.1268    1950.0000    1899.4238    1079.7140     958.6014    1900.6190    1462.0883    1158.6851       0.0155      24.3816       8.3379      -0.0041       0.0129       4.5242       0.0142       2.6835    3956.0000
    9189.0     757.9072    1950.0000    1924.9924    1091.0653    1007.2141    1925.2300    1530.1244    1042.0132       0.0132      23.7477       8.3416      -0.0028       0.0053       4.4929       0.0113       2.6875    3926.0000
    9189.5     779.2004    1950.0000    1910.4934    1052.2161    1048.0808    1950.0000    1604.3690     927.9402       0.0084      19.8519       8.3471      -0.0005       0.0069       4.3293       0.0073       2.6956    3951.0000
    9190.0     796.2372    1950.0000    1845.6786     973.7412    1091.9751    1950.0000    1752.7896     876.5657       0.0082      16.9781       8.3232       0.0006       0.0047       4.0687       0.0056       2.6959    3987.0000
    9190.5     808.7509    1950.0000    1705.5526     878.2392    1130.1548    1950.0000    1950.0000     751.2223       0.0162      13.0183       8.3232      -0.0000       0.0018       3.8114       0.0086       2.6824    3958.0000
    9191.0     816.9705    1950.0000    1551.5771     775.3741    1160.5621    1950.0000    1281.4496     651.4284       0.0256      11.5633       8.3232      -0.0012       0.0043       3.6433       0.0128       2.6663    3978.0000
    9191.5     820.9927    1950.0000    1425.3120     693.7773    1186.9080    1852.6006    1047.4072     576.5063       0.0295      10.3558       8.3379      -0.0024       0.0039       3.6753       0.0145       2.6596    3997.0000
    9192.0     819.6748    1950.0000    1340.3934     634.3246    1184.7756    1849.0186    1060.6105     576.3314       0.0215      11.0140       8.3379      -0.0017       0.0017       3.9309       0.0110       2.6733    3952.0000
    9192.5     810.2867    1950.0000    1316.3120     598.9152    1251.0951    1950.0000    1092.8414     519.2380       0.0093      13.2596       8.3416      -0.0001       0.0033       4.3141       0.0064       2.6942    3977.0000
    9193.0     790.1680    1950.0000    1313.7273     577.1821    1259.5563    1642.2101    1070.3015     600.7186      -0.0005      14.2947       8.3471       0.0013       0.0044       4.6488       0.0058       2.7108    3958.0000
    9193.5     759.2292    1950.0000    1288.3729     559.7930    1190.7966    1950.0000    1096.3470     637.5593      -0.0060      15.1077       8.3232       0.0020       0.0047       4.8309       0.0074       2.7202    3971.0000
    9194.0     721.1007    1950.0000    1402.5685     569.9963    1051.7621    1882.2137    1042.5050     679.1004      -0.0097      14.2451       8.3305       0.0021       0.0132       4.8916       0.0084       2.7266    3996.0000
    9194.5     672.5343    1884.6565    1351.2816     554.8791     926.6920    1655.0920    1029.5061     666.2931      -0.0119      14.9352       8.3453       0.0018       0.0096       4.9096       0.0083       2.7304    3951.0000
    9195.0     618.2130    1726.7305    1226.9780     534.8486     823.6379    1587.0098    1060.4132     617.0410      -0.0155      15.5980       8.3232       0.0028       0.0055       4.9340       0.0080       2.7366    3983.0000
    9195.5     582.6479    1521.4550    1048.0443     507.9154     695.8026    1359.6166     928.5028     621.2874      -0.0150      17.1506       8.3232       0.0028       0.0136       4.9369       0.0096       2.7356    4008.0000
    9196.0     548.5814    1317.7507     888.1678     460.3589     818.6683    1460.7883     900.9349     681.7833      -0.0157      17.3231       8.3232       0.0034       0.0093       4.9014       0.0095       2.7369    3963.0000
    9196.5     495.3152    1113.5054     700.7208     432.4582     741.0744    1187.0239     744.6313     563.7136      -0.0123      17.4830       8.3379       0.0023       0.0069       4.8036       0.0106       2.7310    3993.0000
    9197.0     449.9865     935.0004     599.5742     406.1712     562.1297     784.5814     589.6955     442.9352      -0.0123      16.6204       8.3305       0.0027       0.0156       4.6161       0.0114       2.7311    3980.0000
    9197.5     411.5644     793.8514     503.0577     399.9514     450.4271     676.7470     458.2763     380.4843      -0.0097      15.2051       8.3453       0.0026       0.0122       4.3651       0.0136       2.7266    3970.0000
    9198.0     394.6904     726.6518     466.7848     373.8702     415.0523     606.2505     476.0648     379.6037      -0.0037      15.3183       8.3600       0.0011       0.0192       4.1319       0.0156       2.7164    4007.0000
    9198.5     397.8607     723.7555     457.6314     339.7580     403.3637     548.6840     474.9384     350.9025      -0.0023      15.5109       8.3600       0.0004       0.0202       4.0011       0.0159       2.7139    3990.0000
    9199.0     436.7446     815.1325     494.2399     376.7616     398.2946     526.6568     398.9490     316.8989      -0.0051      19.6929       8.3747       0.0013       0.0132       4.1069       0.0128       2.7187    3993.0000
    9199.5     522.6512     999.4193     566.6158     436.0429     582.7404     760.2198     543.5529     415.8261      -0.0108      23.8331       8.3526       0.0039       0.0061       4.3485       0.0091       2.7285    4001.0000
    9200.0     667.9481    1216.5146     693.5496     470.0502    1190.4126    1637.1038     972.9845     559.3752      -0.0072      21.9154       8.3526       0.0041       0.0069       4.6110       0.0084       2.7223    3991.0000
    9200.5     671.7999    1187.9084     859.5645     719.0413    1394.0548    1950.0000    1252.8394     849.6923      -0.0010      19.8635       8.3821       0.0039       0.0088       4.7514       0.0089       2.7117    4003.0000
    9201.0     668.4803     919.1254     658.1847     611.8899    1344.4076    1950.0000    1339.8932    1345.8778       0.0059      17.7934       8.4189       0.0033       0.0084       4.7918       0.0104       2.6999    3997.0000
    9201.5     518.5689     570.8607     451.5025     417.8758    1083.6715    1386.8135     876.5840    1160.5837       0.0038      21.7611       8.4042       0.0054       0.0097       4.8137       0.0136       2.7034    4000.0000
    9202.0     333.5236     371.6283     301.1308     282.7327     684.5250     462.5028     388.4783     469.0204      -0.0023      20.9458       8.4115       0.0086       0.0220       4.7451       0.0202       2.7139    4006.0000
    9202.5     225.7578     242.2834     204.6681     191.5365     275.1565     260.4326     217.9252     279.8498      -0.0140      17.3199       8.4484       0.0178       0.0396       4.5643       0.0284       2.7339    3995.0000
    9203.0     165.1583     168.2818     148.4252     134.4570     172.3192     171.1176     149.1514     182.9918      -0.0154      12.1446       8.3968       0.0222       0.0403       4.2851       0.0341       2.7364    3984.0000
    9203.5     129.2750     125.8419     112.6896      99.9318     136.4091     123.3821     111.2704     134.2185      -0.0043      11.2068       8.4263       0.0181       0.0337       4.0521       0.0362       2.7174    3985.0000
    9204.0     104.4951      98.6121      91.3837      78.1974     106.8656      96.5484      91.8874     105.3737       0.0091      12.3254       8.3195       0.0082       0.0320       3.9661       0.0353       2.6944    3991.0000
    9204.5      86.9802      80.5022      77.4557      63.1591      94.9195      80.0041      78.4365      87.8228       0.0037      14.0505       8.3858       0.0153       0.0296       4.0653       0.0313       2.7037    3976.0000
