~VERSION INFORMATION
VERS.           2.0   :CWLS Log ASCII Standard - VERSION 2.0
WRAP.           NO    :One Line per depth step
PROD.  Schlumberger   :LAS Producer
PROG.  DLIS to ASCII 2.2                               :LAS Program name and version
CREA.        2008/02/27 08:04                          :LAS Creation date {YYYY/MM/DD hh:mm}
SOURCE.     Bakken_PNS_Final_Data.dlis  :DLIS File Name
FILE-ID.     Interpretation Chain - gf_user            :File Identification Number
#--------------------------------------------------
~WELL INFORMATION
#MNEM.UNIT      DATA             DESCRIPTION
#---- ------ --------------   -----------------------------
STRT .F        10539.0       :START DEPTH     
STOP .F         7660.0       :STOP DEPTH     
STEP .F           -0.5       :STEP     
NULL .          -999.25      :NULL VALUE
COMP .               :COMPANY
WELL .        Bakken            :WELL
FLD  .                                         :FIELD
LOC  .                                                 :LOCATION
CNTY .                                       :COUNTY
STAT .                                        :STATE
CTRY .        USA                                      :COUNTRY
API  .                                                 :API NUMBER
UWI  .                    :UNIQUE WELL ID
DATE .                                                 :LOG DATE
SRVC .        Schlumberger                             :SERVICE COMPANY
LATI .DEG     48.129                                   :LATITUDE
LONG .DEG     -102.505                                 :LONGITUDE
GDAT .                                                 :GeoDetic Datum
#-----------------------------------------------------------------------------
~PARAMETER INFORMATION
#MNEM.UNIT    VALUE                      DESCRIPTION
#---- -----   --------------------       ------------------------
RUN  .                                   :RUN NUMBER
PDAT .        GROUND LEVEL               :Permanent Datum
EPD  .F         2111.000000              :Elevation of Permanent Datum above Mean Sea Level
EPD  .F         2111.000000              :Elevation of tool zero above Mean Sea Level
LMF  .          KELLY BUSHING            :Logging Measured From (Name of Logging Elevation Reference)
APD  .F          18.000000               :Elevation of Depth Reference (LMF) above Permanent Datum
#-----------------------------------------------------------------------------
~CURVE INFORMATION
#MNEM.UNIT   API CODE                                  DESCRIPTION
#---- -----  --------                                  -----------------------
DEPT .F                                                :DEPTH (BOREHOLE) {F10.1}
MAXXENE_OVERALL.                                       :Overall estimate of maximum cross energy {F13.4}
MINXENE_OVERALL.                                       :Overall estimate of minimum cross energy {F13.4}
PR   .                                                 :Poisson's Ratio {F13.4}
VPVS .                                                 :Compressional to Shear Velocity Ratio {F13.4}
DTSM .US/F                                             :Delta-T Shear {F13.4}
DTCO .US/F                                             :Delta-T Compressional {F13.4}
HD2_PPC2.IN                                            :PPC2 Hole Diameter 2 {F13.4}
HD1_PPC2.IN                                            :PPC2 Hole Diameter 1 {F13.4}
HD2_PPC1.IN                                            :PPC1 Hole Diameter 2 {F13.4}
HD1_PPC1.IN                                            :PPC1 Hole Diameter 1 {F13.4}
GR_EDTC.GAPI                                           :Gamma Ray {F13.4}
BS   .IN                                               :Bit Size {F13.4}
AT90 .OHMM                                             :Array Induction Two Foot Resistivity A90 {F13.4}
AT60 .OHMM                                             :Array Induction Two Foot Resistivity A60 {F13.4}
AT30 .OHMM                                             :Array Induction Two Foot Resistivity A30 {F13.4}
AT20 .OHMM                                             :Array Induction Two Foot Resistivity A20 {F13.4}
AT10 .OHMM                                             :Array Induction Two Foot Resistivity A10 {F13.4}
RHOZ .G/C3                                             :HRDD Standard Resolution Formation Density {F13.4}
PEFZ .                                                 :HRDD Standard Resolution Formation Photoelectric Factor {F13.4}
NPOR .CFCF                                             :Enhanced Thermal Neutron Porosity in Selected Lithology {F13.4}
TDEP ..1IN                                             : {I11}
#-----------------------------------------------------------------------------
# 
#     DEPT    MAXXENE_OVER MINXENE_OVER     PR           VPVS         DTSM         DTCO       HD2_PPC2     HD1_PPC2     HD2_PPC1     HD1_PPC1     GR_EDTC        BS           AT90         AT60         AT30         AT20         AT10         RHOZ         PEFZ         NPOR         TDEP
#             ALL          ALL
~A  
# ...
    9205.0       9.9858       0.9892       0.2891       1.8358      89.4545      48.7273       9.0390       8.8329       9.0128       8.8692      10.7613       8.7500      80.7070      72.4841      74.9466      87.0578      82.9108       2.6978       4.2065       0.0343 1175442432
    9204.5       9.9754       0.9373       0.2728       1.7891      89.4545      50.0000       9.0476       8.8912       9.0000       8.9048      10.7613       8.7500      87.8228      78.4365      80.0041      94.9195      90.8702       2.7037       4.0653       0.0296 1175441920
    9204.0      10.0007       0.8716       0.2722       1.7875      88.7273      49.6364       9.0652       8.8333       9.0128       8.9167      12.3999       8.7500     105.3737      91.8874      96.5484     106.8656      93.5690       2.6944       3.9661       0.0320 1175441408
    9203.5      10.3159       0.8193       0.2771       1.8007      88.7273      49.2727       9.0652       8.8333       9.0128       8.8930      15.3325       8.7500     134.2185     111.2704     123.3821     136.4091     119.8924       2.7174       4.0521       0.0337 1175440896
    9203.0      10.9453       0.7913       0.2680       1.7762      89.4545      50.3636       9.0785       8.8333       9.0128       8.8930      16.7890       8.7500     182.9918     149.1514     171.1176     172.3192     152.8786       2.7364       4.2851       0.0403 1175440384
    9202.5      11.7098       0.7688       0.2734       1.7906      90.1818      50.3636       9.0917       8.9036       9.0514       8.9406      17.7017       8.7500     279.8498     217.9252     260.4326     275.1565     245.1684       2.7339       4.5643       0.0396 1175439872
    9202.0      12.4962       0.7961       0.2827       1.8168      90.1818      49.6364       9.0610       8.8560       9.0386       8.9168      19.7718       8.7500     469.0204     388.4783     462.5028     684.5250     453.0580       2.7139       4.7451       0.0220 1175439360
    9201.5      13.3654       0.8658       0.2680       1.7762      89.4545      50.3636       9.0652       8.8567       9.0514       8.8930      20.8641       8.7500    1160.5837     876.5840    1386.8135    1083.6715     530.8245       2.7034       4.8137       0.0097 1175438848
    9201.0      14.2620       0.9831       0.2630       1.7634      89.4545      50.7273       9.0915       8.8450       9.0514       8.9049      22.9840       8.7500    1345.8778    1339.8932    1950.0000    1344.4076     543.8904       2.6999       4.7918       0.0084 1175438336
    9200.5      15.1587       1.1699       0.2776       1.8022      89.4545      49.6364       9.0785       8.8453       9.0386       8.9049      20.1483       8.7500     849.6923    1252.8394    1950.0000    1394.0548     540.2090       2.7117       4.7514       0.0088 1175437824
    9200.0      16.1091       1.3316       0.2623       1.7617      88.7273      50.3636       9.0826       8.8340       9.0547       8.9064      17.1753       8.7500     559.3752     972.9845    1637.1038    1190.4126     458.2731       2.7223       4.6110       0.0069 1175437312
    9199.5      17.0442       1.4674       0.2512       1.7348      88.0000      50.7273       9.0785       8.8450       9.0514       8.8930      14.1428       8.7500     415.8261     543.5529     760.2198     582.7404     359.7578       2.7285       4.3485       0.0061 1175436800
    9199.0      17.9029       1.5785       0.2572       1.7491      88.7273      50.7273       9.0785       8.8333       9.0386       8.8930      11.9560       8.7500     316.8989     398.9490     526.6568     398.2946     277.0637       2.7187       4.1069       0.0132 1175436288
    9198.5      18.7430       1.6698       0.2430       1.7163      88.0000      51.2727       9.0610       8.8443       9.0514       8.8930      13.6845       8.7500     350.9025     474.9384     548.6840     403.3637     272.4965       2.7139       4.0011       0.0202 1175435776
    9198.0      19.5441       1.7571       0.2572       1.7491      88.7273      50.7273       9.0915       8.8333       9.0386       8.8930      14.0486       8.7500     379.6037     476.0648     606.2505     415.0523     277.9759       2.7164       4.1319       0.0192 1175435264
    9197.5      20.3037       1.8290       0.2680       1.7762      89.4545      50.3636       9.0652       8.8333       9.0386       8.8930      15.6890       8.7500     380.4843     458.2763     676.7470     450.4271     286.7526       2.7266       4.3651       0.0122 1175434752
    9197.0      20.7559       1.8741       0.2776       1.8022      89.4545      49.6364       9.0785       8.8450       9.0257       8.8930      15.8615       8.7500     442.9352     589.6955     784.5814     562.1297     332.1204       2.7311       4.6161       0.0156 1175434240
    9196.5      20.6763       1.8393       0.2722       1.7875      88.7273      49.6364       9.0785       8.8450       9.0418       8.8944      16.9539       8.7500     563.7136     744.6313    1187.0239     741.0744     407.3012       2.7310       4.8036       0.0069 1175433728
    9196.0      20.5810       1.7979       0.2771       1.8007      88.7273      49.2727       9.0652       8.8333       9.0257       8.8930      17.7483       8.7500     681.7833     900.9349    1460.7883     818.6683     456.0425       2.7369       4.9014       0.0093 1175433216
    9195.5      20.5697       1.7780       0.2841       1.8209      88.7273      48.7273       9.0610       8.8325       9.0386       8.8930      17.7279       8.7500     621.2874     928.5028    1359.6166     695.8026     459.4000       2.7356       4.9369       0.0136 1175432704
    9195.0      20.5675       1.7615       0.3021       1.8779      89.4545      47.6364       9.0652       8.8450       9.0386       8.8930      16.1957       8.7500     617.0410    1060.4132    1587.0098     823.6379     470.2379       2.7366       4.9340       0.0055 1175432192
    9194.5      20.5638       1.7404       0.2841       1.8209      88.7273      48.7273       9.0652       8.8450       9.0128       8.8930      15.7655       8.7500     666.2931    1029.5061    1655.0920     926.6920     507.7513       2.7304       4.9096       0.0096 1175431680
    9194.0      20.5530       1.7034       0.2661       1.7712      87.2727      49.2727       9.0694       8.8223       9.0386       8.8930      14.4058       8.7500     679.1004    1042.5050    1882.2137    1051.7621     546.6647       2.7266       4.8916       0.0132 1175431168
    9193.5      20.5257       1.6662       0.2661       1.7712      87.2727      49.2727       9.0785       8.8333       9.0386       8.8930      12.8430       8.7500     637.5593    1096.3470    1950.0000    1190.7966     536.5771       2.7202       4.8309       0.0047 1175430656
    9193.0      20.2043       1.6340       0.2609       1.7582      87.2727      49.6364       9.0521       8.8216       9.0257       8.8810      11.0204       8.7500     600.7186    1070.3015    1642.2101    1259.5563     543.8332       2.7108       4.6488       0.0044 1175430144
    9192.5      19.5832       1.6113       0.2248       1.6783      87.2727      52.0000       9.0652       8.8333       9.0257       8.8930      10.8461       8.7500     519.2380    1092.8414    1950.0000    1251.0951     540.2319       2.6942       4.3141       0.0033 1175429632
    9192.0      18.8479       1.5900       0.2261       1.6809      86.1818      51.2727       9.0479       8.8091       9.0257       8.8811      11.3738       8.7500     576.3314    1060.6105    1849.0186    1184.7756     517.3923       2.6733       3.9309       0.0017 1175429120
    9191.5      18.0756       1.5742       0.2421       1.7143      87.2727      50.9091       9.0652       8.8216       9.0257       8.8930      15.7432       8.7500     576.5063    1047.4072    1852.6006    1186.9080     518.3107       2.6596       3.6753       0.0039 1175428608
    9191.0      17.1948       1.5660       0.2565       1.7473      88.0000      50.3636       9.0652       8.8098       9.0128       8.8930      17.6427       8.7500     651.4284    1281.4496    1950.0000    1160.5621     518.9882       2.6663       3.6433       0.0043 1175428096
