~VERSION INFORMATION
VERS.           2.0   :CWLS Log ASCII Standard - VERSION 2.0
WRAP.           NO    :One Line per depth step
PROD.  Schlumberger   :LAS Producer
PROG.  DLIS to ASCII 15C0-309                          :LAS Program name and version
CREA.        2008/02/20 22:50                          :LAS Creation date {YYYY/MM/DD hh:mm}
DLIS_CREA.  2008-Feb-20	21:27			       :DLIS Creation date and time {YYYY-MMM-DD hh:mm}
SOURCE.     MAIN_AIT_TLD_MCFL_CNL_046PUP.DLIS          :DLIS File Name
FILE-ID.     AIT_TLD_MCFL_CNL_046PUP                   :File Identification Number
#--------------------------------------------------
~WELL INFORMATION
#MNEM.UNIT      DATA             DESCRIPTION
#---- ------ --------------   -----------------------------
STRT .F      7700.0          :START DEPTH     
STOP .F      10520.0         :STOP DEPTH     
STEP .F       0.5            :STEP     
NULL .          -999.25      :NULL VALUE
COMP .        FIDELITY EXPLORATION & PRODUCTION CO.      :COMPANY
WELL .        DEADWOOD CANYON RANCH 43-28H             :WELL
FLD  .        WILDCAT                                  :FIELD
LOC  .        NE SE                                    :LOCATION
CNTY .        MOUNTRAIL                                :COUNTY
STAT .        N. DAKOTA                                :STATE
CTRY .                                                 :COUNTRY
API  .        33-061-00581                             :API NUMBER
UWI  .        3306100581                               :UNIQUE WELL ID
DATE .        20-Feb-2008                              :LOG DATE {DD-MMM-YYYY}
SRVC .        Schlumberger                             :SERVICE COMPANY
LATI .DEG                                              :LATITUDE
LONG .DEG                                              :LONGITUDE
GDAT .                                                 :GeoDetic Datum
SECT .        28                                       :Section
RANG .        92W                                      :Range
TOWN .        154N                                     :Township
#-----------------------------------------------------------------------------
~PARAMETER INFORMATION
#MNEM.UNIT    VALUE                      DESCRIPTION
#---- -----   --------------------       ------------------------
RUN  .          ONE                      :RUN NUMBER
PDAT .        GROUND LEVEL               :Permanent Datum
EPD  .F         2111.000000              :Elevation of Permanent Datum above Mean Sea Level
LMF  .          KELLY BUSHING            :Logging Measured From (Name of Logging Elevation Reference)
APD  .F          18.000000               :Elevation of Depth Reference (LMF) above Permanent Datum
#-----------------------------------------------------------------------------
~CURVE INFORMATION
#MNEM.UNIT   API CODE                                  DESCRIPTION
#---- -----  --------                                  -----------------------
DEPT .F                                                :DEPTH (BOREHOLE) {F10.1}
AF20 .OHMM                                             :Array Induction Four Foot Resistivity A20 {F13.4}
AF30 .OHMM                                             :Array Induction Four Foot Resistivity A30 {F13.4}
AF60 .OHMM                                             :Array Induction Four Foot Resistivity A60 {F13.4}
AF90 .OHMM                                             :Array Induction Four Foot Resistivity A90 {F13.4}
AT20 .OHMM                                             :Array Induction Two Foot Resistivity A20 {F13.4}
AT30 .OHMM                                             :Array Induction Two Foot Resistivity A30 {F13.4}
AT60 .OHMM                                             :Array Induction Two Foot Resistivity A60 {F13.4}
AT90 .OHMM                                             :Array Induction Two Foot Resistivity A90 {F13.4}
DPHZ .CFCF                                             :HRDD Standard Resolution Density Porosity {F13.4}
GR_EDTC.GAPI                                           :Gamma Ray {F13.4}
HCAL .IN                                               :HRCC Cal. Caliper {F13.4}
HDRA .G/C3                                             :HRDD Density Correction {F13.4}
NPOR .CFCF                                             :Enhanced Thermal Neutron Porosity {F13.4}
PEFZ .                                                 :HRDD Standard Resolution Formation Photoelectric Factor {F13.4}
PXND_HILT.CFCF                                         :HILT Porosity CrossPlot {F13.4}
RHOZ .G/C3                                             :HRDD Standard Resolution Formation Density {F13.4}
TENS .LBF                                              :Cable Tension {F13.4}
#-----------------------------------------------------------------------------
# 
#     DEPT        AF20         AF30         AF60         AF90         AT20         AT30         AT60         AT90         DPHZ       GR_EDTC        HCAL         HDRA         NPOR         PEFZ      PXND_HILT       RHOZ         TENS
#
~A  
# ...
   10132.5       5.8808       5.5630       5.3478       5.1361       5.5549       5.2120       5.0197       4.7747       0.0578      78.0971       8.3482      -0.0024       0.0913       3.4509       0.0800       2.6111    4208.0000
   10133.0       6.1845       5.7719       5.5503       5.2621       6.0732       5.5241       5.4732       5.0699       0.0568      74.2051       8.3836      -0.0053       0.0844       3.5919       0.0769       2.6129    4209.0000
   10133.5       6.5832       6.2114       5.8980       5.5470       7.4658       6.7722       6.4753       5.7664       0.0452      71.6353       8.3570      -0.0049       0.0738       3.7643       0.0662       2.6327    4208.0000
   10134.0       6.8740       6.5030       6.1999       5.7100       9.0597       8.5227       7.8509       6.6778       0.0352      62.7036       8.3747      -0.0032       0.0394       3.8887       0.0553       2.6497    4183.0000
   10134.5       6.6813       6.3819       6.1239       5.6422       8.2817       7.9621       7.5248       6.3799       0.0324      56.0960       8.4012      -0.0000       0.0420       3.8705       0.0522       2.6546    4201.0000
   10135.0       6.2016       5.9978       5.8023       5.3833       6.1995       6.1653       6.0049       5.3078       0.0396      57.2953       8.3703       0.0012       0.0603       3.7207       0.0590       2.6422    4186.0000
   10135.5       5.8183       5.6748       5.5169       5.1094       5.1276       5.0860       5.0533       4.5473       0.0481      67.5580       8.3129       0.0007       0.0770       3.5627       0.0691       2.6277    4202.0000
   10136.0       5.4906       5.3815       5.2720       4.9471       4.7444       4.7061       4.6491       4.3477       0.0501      75.7131       8.3217       0.0003       0.0901       3.4528       0.0788       2.6242    4189.0000
   10136.5       5.3552       5.2673       5.1957       4.9049       5.0715       5.0508       5.0132       4.7384       0.0501      80.3665       8.3438      -0.0009       0.0913       3.4251       0.0820       2.6244    4209.0000
   10137.0       5.3616       5.2696       5.2278       4.9469       5.4840       5.4198       5.4243       5.0762       0.0508      81.1283       8.3438      -0.0021       0.0823       3.4554       0.0823       2.6232    4223.0000
   10137.5       5.4055       5.3093       5.2729       4.9951       5.5977       5.5011       5.4790       5.2092       0.0510      81.5037       8.3570      -0.0023       0.0842       3.4835       0.0826       2.6227    4245.0000
   10138.0       5.4222       5.3186       5.2769       5.0081       5.5631       5.4851       5.4981       5.2662       0.0525      79.9999       8.3438      -0.0025       0.0829       3.4991       0.0823       2.6202    4220.0000
   10138.5       5.4025       5.2914       5.2450       4.9862       5.3434       5.2634       5.2797       5.0877       0.0540      77.7066       8.3438      -0.0026       0.0869       3.5066       0.0820       2.6177    4238.0000
   10139.0       5.3519       5.2332       5.1828       4.9337       5.2265       5.1193       5.1453       4.9394       0.0527      74.1633       8.3482      -0.0027       0.0875       3.5368       0.0797       2.6199    4227.0000
   10139.5       5.2968       5.1775       5.1175       4.8755       5.4191       5.2735       5.2470       5.0362       0.0493      75.1934       8.3350      -0.0027       0.0784       3.5895       0.0776       2.6257    4226.0000
   10140.0       5.2302       5.1137       5.0447       4.8093       5.3386       5.1938       5.1553       4.9342       0.0453      72.3887       8.3232      -0.0024       0.0692       3.6079       0.0752       2.6325    4284.0000
   10140.5       5.1535       5.0399       4.9518       4.7122       5.0672       4.9843       4.9729       4.7494       0.0424      78.1944       8.3703      -0.0016       0.0856       3.5601       0.0770       2.6374    4235.0000
   10141.0       5.0733       4.9624       4.8584       4.6317       5.0648       4.9479       4.9110       4.6986       0.0456      77.7981       8.3659      -0.0026       0.0851       3.5365       0.0783       2.6320    4259.0000
   10141.5       4.9864       4.8756       4.7645       4.5551       5.1232       4.9840       4.9013       4.6526       0.0482      81.4684       8.3438      -0.0033       0.0794       3.5430       0.0791       2.6275    4261.0000
   10142.0       4.8708       4.7630       4.6528       4.4586       4.9697       4.8674       4.8078       4.5786       0.0507      77.6291       8.3570      -0.0039       0.0824       3.5904       0.0806       2.6234    4213.0000
   10142.5       4.7359       4.6340       4.5221       4.3447       4.7607       4.6588       4.5946       4.3864       0.0485      79.8983       8.3600      -0.0030       0.0833       3.5974       0.0799       2.6271    4282.0000
   10143.0       4.5939       4.5010       4.3924       4.2326       4.5995       4.4960       4.4564       4.2378       0.0448      82.4973       8.3615      -0.0017       0.0804       3.5746       0.0792       2.6333    4219.0000
   10143.5       4.4621       4.3751       4.2735       4.1309       4.4425       4.3515       4.2924       4.1228       0.0426      84.0088       8.3747      -0.0012       0.0850       3.5527       0.0797       2.6371    4247.0000
   10144.0       4.3487       4.2679       4.1728       4.0447       4.3062       4.2248       4.1792       4.0194       0.0431      84.1143       8.3438      -0.0016       0.0828       3.5512       0.0822       2.6362    4227.0000
   10144.5       4.2552       4.1778       4.0899       3.9716       4.2133       4.1350       4.0943       3.9419       0.0446      83.4588       8.3438      -0.0023       0.0901       3.5576       0.0841       2.6337    4262.0000
   10145.0       4.1820       4.1081       4.0258       3.9227       4.1576       4.0815       4.0541       3.9107       0.0459      82.4981       8.3570      -0.0030       0.0915       3.5803       0.0860       2.6315    4239.0000
   10145.5       4.1185       4.0490       3.9756       3.8798       4.1303       4.0564       4.0317       3.8773       0.0407      83.2353       8.3615      -0.0021       0.0926       3.6043       0.0858       2.6403    4254.0000
   10146.0       4.0557       3.9904       3.9236       3.8342       4.1157       4.0554       4.0428       3.8880       0.0410      83.8908       8.3703      -0.0042       0.0959       3.7098       0.0857       2.6400    4235.0000
   10146.5       3.9886       3.9259       3.8702       3.7858       4.0357       3.9643       3.9396       3.8019       0.0423      86.3366       8.3379      -0.0061       0.0891       3.7961       0.0874       2.6377    4278.0000
   10147.0       3.9250       3.8622       3.8050       3.7250       3.8655       3.8192       3.8187       3.7044       0.0454      84.3959       8.3482      -0.0063       0.0943       3.8033       0.0888       2.6325    4249.0000
   10147.5       3.8790       3.8149       3.7563       3.6861       3.7919       3.7380       3.7376       3.6437       0.0479      80.7439       8.3674      -0.0041       0.0948       3.7429       0.0914       2.6281    4247.0000
   10148.0       3.8694       3.8023       3.7437       3.6849       3.7895       3.7459       3.7288       3.6683       0.0489      80.0884       8.3791      -0.0008       0.0934       3.7177       0.0880       2.6265    4276.0000
   10148.5       3.9149       3.8425       3.7836       3.7257       3.7484       3.6755       3.6787       3.6511       0.0469      81.3830       8.3563       0.0030       0.0889       3.7913       0.0868       2.6299    4264.0000
   10149.0       4.0381       3.9633       3.8977       3.8409       3.8356       3.7541       3.7282       3.7007       0.0424      82.6940       8.3482       0.0051       0.0937       3.8477       0.0870       2.6376    4260.0000
   10149.5       4.2480       4.1686       4.0955       4.0281       4.1860       4.0892       4.0625       4.0011       0.0412      83.3494       8.3615       0.0040       0.0955       3.8892       0.0850       2.6395    4283.0000
