~VERSION INFORMATION
VERS.           2.0   :CWLS Log ASCII Standard - VERSION 2.0
WRAP.           NO    :One Line per depth step
PROD.  Schlumberger   :LAS Producer
PROG.  DLIS to ASCII 15C0-309                          :LAS Program name and version
CREA.        2008/02/20 22:50                          :LAS Creation date {YYYY/MM/DD hh:mm}
DLIS_CREA.  2008-Feb-20	21:27			       :DLIS Creation date and time {YYYY-MMM-DD hh:mm}
SOURCE.     MAIN_AIT_TLD_MCFL_CNL_046PUP.DLIS          :DLIS File Name
FILE-ID.     AIT_TLD_MCFL_CNL_046PUP                   :File Identification Number
#--------------------------------------------------
~WELL INFORMATION
#MNEM.UNIT      DATA             DESCRIPTION
#---- ------ --------------   -----------------------------
STRT .F      7700.0          :START DEPTH     
STOP .F      10520.0         :STOP DEPTH     
STEP .F       0.5            :STEP     
NULL .          -999.25      :NULL VALUE
COMP .        FIDELITY EXPLORATION & PRODUCTION CO.      :COMPANY
WELL .        DEADWOOD CANYON RANCH 43-28H             :WELL
FLD  .        WILDCAT                                  :FIELD
LOC  .        NE SE                                    :LOCATION
CNTY .        MOUNTRAIL                                :COUNTY
STAT .        N. DAKOTA                                :STATE
CTRY .                                                 :COUNTRY
API  .        33-061-00581                             :API NUMBER
UWI  .        3306100581                               :UNIQUE WELL ID
DATE .        20-Feb-2008                              :LOG DATE {DD-MMM-YYYY}
SRVC .        Schlumberger                             :SERVICE COMPANY
LATI .DEG                                              :LATITUDE
LONG .DEG                                              :LONGITUDE
GDAT .                                                 :GeoDetic Datum
SECT .        28                                       :Section
RANG .        92W                                      :Range
TOWN .        154N                                     :Township
#-----------------------------------------------------------------------------
~PARAMETER INFORMATION
#MNEM.UNIT    VALUE                      DESCRIPTION
#---- -----   --------------------       ------------------------
RUN  .          ONE                      :RUN NUMBER
PDAT .        GROUND LEVEL               :Permanent Datum
EPD  .F         2111.000000              :Elevation of Permanent Datum above Mean Sea Level
LMF  .          KELLY BUSHING            :Logging Measured From (Name of Logging Elevation Reference)
APD  .F          18.000000               :Elevation of Depth Reference (LMF) above Permanent Datum
#-----------------------------------------------------------------------------
~CURVE INFORMATION
#MNEM.UNIT   API CODE                                  DESCRIPTION
#---- -----  --------                                  -----------------------
DEPT .F                                                :DEPTH (BOREHOLE) {F10.1}
AF20 .OHMM                                             :Array Induction Four Foot Resistivity A20 {F13.4}
AF30 .OHMM                                             :Array Induction Four Foot Resistivity A30 {F13.4}
AF60 .OHMM                                             :Array Induction Four Foot Resistivity A60 {F13.4}
AF90 .OHMM                                             :Array Induction Four Foot Resistivity A90 {F13.4}
AT20 .OHMM                                             :Array Induction Two Foot Resistivity A20 {F13.4}
AT30 .OHMM                                             :Array Induction Two Foot Resistivity A30 {F13.4}
AT60 .OHMM                                             :Array Induction Two Foot Resistivity A60 {F13.4}
AT90 .OHMM                                             :Array Induction Two Foot Resistivity A90 {F13.4}
DPHZ .CFCF                                             :HRDD Standard Resolution Density Porosity {F13.4}
GR_EDTC.GAPI                                           :Gamma Ray {F13.4}
HCAL .IN                                               :HRCC Cal. Caliper {F13.4}
HDRA .G/C3                                             :HRDD Density Correction {F13.4}
NPOR .CFCF                                             :Enhanced Thermal Neutron Porosity {F13.4}
PEFZ .                                                 :HRDD Standard Resolution Formation Photoelectric Factor {F13.4}
PXND_HILT.CFCF                                         :HILT Porosity CrossPlot {F13.4}
RHOZ .G/C3                                             :HRDD Standard Resolution Formation Density {F13.4}
TENS .LBF                                              :Cable Tension {F13.4}
#-----------------------------------------------------------------------------
# 
#     DEPT        AF20         AF30         AF60         AF90         AT20         AT30         AT60         AT90         DPHZ       GR_EDTC        HCAL         HDRA         NPOR         PEFZ      PXND_HILT       RHOZ         TENS
#
~A  
    7700.0       0.8272       0.6995       0.5515       0.5091       0.7650       0.6464       0.5204       0.4537       0.2070      37.6168       8.5490      -0.0053       0.1786       2.4913       0.1974       2.3561    3421.0000
    7700.5       0.8373       0.7138       0.5649       0.5207       0.7735       0.6584       0.5329       0.4650       0.1977      45.4192       8.5588      -0.0062       0.1779       2.5176       0.1872       2.3720    3474.0000
    7701.0       0.8731       0.7505       0.5927       0.5446       0.8740       0.7521       0.6009       0.5151       0.1680      55.6923       8.4606      -0.0034       0.1422       2.5993       0.1628       2.4227    3423.0000
    7701.5       0.9137       0.7927       0.6270       0.5747       0.9979       0.8629       0.6805       0.5847       0.1403      65.6548       8.4140      -0.0001       0.1257       2.7285       0.1416       2.4701    3439.0000
    7702.0       0.9486       0.8304       0.6589       0.6096       1.0233       0.8994       0.7163       0.6189       0.1394      67.2693       8.3845       0.0013       0.1578       2.8575       0.1504       2.4716    3428.0000
    7702.5       0.9819       0.8718       0.6965       0.6471       0.9626       0.8543       0.6986       0.6120       0.1645      59.4539       8.3575      -0.0005       0.1863       2.9205       0.1660       2.4288    3436.0000
    7703.0       1.0205       0.9076       0.7313       0.6894       0.9212       0.8237       0.6946       0.6365       0.1838      46.6906       8.2323      -0.0017       0.1826       2.8985       0.1815       2.3956    3486.0000
    7703.5       1.0738       0.9584       0.7742       0.7375       0.9955       0.9067       0.7586       0.7036       0.1681      43.5336       8.2544       0.0005       0.1703       2.8486       0.1701       2.4225    3461.0000
    7704.0       1.1545       1.0333       0.8355       0.7914       1.1537       1.0178       0.8407       0.7749       0.1287      48.1902       8.3388       0.0047       0.1595       2.8451       0.1533       2.4898    3449.0000
    7704.5       1.2488       1.1188       0.8998       0.8550       1.3355       1.1479       0.9288       0.8663       0.0966      52.6909       8.3624       0.0060       0.1355       2.8862       0.1355       2.5448    3507.0000
    7705.0       1.3522       1.2149       0.9800       0.9204       1.3995       1.2020       0.9818       0.9126       0.0887      54.9700       8.3526       0.0042       0.1216       2.9488       0.1253       2.5584    3472.0000
    7705.5       1.4485       1.3049       1.0716       1.0011       1.4835       1.3102       1.0868       1.0072       0.0963      54.5510       8.4079       0.0011       0.1252       2.9856       0.1248       2.5453    3523.0000
    7706.0       1.5129       1.3685       1.1541       1.0679       1.6397       1.4247       1.2158       1.1194       0.1040      57.7454       8.3821      -0.0004       0.1362       3.0041       0.1279       2.5322    3494.0000
    7706.5       1.5559       1.4257       1.2353       1.1371       1.5871       1.4164       1.2557       1.1539       0.1047      61.6674       8.4091      -0.0015       0.1350       2.9761       0.1276       2.5309    3482.0000
    7707.0       1.6018       1.4805       1.3399       1.2047       1.3880       1.3021       1.2419       1.1248       0.0981      66.1238       8.4803      -0.0025       0.1328       2.9570       0.1251       2.5422    3477.0000
    7707.5       1.6911       1.5817       1.4452       1.3257       1.3383       1.2634       1.2308       1.1675       0.0825      70.0860       8.5318      -0.0033       0.1250       2.9842       0.1161       2.5689    3478.0000
    7708.0       1.8846       1.7680       1.6130       1.5086       1.7290       1.6480       1.5268       1.4976       0.0593      78.0736       8.5349      -0.0031       0.1070       3.0559       0.1029       2.6085    3430.0000
    7708.5       2.1780       2.0337       1.8314       1.7187       2.2334       2.1643       1.8873       2.0445       0.0392      83.2733       8.5097      -0.0025       0.0962       3.1509       0.0928       2.6430    3453.0000
    7709.0       2.5569       2.3689       2.1325       2.0105       2.7635       2.5158       2.2507       2.4259       0.0286      84.2279       8.4803      -0.0020       0.1077       3.2073       0.0900       2.6610    3469.0000
    7709.5       2.9946       2.7419       2.4587       2.3417       3.0616       2.8270       2.5017       2.8563       0.0266      76.2517       8.4214      -0.0023       0.1005       3.2075       0.0849       2.6646    3442.0000
    7710.0       3.4787       3.1757       2.8392       2.7274       3.3159       3.0755       2.6878       3.2154       0.0282      76.1080       8.4754      -0.0049       0.0622       3.1713       0.0761       2.6617    3496.0000
    7710.5       3.9493       3.5627       3.1903       3.0857       3.7286       3.5123       3.0457       3.6174       0.0262      78.6389       8.3870      -0.0063       0.0784       3.1325       0.0727       2.6651    3465.0000
    7711.0       4.5646       4.0568       3.6086       3.4953       4.4118       3.9564       3.3455       4.1523       0.0228      77.9610       8.4017      -0.0059       0.1018       3.1195       0.0725       2.6710    3495.0000
    7711.5       5.3986       4.6841       4.0443       3.8389       5.6433       4.7449       4.0001       4.8499       0.0213      59.9758       8.4214      -0.0010       0.0755       3.1364       0.0609       2.6736    3472.0000
    7712.0       6.0926       5.1160       4.2953       4.0726       7.6292       6.2033       4.8815       5.7605       0.0283      38.5499       8.3968       0.0114       0.0180       3.2594       0.0454       2.6616    3453.0000
    7712.5       6.2577       5.1550       4.2719       4.0568       8.0487       6.4154       4.5399       5.2157       0.0492      22.6851       8.3674       0.0184       0.0316       3.4200       0.0477       2.6259    3453.0000
    7713.0       5.7082       4.6665       3.8687       3.6617       8.5193       6.6328       4.7344       5.3358       0.0635      20.4949       8.2643       0.0268       0.0704       3.5524       0.0622       2.6013    3403.0000
    7713.5       4.8422       3.9904       3.3247       3.1458       5.9308       4.8201       3.6856       4.0227       0.0753      23.8156       8.2152       0.0189       0.0804       3.5096       0.0762       2.5813    3490.0000
    7714.0       4.0476       3.3747       2.8231       2.6768       4.0309       3.4429       2.7030       3.0639       0.0771      33.0128       8.2495       0.0130       0.0862       3.3699       0.0867       2.5782    3467.0000
    7714.5       3.4432       2.8697       2.4301       2.3387       3.2362       2.7168       2.2631       2.4210       0.0798      46.3199       8.3526       0.0021       0.1072       3.2148       0.0947       2.5735    3470.0000
    7715.0       3.1411       2.6033       2.1588       2.0630       2.7022       2.2822       1.9509       2.0530       0.0705      57.9046       8.3913      -0.0007       0.1220       3.1303       0.1041       2.5895    3459.0000
    7715.5       3.0349       2.4607       2.0056       1.9264       2.5340       2.1263       1.7542       1.8823       0.0518      66.1440       8.4189      -0.0011       0.1089       3.0954       0.1012       2.6215    3495.0000
    7716.0       3.1241       2.4537       1.9485       1.8642       2.9116       2.3558       1.8338       2.0845       0.0348      62.3981       8.4410      -0.0001       0.1043       3.0497       0.0942       2.6506    3466.0000
    7716.5       3.2820       2.4751       1.8872       1.7737       3.6388       2.6358       1.9145       2.0917       0.0319      50.3249       8.4508       0.0006       0.1008       2.9764       0.0827       2.6555    3476.0000
    7717.0       3.3878       2.4642       1.8136       1.6877       4.1853       2.8672       1.9468       2.0645       0.0438      33.9376       8.4935      -0.0004       0.0858       2.9177       0.0727       2.6352    3455.0000
