~VERSION INFORMATION
VERS.           2.0   :CWLS Log ASCII Standard - VERSION 2.0
WRAP.           NO    :One Line per depth step
PROD.  Schlumberger   :LAS Producer
PROG.  DLIS to ASCII 15C0-309                          :LAS Program name and version
CREA.        2008/02/20 22:50                          :LAS Creation date {YYYY/MM/DD hh:mm}
DLIS_CREA.  2008-Feb-20	21:27			       :DLIS Creation date and time {YYYY-MMM-DD hh:mm}
SOURCE.     MAIN_AIT_TLD_MCFL_CNL_046PUP.DLIS          :DLIS File Name
FILE-ID.     AIT_TLD_MCFL_CNL_046PUP                   :File Identification Number
#--------------------------------------------------
~WELL INFORMATION
#MNEM.UNIT      DATA             DESCRIPTION
#---- ------ --------------   -----------------------------
STRT .F      7700.0          :START DEPTH     
STOP .F      10520.0         :STOP DEPTH     
STEP .F       0.5            :STEP     
NULL .          -999.25      :NULL VALUE
COMP .        FIDELITY EXPLORATION & PRODUCTION CO.      :COMPANY
WELL .        DEADWOOD CANYON RANCH 43-28H             :WELL
FLD  .        WILDCAT                                  :FIELD
LOC  .        NE SE                                    :LOCATION
CNTY .        MOUNTRAIL                                :COUNTY
STAT .        N. DAKOTA                                :STATE
CTRY .                                                 :COUNTRY
API  .        33-061-00581                             :API NUMBER
UWI  .        3306100581                               :UNIQUE WELL ID
DATE .        20-Feb-2008                              :LOG DATE {DD-MMM-YYYY}
SRVC .        Schlumberger                             :SERVICE COMPANY
LATI .DEG                                              :LATITUDE
LONG .DEG                                              :LONGITUDE
GDAT .                                                 :GeoDetic Datum
SECT .        28                                       :Section
RANG .        92W                                      :Range
TOWN .        154N                                     :Township
#-----------------------------------------------------------------------------
~PARAMETER INFORMATION
#MNEM.UNIT    VALUE                      DESCRIPTION
#---- -----   --------------------       ------------------------
RUN  .          ONE                      :RUN NUMBER
PDAT .        GROUND LEVEL               :Permanent Datum
EPD  .F         2111.000000              :Elevation of Permanent Datum above Mean Sea Level
LMF  .          KELLY BUSHING            :Logging Measured From (Name of Logging Elevation Reference)
APD  .F          18.000000               :Elevation of Depth Reference (LMF) above Permanent Datum
#-----------------------------------------------------------------------------
~CURVE INFORMATION
#MNEM.UNIT   API CODE                                  DESCRIPTION
#---- -----  --------                                  -----------------------
DEPT .F                                                :DEPTH (BOREHOLE) {F10.1}
AF20 .OHMM                                             :Array Induction Four Foot Resistivity A20 {F13.4}
AF30 .OHMM                                             :Array Induction Four Foot Resistivity A30 {F13.4}
AF60 .OHMM                                             :Array Induction Four Foot Resistivity A60 {F13.4}
AF90 .OHMM                                             :Array Induction Four Foot Resistivity A90 {F13.4}
AT20 .OHMM                                             :Array Induction Two Foot Resistivity A20 {F13.4}
AT30 .OHMM                                             :Array Induction Two Foot Resistivity A30 {F13.4}
AT60 .OHMM                                             :Array Induction Two Foot Resistivity A60 {F13.4}
AT90 .OHMM                                             :Array Induction Two Foot Resistivity A90 {F13.4}
DPHZ .CFCF                                             :HRDD Standard Resolution Density Porosity {F13.4}
GR_EDTC.GAPI                                           :Gamma Ray {F13.4}
HCAL .IN                                               :HRCC Cal. Caliper {F13.4}
HDRA .G/C3                                             :HRDD Density Correction {F13.4}
NPOR .CFCF                                             :Enhanced Thermal Neutron Porosity {F13.4}
PEFZ .                                                 :HRDD Standard Resolution Formation Photoelectric Factor {F13.4}
PXND_HILT.CFCF                                         :HILT Porosity CrossPlot {F13.4}
RHOZ .G/C3                                             :HRDD Standard Resolution Formation Density {F13.4}
TENS .LBF                                              :Cable Tension {F13.4}
#-----------------------------------------------------------------------------
# 
#     DEPT        AF20         AF30         AF60         AF90         AT20         AT30         AT60         AT90         DPHZ       GR_EDTC        HCAL         HDRA         NPOR         PEFZ      PXND_HILT       RHOZ         TENS
#
~A  
# ...
    9747.5     119.5043     141.7660     135.0340     119.2987     125.9166     145.3335     140.2855     119.5705       0.0001      18.3188       8.3924      -0.0007       0.0150       4.8904       0.0128       2.7098    4138.0000
    9748.0     115.3936     137.6349     130.9052     115.8207     122.6506     134.6739     124.7230     109.3309      -0.0035      20.8680       8.4023       0.0003       0.0159       4.8509       0.0147       2.7160    4134.0000
    9748.5     115.0491     131.6477     125.6768     111.6673     115.4896     129.2478     127.1257     111.1344      -0.0062      20.8646       8.3968       0.0017       0.0199       4.7931       0.0158       2.7205    4142.0000
    9749.0     111.8788     126.0850     119.5039     106.1998     115.6463     127.4765     123.4876     109.4644      -0.0040      21.9185       8.4079       0.0015       0.0138       4.7688       0.0157       2.7168    4075.0000
    9749.5     111.4058     122.7057     116.0846     103.3681     117.8530     117.3113     111.3629     103.2028      -0.0007      22.6469       8.3858       0.0008       0.0143       4.7703       0.0158       2.7112    4072.0000
    9750.0     110.5221     120.5560     114.1651     101.3726     109.6907     109.6630     103.3760      97.0356       0.0017      23.4733       8.4101       0.0001       0.0214       4.7833       0.0160       2.7071    4139.0000
    9750.5     108.6897     119.5287     113.8547     100.5535     113.0945     114.4174     107.4786     101.2692       0.0025      22.5597       8.3802      -0.0004       0.0142       4.8174       0.0156       2.7058    4088.0000
    9751.0     107.7629     117.8638     111.9602      98.6831     114.4323     119.4720     113.4330     106.6750       0.0034      21.3281       8.3968      -0.0013       0.0158       4.9071       0.0155       2.7042    4056.0000
    9751.5     108.4866     120.1363     116.9659     101.5071     117.7380     126.1026     120.9767     110.9616       0.0026      19.8058       8.3968      -0.0019       0.0173       4.9959       0.0148       2.7055    4100.0000
    9752.0     105.4334     117.2829     115.2750     101.3279     117.5576     128.9338     127.4752     113.3352      -0.0008      20.1700       8.4012      -0.0011       0.0082       5.0035       0.0132       2.7113    4104.0000
    9752.5      99.9435     111.5374     110.4717      97.8413     108.8918     119.6753     121.5380     106.8582      -0.0058      19.1438       8.3747       0.0011       0.0124       4.8913       0.0135       2.7200    4112.0000
    9753.0      92.5395     103.2925     102.6380      91.9444      96.9283     110.6175     113.1384      99.7723      -0.0062      21.8371       8.3802       0.0023       0.0163       4.7867       0.0152       2.7206    4097.0000
    9753.5      84.1661      93.6548      92.9382      84.5568      92.7193     100.2821     101.1174      91.2784      -0.0041      23.3416       8.3791       0.0022       0.0191       4.7505       0.0176       2.7170    4124.0000
    9754.0      76.3025      84.1553      83.2466      77.1196      81.5620      90.4523      93.9608      82.9741      -0.0041      26.1316       8.3836       0.0020       0.0208       4.7553       0.0195       2.7170    4099.0000
    9754.5      69.2912      75.8959      74.5800      70.3913      68.0436      72.1949      70.9739      67.6729      -0.0073      28.6962       8.3692       0.0023       0.0168       4.7360       0.0227       2.7225    4168.0000
    9755.0      64.6940      70.0578      68.5091      65.5529      54.1354      57.0186      56.3176      54.9607      -0.0100      27.6835       8.3791       0.0029       0.0344       4.6786       0.0266       2.7271    4118.0000
    9755.5      62.2064      66.5896      64.7009      62.6475      58.3340      60.0715      56.4633      58.1943      -0.0078      28.4009       8.3913       0.0024       0.0409       4.6550       0.0291       2.7234    4110.0000
    9756.0      60.9465      64.7254      62.5093      61.6218      69.2268      71.4543      68.6369      67.2933      -0.0077      24.9794       8.3802       0.0026       0.0234       4.6667       0.0246       2.7232    4149.0000
    9756.5      59.5016      62.9049      60.7417      59.9115      73.4152      76.1108      71.4446      70.7372      -0.0113      24.6858       8.3880       0.0041       0.0159       4.7196       0.0222       2.7293    4143.0000
    9757.0      58.0372      61.4609      59.1952      57.6288      57.6462      58.8178      57.8507      55.7266      -0.0111      26.2293       8.3791       0.0042       0.0253       4.7425       0.0230       2.7290    4111.0000
    9757.5      57.4860      61.1585      59.1085      57.3091      48.2259      48.7282      46.8952      46.4796      -0.0030      29.8449       8.3692       0.0022       0.0322       4.8029       0.0279       2.7151    4111.0000
    9758.0      58.8305      63.0087      61.0887      58.8221      54.4066      56.4975      54.4696      53.2124       0.0023      32.3940       8.3703       0.0003       0.0418       4.8057       0.0316       2.7060    4136.0000
    9758.5      62.6505      67.6048      65.7158      62.4063      61.4805      63.7900      61.6264      59.4143       0.0004      30.5114       8.3703       0.0003       0.0299       4.8276       0.0299       2.7093    4118.0000
    9759.0      68.9989      74.7950      72.7723      68.2658      69.2229      77.1908      75.5033      70.3325      -0.0051      25.5431       8.3802       0.0007       0.0280       4.8524       0.0251       2.7188    4089.0000
    9759.5      75.5965      82.5778      80.4320      74.5485      87.7716      95.5223      93.9469      81.9511      -0.0087      20.2810       8.3747       0.0010       0.0176       4.9193       0.0189       2.7249    4116.0000
    9760.0      81.3749      89.2513      86.8886      80.0300     102.7544     108.7780     105.1998      98.9226      -0.0103      18.5853       8.3880       0.0016       0.0081       4.9710       0.0147       2.7277    4086.0000
    9760.5      84.7119      93.3288      90.7340      83.2357      98.6989     104.7085     102.4283      93.2688      -0.0122      19.0341       8.3637       0.0028       0.0115       4.9175       0.0150       2.7309    4116.0000
    9761.0      86.4235      95.5739      92.5020      84.3503      87.7695      95.5131      95.0148      85.6941      -0.0095      21.8146       8.3791       0.0029       0.0223       4.8175       0.0190       2.7263    4111.0000
    9761.5      87.7164      97.2927      93.9743      85.8882      75.0304      78.7980      77.0821      71.6300      -0.0073      22.3295       8.3570       0.0027       0.0338       4.7108       0.0230       2.7225    4092.0000
    9762.0      90.9251     100.3227      96.4626      88.0482      85.5886      90.2724      86.5917      81.3672      -0.0049      21.8808       8.3747       0.0019       0.0299       4.6633       0.0221       2.7183    4122.0000
    9762.5      94.8928     103.2129      96.6852      90.9735      96.7718     106.1959     100.0719      92.5788      -0.0037      19.9740       8.3747       0.0010       0.0164       4.6600       0.0183       2.7163    4116.0000
    9763.0     101.0694     110.7800     104.7653      96.9304     126.8972     132.2938     119.7921     114.3925      -0.0053      19.9567       8.3968       0.0010       0.0095       4.6566       0.0135       2.7190    4134.0000
    9763.5     102.3153     110.4148     105.1723      97.2317     123.3613     126.2346     120.4378     112.8902      -0.0106      20.8451       8.4079       0.0023       0.0120       4.6557       0.0131       2.7282    4173.0000
    9764.0      97.0566     104.0851      99.4042      92.6069     122.3730     121.8111     118.0282     109.1678      -0.0131      20.0360       8.4012       0.0028       0.0148       4.6725       0.0125       2.7323    4111.0000
    9764.5      87.4757      93.8490      89.8706      84.2356     110.3307     112.5939     104.6107      99.5458      -0.0086      19.1992       8.4145       0.0015       0.0040       4.7486       0.0115       2.7247    4146.0000
