~VERSION INFORMATION
VERS.           2.0   :CWLS Log ASCII Standard - VERSION 2.0
WRAP.           NO    :One Line per depth step
PROD.  Schlumberger   :LAS Producer
PROG.  DLIS to ASCII 2.2                               :LAS Program name and version
CREA.        2008/02/27 08:04                          :LAS Creation date {YYYY/MM/DD hh:mm}
SOURCE.     Bakken_PNS_Final_Data.dlis  :DLIS File Name
FILE-ID.     Interpretation Chain - gf_user            :File Identification Number
#--------------------------------------------------
~WELL INFORMATION
#MNEM.UNIT      DATA             DESCRIPTION
#---- ------ --------------   -----------------------------
STRT .F        10539.0       :START DEPTH     
STOP .F         7660.0       :STOP DEPTH     
STEP .F           -0.5       :STEP     
NULL .          -999.25      :NULL VALUE
COMP .               :COMPANY
WELL .        Bakken            :WELL
FLD  .                                         :FIELD
LOC  .                                                 :LOCATION
CNTY .                                       :COUNTY
STAT .                                        :STATE
CTRY .        USA                                      :COUNTRY
API  .                                                 :API NUMBER
UWI  .                    :UNIQUE WELL ID
DATE .                                                 :LOG DATE
SRVC .        Schlumberger                             :SERVICE COMPANY
LATI .DEG     48.129                                   :LATITUDE
LONG .DEG     -102.505                                 :LONGITUDE
GDAT .                                                 :GeoDetic Datum
#-----------------------------------------------------------------------------
~PARAMETER INFORMATION
#MNEM.UNIT    VALUE                      DESCRIPTION
#---- -----   --------------------       ------------------------
RUN  .                                   :RUN NUMBER
PDAT .        GROUND LEVEL               :Permanent Datum
EPD  .F         2111.000000              :Elevation of Permanent Datum above Mean Sea Level
EPD  .F         2111.000000              :Elevation of tool zero above Mean Sea Level
LMF  .          KELLY BUSHING            :Logging Measured From (Name of Logging Elevation Reference)
APD  .F          18.000000               :Elevation of Depth Reference (LMF) above Permanent Datum
#-----------------------------------------------------------------------------
~CURVE INFORMATION
#MNEM.UNIT   API CODE                                  DESCRIPTION
#---- -----  --------                                  -----------------------
DEPT .F                                                :DEPTH (BOREHOLE) {F10.1}
MAXXENE_OVERALL.                                       :Overall estimate of maximum cross energy {F13.4}
MINXENE_OVERALL.                                       :Overall estimate of minimum cross energy {F13.4}
PR   .                                                 :Poisson's Ratio {F13.4}
VPVS .                                                 :Compressional to Shear Velocity Ratio {F13.4}
DTSM .US/F                                             :Delta-T Shear {F13.4}
DTCO .US/F                                             :Delta-T Compressional {F13.4}
HD2_PPC2.IN                                            :PPC2 Hole Diameter 2 {F13.4}
HD1_PPC2.IN                                            :PPC2 Hole Diameter 1 {F13.4}
HD2_PPC1.IN                                            :PPC1 Hole Diameter 2 {F13.4}
HD1_PPC1.IN                                            :PPC1 Hole Diameter 1 {F13.4}
GR_EDTC.GAPI                                           :Gamma Ray {F13.4}
BS   .IN                                               :Bit Size {F13.4}
AT90 .OHMM                                             :Array Induction Two Foot Resistivity A90 {F13.4}
AT60 .OHMM                                             :Array Induction Two Foot Resistivity A60 {F13.4}
AT30 .OHMM                                             :Array Induction Two Foot Resistivity A30 {F13.4}
AT20 .OHMM                                             :Array Induction Two Foot Resistivity A20 {F13.4}
AT10 .OHMM                                             :Array Induction Two Foot Resistivity A10 {F13.4}
RHOZ .G/C3                                             :HRDD Standard Resolution Formation Density {F13.4}
PEFZ .                                                 :HRDD Standard Resolution Formation Photoelectric Factor {F13.4}
NPOR .CFCF                                             :Enhanced Thermal Neutron Porosity in Selected Lithology {F13.4}
TDEP ..1IN                                             : {I11}
#-----------------------------------------------------------------------------
# 
#     DEPT    MAXXENE_OVER MINXENE_OVER     PR           VPVS         DTSM         DTCO       HD2_PPC2     HD1_PPC2     HD2_PPC1     HD1_PPC1     GR_EDTC        BS           AT90         AT60         AT30         AT20         AT10         RHOZ         PEFZ         NPOR         TDEP
#             ALL          ALL
~A  
   10539.0      19.4632       6.4786       0.3022       1.8781      95.2727      50.7273    -999.2500    -999.2500    -999.2500    -999.2500    -999.2500    -999.2500       5.6338      11.7530      43.1511      30.0963      26.5524    -999.2500    -999.2500    -999.2500 1176799232
   10538.5      19.4632       6.4786       0.3022       1.8781      95.2727      50.7273    -999.2500    -999.2500    -999.2500    -999.2500    -999.2500    -999.2500       5.6338      11.7530      43.1511      30.0963      26.5524    -999.2500    -999.2500    -999.2500 1176799232
   10538.0      19.4632       6.4786       0.3022       1.8781      95.2727      50.7273    -999.2500    -999.2500    -999.2500    -999.2500    -999.2500    -999.2500       5.6338      11.7530      43.1511      30.0963      26.5524    -999.2500    -999.2500    -999.2500 1176799232
   10537.5      19.4632       6.4786       0.3022       1.8781      95.2727      50.7273    -999.2500    -999.2500    -999.2500    -999.2500    -999.2500    -999.2500       5.6338      11.7530      43.1511      30.0963      26.5524    -999.2500    -999.2500    -999.2500 1176799232
   10537.0      19.4632       6.4786       0.3022       1.8781      95.2727      50.7273    -999.2500    -999.2500    -999.2500    -999.2500    -999.2500    -999.2500       5.6338      11.7530      43.1511      30.0963      26.5524    -999.2500    -999.2500    -999.2500 1176799232
   10536.5      19.4632       6.4786       0.3022       1.8781      95.2727      50.7273    -999.2500    -999.2500    -999.2500    -999.2500    -999.2500    -999.2500       5.6338      11.7530      43.1511      30.0963      26.5524    -999.2500    -999.2500    -999.2500 1176799232
   10536.0      19.4632       6.4786       0.3022       1.8781      95.2727      50.7273    -999.2500    -999.2500    -999.2500    -999.2500    -999.2500    -999.2500       5.6338      11.7530      43.1511      30.0963      26.5524    -999.2500    -999.2500    -999.2500 1176799232
   10535.5      19.4632       6.4786       0.3022       1.8781      95.2727      50.7273    -999.2500    -999.2500    -999.2500    -999.2500    -999.2500    -999.2500       5.6338      11.7530      43.1511      30.0963      26.5524    -999.2500    -999.2500    -999.2500 1176799232
   10535.0      19.4632       6.4786       0.3022       1.8781      95.2727      50.7273    -999.2500    -999.2500    -999.2500    -999.2500    -999.2500    -999.2500       5.6338      11.7530      43.1511      30.0963      26.5524    -999.2500    -999.2500    -999.2500 1176799232
   10534.5      19.4632       6.4786       0.3022       1.8781      95.2727      50.7273    -999.2500    -999.2500    -999.2500    -999.2500    -999.2500    -999.2500       5.6338      11.7530      43.1511      30.0963      26.5524    -999.2500    -999.2500    -999.2500 1176799232
   10534.0      19.4632       6.4786       0.3022       1.8781      95.2727      50.7273    -999.2500    -999.2500    -999.2500    -999.2500    -999.2500    -999.2500       5.6338      11.7530      43.1511      30.0963      26.5524    -999.2500    -999.2500    -999.2500 1176799232
   10533.5      19.4632       6.4786       0.3022       1.8781      95.2727      50.7273    -999.2500    -999.2500    -999.2500    -999.2500    -999.2500    -999.2500       5.6338      11.7530      43.1511      30.0963      26.5524    -999.2500    -999.2500    -999.2500 1176799232
   10533.0      19.4632       6.4786       0.3022       1.8781      95.2727      50.7273    -999.2500    -999.2500    -999.2500    -999.2500    -999.2500    -999.2500       5.6338      11.7530      43.1511      30.0963      26.5524    -999.2500    -999.2500    -999.2500 1176799232
   10532.5      19.4632       6.4786       0.3022       1.8781      95.2727      50.7273       9.0255       8.7629       8.8584       8.7145      88.8133       8.7500       5.6338      11.7530      43.1511      30.0963      26.5524    -999.2500    -999.2500    -999.2500 1176799232
   10532.0      19.4632       6.4786       0.3022       1.8781      95.2727      50.7273       9.0255       8.7629       8.8584       8.7145      88.8133       8.7500       5.6338      11.7530      43.1511      30.0963      26.5524    -999.2500    -999.2500    -999.2500 1176799232
   10531.5      19.4632       6.4786       0.3022       1.8781      95.2727      50.7273       9.0255       8.7629       8.8584       8.7145      88.8133       8.7500       5.6338      11.7530      43.1511      30.0963      26.5524    -999.2500    -999.2500    -999.2500 1176799232
   10531.0      19.4632       6.4786       0.3022       1.8781      95.2727      50.7273       9.0255       8.7629       8.8584       8.7145      88.8133       8.7500       5.6338      11.7530      43.1511      30.0963      26.5524    -999.2500    -999.2500    -999.2500 1176799232
   10530.5      19.4632       6.4786       0.3022       1.8781      95.2727      50.7273       9.0255       8.7629       8.8584       8.7145      88.8133       8.7500       5.6338      11.7530      43.1511      30.0963      26.5524    -999.2500    -999.2500      -0.0004 1176799232
   10530.0      19.4632       6.4786       0.3022       1.8781      95.2727      50.7273       9.0255       8.7629       8.8584       8.7145      88.8133       8.7500       5.6338      11.7530      43.1511      30.0963      26.5524    -999.2500    -999.2500      -0.0004 1176799232
   10529.5      19.4632       6.4786       0.3022       1.8781      95.2727      50.7273       9.0255       8.7629       8.8584       8.7145      88.8133       8.7500       5.6276      11.7490      42.9684      30.0852      26.5413    -999.2500    -999.2500      -0.0004 1176798720
   10529.0      19.4632       6.4786       0.3022       1.8781      95.2727      50.7273       9.0255       8.7629       8.8584       8.7145      88.8133       8.7500       5.6208      11.7442      42.7841      30.0789      26.5318    -999.2500    -999.2500      -0.0004 1176798208
   10528.5      19.4632       6.4786       0.3022       1.8781      95.2727      50.7273       9.0255       8.7629       8.8584       8.7145      88.8133       8.7500       5.6136      11.7395      42.6085      30.0731      26.5201    -999.2500    -999.2500      -0.0004 1176797696
   10528.0      19.4632       6.4786       0.3022       1.8781      95.2727      50.7273       9.0255       8.7629       8.8584       8.7145      88.8133       8.7500       5.6058      11.7357      42.4501      30.0855      26.5149    -999.2500    -999.2500      -0.0004 1176797184
   10527.5      19.4632       6.4786       0.3022       1.8781      95.2727      50.7273       9.0255       8.7629       8.8584       8.7145      88.8133       8.7500       5.5978      11.7310      42.3135      30.0862      26.5020    -999.2500    -999.2500      -0.0004 1176796672
   10527.0      19.4614       6.4782       0.3022       1.8781      95.2727      50.7273       9.0255       8.7629       8.8584       8.7145      88.8133       8.7500       5.5898      11.7287      42.1557      30.0669      26.4853    -999.2500    -999.2500      -0.0004 1176796160
   10526.5      19.4596       6.4777       0.3022       1.8781      95.2727      50.7273       9.0255       8.7629       8.8584       8.7145      88.8133       8.7500       5.5839      11.7308      42.0813      30.0815      26.4657    -999.2500    -999.2500      -0.0004 1176795648
   10526.0      19.4577       6.4773       0.3022       1.8781      95.2727      50.7273       9.0255       8.7629       8.8584       8.7145      88.8133       8.7500       5.5800      11.7394      42.0435      30.1231      26.4565    -999.2500    -999.2500      -0.0004 1176795136
   10525.5      19.4559       6.4769       0.3022       1.8781      95.2727      50.7273       9.0255       8.7629       8.8584       8.7145      88.8133       8.7500       5.5789      11.7479      42.0415      30.1380      26.4462    -999.2500    -999.2500      -0.0004 1176794624
   10525.0      19.4541       6.4765       0.3022       1.8781      95.2727      50.7273       9.0255       8.7629       8.8584       8.7145      88.8133       8.7500       5.5802      11.7580      42.0693      30.1752      26.4520       2.7179       5.8491      -0.0004 1176794112
