~VERSION INFORMATION
VERS.           2.0   :CWLS Log ASCII Standard - VERSION 2.0
WRAP.           NO    :One Line per depth step
PROD.  Schlumberger   :LAS Producer
PROG.  DLIS to ASCII 15C0-309                          :LAS Program name and version
CREA.        2008/02/20 22:50                          :LAS Creation date {YYYY/MM/DD hh:mm}
DLIS_CREA.  2008-Feb-20	21:27			       :DLIS Creation date and time {YYYY-MMM-DD hh:mm}
SOURCE.     MAIN_AIT_TLD_MCFL_CNL_046PUP.DLIS          :DLIS File Name
FILE-ID.     AIT_TLD_MCFL_CNL_046PUP                   :File Identification Number
#--------------------------------------------------
~WELL INFORMATION
#MNEM.UNIT      DATA             DESCRIPTION
#---- ------ --------------   -----------------------------
STRT .F      7700.0          :START DEPTH     
STOP .F      10520.0         :STOP DEPTH     
STEP .F       0.5            :STEP     
NULL .          -999.25      :NULL VALUE
COMP .        FIDELITY EXPLORATION & PRODUCTION CO.      :COMPANY
WELL .        DEADWOOD CANYON RANCH 43-28H             :WELL
FLD  .        WILDCAT                                  :FIELD
LOC  .        NE SE                                    :LOCATION
CNTY .        MOUNTRAIL                                :COUNTY
STAT .        N. DAKOTA                                :STATE
CTRY .                                                 :COUNTRY
API  .        33-061-00581                             :API NUMBER
UWI  .        3306100581                               :UNIQUE WELL ID
DATE .        20-Feb-2008                              :LOG DATE {DD-MMM-YYYY}
SRVC .        Schlumberger                             :SERVICE COMPANY
LATI .DEG                                              :LATITUDE
LONG .DEG                                              :LONGITUDE
GDAT .                                                 :GeoDetic Datum
SECT .        28                                       :Section
RANG .        92W                                      :Range
TOWN .        154N                                     :Township
#-----------------------------------------------------------------------------
~PARAMETER INFORMATION
#MNEM.UNIT    VALUE                      DESCRIPTION
#---- -----   --------------------       ------------------------
RUN  .          ONE                      :RUN NUMBER
PDAT .        GROUND LEVEL               :Permanent Datum
EPD  .F         2111.000000              :Elevation of Permanent Datum above Mean Sea Level
LMF  .          KELLY BUSHING            :Logging Measured From (Name of Logging Elevation Reference)
APD  .F          18.000000               :Elevation of Depth Reference (LMF) above Permanent Datum
#-----------------------------------------------------------------------------
~CURVE INFORMATION
#MNEM.UNIT   API CODE                                  DESCRIPTION
#---- -----  --------                                  -----------------------
DEPT .F                                                :DEPTH (BOREHOLE) {F10.1}
AF20 .OHMM                                             :Array Induction Four Foot Resistivity A20 {F13.4}
AF30 .OHMM                                             :Array Induction Four Foot Resistivity A30 {F13.4}
AF60 .OHMM                                             :Array Induction Four Foot Resistivity A60 {F13.4}
AF90 .OHMM                                             :Array Induction Four Foot Resistivity A90 {F13.4}
AT20 .OHMM                                             :Array Induction Two Foot Resistivity A20 {F13.4}
AT30 .OHMM                                             :Array Induction Two Foot Resistivity A30 {F13.4}
AT60 .OHMM                                             :Array Induction Two Foot Resistivity A60 {F13.4}
AT90 .OHMM                                             :Array Induction Two Foot Resistivity A90 {F13.4}
DPHZ .CFCF                                             :HRDD Standard Resolution Density Porosity {F13.4}
GR_EDTC.GAPI                                           :Gamma Ray {F13.4}
HCAL .IN                                               :HRCC Cal. Caliper {F13.4}
HDRA .G/C3                                             :HRDD Density Correction {F13.4}
NPOR .CFCF                                             :Enhanced Thermal Neutron Porosity {F13.4}
PEFZ .                                                 :HRDD Standard Resolution Formation Photoelectric Factor {F13.4}
PXND_HILT.CFCF                                         :HILT Porosity CrossPlot {F13.4}
RHOZ .G/C3                                             :HRDD Standard Resolution Formation Density {F13.4}
TENS .LBF                                              :Cable Tension {F13.4}
#-----------------------------------------------------------------------------
# 
#     DEPT        AF20         AF30         AF60         AF90         AT20         AT30         AT60         AT90         DPHZ       GR_EDTC        HCAL         HDRA         NPOR         PEFZ      PXND_HILT       RHOZ         TENS
#
~A  
# ...
    8260.0       2.5870       2.5280       2.5643       2.3482       2.0196       1.9701       2.0843       1.9412      -0.0117      26.7468       8.6742       0.0032       0.1516       4.0837       0.0951       2.7300    3667.0000
    8260.5       2.4088       2.3710       2.4159       2.2354       1.9184       1.8715       1.9990       1.8166      -0.0105      25.8462       8.5868       0.0032       0.1485       3.9618       0.1063       2.7280    3630.0000
    8261.0       2.3667       2.3204       2.3802       2.2118       2.1837       2.1100       2.2775       2.1750      -0.0150      28.5942       8.5537       0.0031       0.1351       3.8702       0.1032       2.7356    3661.0000
    8261.5       2.4464       2.3752       2.4671       2.2990       2.4664       2.3323       2.5752       2.3839      -0.0163      31.1342       8.5382       0.0021       0.1362       3.7898       0.1027       2.7379    3671.0000
    8262.0       2.6296       2.5547       2.6779       2.5040       2.6071       2.5203       2.7927       2.5147      -0.0125      32.7794       8.5220       0.0006       0.1151       3.7268       0.1019       2.7314    3643.0000
    8262.5       2.9561       2.8734       3.0248       2.8549       2.4872       2.3975       2.5945       2.4668      -0.0014      37.5357       8.4741      -0.0032       0.1441       3.7196       0.1090       2.7125    3658.0000
    8263.0       3.5538       3.4626       3.7132       3.4646       2.8775       2.8620       3.1476       2.9381       0.0003      39.8225       8.4705      -0.0072       0.1815       3.8013       0.1116       2.7094    3689.0000
    8263.5       4.6683       4.4903       4.9463       4.6356       4.3555       4.2486       4.7724       4.3608      -0.0148      40.0121       8.4754      -0.0098       0.1210       4.0498       0.0822       2.7354    3661.0000
    8264.0       6.8409       6.6700       7.5545       6.8782      11.0990       9.4765      10.8549       8.9860      -0.0499      34.9996       8.5638      -0.0078       0.0426       4.3833       0.0388       2.7954    3682.0000
    8264.5      10.9566      10.5733      12.5166      11.4708      23.2288      20.1113      25.4235      17.2757      -0.0860      29.0362       8.5662      -0.0040       0.0189       4.7115       0.0123       2.8570    3664.0000
    8265.0      18.1049      17.1749      22.0849      20.3345      35.5784      26.7498      36.1321      30.8227      -0.1153      22.3184       8.6448      -0.0004       0.0011       4.9345       0.0000       2.9072    3656.0000
    8265.5      31.7399      30.7211      36.3529      34.2389      49.4520      55.0115      54.2148      51.1614      -0.1342      14.5811       8.6865       0.0014      -0.0078       5.0806       0.0000       2.9395    3693.0000
    8266.0      41.9782      41.4090      45.2939      42.6524      59.1479      90.4168      98.6819      55.0523      -0.1476       9.8699       8.7209       0.0025      -0.0092       5.1723       0.0000       2.9624    3700.0000
    8266.5      44.3953      41.7647      51.7623      50.1039     118.7659     225.2165     319.1992     129.8853      -0.1530       7.4923       8.7194       0.0021      -0.0101       5.2623       0.0000       2.9717    3710.0000
    8267.0      39.1046      40.0975      42.1101      41.4363     164.5276      58.4636      67.5369      59.1308      -0.1546       8.0969       8.6890      -0.0044      -0.0161       5.3246       0.0000       2.9744    3679.0000
    8267.5      25.7990      26.7444      31.9737      32.5533      77.7147      37.8920      42.5742      38.5901      -0.1447       7.2842       8.6472      -0.0182      -0.0195       5.3268       0.0000       2.9575    3679.0000
    8268.0      14.6378      15.5525      17.4149      18.1318      29.1595      23.9698      24.1396      24.0693      -0.1280       8.4409       8.6089      -0.0147      -0.0148       5.1747       0.0000       2.9288    3695.0000
    8268.5       9.7727      10.3719      11.3976      11.6398      11.0993      11.7464      12.8188      12.9386      -0.0942      11.0113       8.5932       0.0007       0.0203       4.8677       0.0101       2.8711    3705.0000
    8269.0       7.4142       7.7363       8.1137       8.5846       4.9910       5.1079       5.2883       5.3953      -0.0517      14.4122       8.5441       0.0110       0.1009       4.5993       0.0432       2.7985    3739.0000
    8269.5       6.8941       7.1444       7.3681       7.7906       3.9213       3.8022       3.7623       3.8181      -0.0300      15.5378       8.5147       0.0044       0.1355       4.5350       0.0622       2.7613    3734.0000
    8270.0       7.6119       7.8754       8.0342       8.7423       5.8082       5.8299       5.9591       6.6250      -0.0461      13.9956       8.5269      -0.0056       0.0645       4.6693       0.0475       2.7888    3718.0000
    8270.5       9.8400      10.1811      10.3240      11.6016      13.0481      14.0556      14.9686      16.2404      -0.0862      13.6836       8.5073      -0.0022       0.0136       4.8277       0.0207       2.8574    3716.0000
    8271.0      14.5915      15.0045      15.0522      17.2350      28.7900      22.8388      26.2900      25.9363      -0.1151      14.5500       8.4778       0.0017       0.0127       4.8879       0.0061       2.9067    3734.0000
    8271.5      23.3512      23.2569      24.7480      26.7276      53.0123      53.6432      47.1346      48.6288      -0.1247      16.1566       8.4680       0.0030       0.0244       4.9376       0.0004       2.9232    3726.0000
    8272.0      40.6856      40.8500      40.6419      47.7205      66.4927      85.7457      66.8136      70.1840      -0.1335      14.2024       8.4336       0.0033       0.0138       5.0167       0.0000       2.9382    3748.0000
    8272.5      69.3630      77.9470      62.6540      84.3713     154.0871     112.8409      83.9118      93.1872      -0.1432      11.3749       8.5139       0.0031      -0.0054       5.1566       0.0000       2.9549    3731.0000
    8273.0     128.9875     128.2255      92.1747     119.0956     280.2354     152.9075     187.9941     161.5245      -0.1540       7.3051       8.5957       0.0034      -0.0107       5.2591       0.0000       2.9734    3729.0000
    8273.5     222.5094     192.0955     186.7904     202.1218     588.9740     429.6964     661.1130     515.6329      -0.1591       5.8917       8.6448       0.0030      -0.0134       5.3292       0.0000       2.9820    3739.0000
    8274.0     396.6531     399.3400     663.6211     617.1548     865.4390    1950.0000    1950.0000    1950.0000      -0.1591       4.7638       8.6521       0.0018      -0.0188       5.3677       0.0000       2.9821    3719.0000
    8274.5     806.9548    1370.3351    1950.0000    1950.0000    1050.6838    1604.2356    1950.0000    1950.0000      -0.1552       5.5209       8.6300       0.0002      -0.0184       5.4101       0.0000       2.9754    3697.0000
    8275.0    1286.3015    1950.0000    1950.0000    1950.0000    1507.5925    1778.2104    1950.0000    1950.0000      -0.1560       5.0049       8.5834       0.0006      -0.0167       5.3905       0.0000       2.9768    3723.0000
    8275.5    1629.1882    1950.0000    1950.0000    1950.0000    1803.5814    1926.7582    1950.0000    1950.0000      -0.1574       4.6267       8.5564       0.0014      -0.0171       5.3704       0.0000       2.9791    3681.0000
    8276.0    1842.2733    1950.0000    1950.0000    1950.0000    1950.0000    1950.0000    1950.0000    1950.0000      -0.1590       4.6897       8.5294       0.0023      -0.0180       5.3517       0.0000       2.9819    3699.0000
    8276.5    1943.8820    1950.0000    1950.0000    1950.0000    1950.0000    1950.0000    1950.0000    1950.0000      -0.1595       4.8191       8.4926       0.0018      -0.0168       5.3444       0.0000       2.9828    3698.0000
    8277.0    1950.0000    1950.0000    1950.0000    1950.0000    1950.0000    1950.0000    1950.0000    1950.0000      -0.1615       4.5901       8.4631       0.0021      -0.0160       5.3188       0.0000       2.9861    3652.0000
