~VERSION INFORMATION
VERS.           2.0   :CWLS Log ASCII Standard - VERSION 2.0
WRAP.           NO    :One Line per depth step
PROD.  Schlumberger   :LAS Producer
PROG.  DLIS to ASCII 2.2                               :LAS Program name and version
CREA.        2008/02/27 08:04                          :LAS Creation date {YYYY/MM/DD hh:mm}
SOURCE.     Bakken_PNS_Final_Data.dlis  :DLIS File Name
FILE-ID.     Interpretation Chain - gf_user            :File Identification Number
#--------------------------------------------------
~WELL INFORMATION
#MNEM.UNIT      DATA             DESCRIPTION
#---- ------ --------------   -----------------------------
STRT .F        10539.0       :START DEPTH     
STOP .F         7660.0       :STOP DEPTH     
STEP .F           -0.5       :STEP     
NULL .          -999.25      :NULL VALUE
COMP .               :COMPANY
WELL .        Bakken            :WELL
FLD  .                                         :FIELD
LOC  .                                                 :LOCATION
CNTY .                                       :COUNTY
STAT .                                        :STATE
CTRY .        USA                                      :COUNTRY
API  .                                                 :API NUMBER
UWI  .                    :UNIQUE WELL ID
DATE .                                                 :LOG DATE
SRVC .        Schlumberger                             :SERVICE COMPANY
LATI .DEG     48.129                                   :LATITUDE
LONG .DEG     -102.505                                 :LONGITUDE
GDAT .                                                 :GeoDetic Datum
#-----------------------------------------------------------------------------
~PARAMETER INFORMATION
#MNEM.UNIT    VALUE                      DESCRIPTION
#---- -----   --------------------       ------------------------
RUN  .                                   :RUN NUMBER
PDAT .        GROUND LEVEL               :Permanent Datum
EPD  .F         2111.000000              :Elevation of Permanent Datum above Mean Sea Level
EPD  .F         2111.000000              :Elevation of tool zero above Mean Sea Level
LMF  .          KELLY BUSHING            :Logging Measured From (Name of Logging Elevation Reference)
APD  .F          18.000000               :Elevation of Depth Reference (LMF) above Permanent Datum
#-----------------------------------------------------------------------------
~CURVE INFORMATION
#MNEM.UNIT   API CODE                                  DESCRIPTION
#---- -----  --------                                  -----------------------
DEPT .F                                                :DEPTH (BOREHOLE) {F10.1}
MAXXENE_OVERALL.                                       :Overall estimate of maximum cross energy {F13.4}
MINXENE_OVERALL.                                       :Overall estimate of minimum cross energy {F13.4}
PR   .                                                 :Poisson's Ratio {F13.4}
VPVS .                                                 :Compressional to Shear Velocity Ratio {F13.4}
DTSM .US/F                                             :Delta-T Shear {F13.4}
DTCO .US/F                                             :Delta-T Compressional {F13.4}
HD2_PPC2.IN                                            :PPC2 Hole Diameter 2 {F13.4}
HD1_PPC2.IN                                            :PPC2 Hole Diameter 1 {F13.4}
HD2_PPC1.IN                                            :PPC1 Hole Diameter 2 {F13.4}
HD1_PPC1.IN                                            :PPC1 Hole Diameter 1 {F13.4}
GR_EDTC.GAPI                                           :Gamma Ray {F13.4}
BS   .IN                                               :Bit Size {F13.4}
AT90 .OHMM                                             :Array Induction Two Foot Resistivity A90 {F13.4}
AT60 .OHMM                                             :Array Induction Two Foot Resistivity A60 {F13.4}
AT30 .OHMM                                             :Array Induction Two Foot Resistivity A30 {F13.4}
AT20 .OHMM                                             :Array Induction Two Foot Resistivity A20 {F13.4}
AT10 .OHMM                                             :Array Induction Two Foot Resistivity A10 {F13.4}
RHOZ .G/C3                                             :HRDD Standard Resolution Formation Density {F13.4}
PEFZ .                                                 :HRDD Standard Resolution Formation Photoelectric Factor {F13.4}
NPOR .CFCF                                             :Enhanced Thermal Neutron Porosity in Selected Lithology {F13.4}
TDEP ..1IN                                             : {I11}
#-----------------------------------------------------------------------------
# 
#     DEPT    MAXXENE_OVER MINXENE_OVER     PR           VPVS         DTSM         DTCO       HD2_PPC2     HD1_PPC2     HD2_PPC1     HD1_PPC1     GR_EDTC        BS           AT90         AT60         AT30         AT20         AT10         RHOZ         PEFZ         NPOR         TDEP
#             ALL          ALL
~A  
# ...
    9393.5       8.7577       1.0148       0.2798       1.8085      92.7273      51.2727       9.1179       8.8684       9.0515       8.9049      16.4566       8.7500      88.2803     107.7098     111.3961     107.3304     108.2387       2.7147       4.8775       0.0045 1175635456
    9393.0       8.7499       1.0246       0.2827       1.8169      93.8182      51.6364       9.1179       8.8677       9.0386       8.9049      16.4589       8.7500      93.5903     111.5458     107.3534     110.0851     109.8513       2.7180       4.8000       0.0127 1175634944
    9392.5       8.7435       1.0312       0.2871       1.8298      93.8182      51.2727       9.0873       8.8677       9.0515       8.9168      18.0088       8.7500     101.4623     106.5642     110.9883     109.6500     111.2616       2.7168       4.7578       0.0163 1175634432
    9392.0       8.7409       1.0384       0.2758       1.7972      93.4545      52.0000       9.0915       8.8684       9.0515       8.9049      17.8449       8.7500      99.8063     101.3045     104.2313      98.2853     104.3449       2.7147       4.7649       0.0091 1175633920
    9391.5       8.7401       1.0443       0.2692       1.7793      93.8182      52.7273       9.0785       8.8684       9.0515       8.9049      18.5327       8.7500      95.9166      94.7143      98.3706      95.9576      95.3798       2.7159       4.8118       0.0168 1175633408
    9391.0       8.7383       1.0471       0.2743       1.7931      94.5455      52.7273       9.0873       8.8794       9.0515       8.9049      18.3629       8.7500      91.3774      88.3327      92.2585      90.8134      87.4927       2.7188       4.8810       0.0292 1175632896
    9390.5       8.7390       1.0465       0.2712       1.7847      93.4545      52.3636       9.0915       8.8684       9.0515       8.9049      18.0352       8.7500      87.0899      86.0864      89.0382      85.5646      78.4192       2.7133       4.9175       0.0280 1175632384
    9390.0       8.7447       1.0450       0.2758       1.7972      93.4545      52.0000       9.0785       8.8684       9.0515       8.9049      17.1726       8.7500      81.2822      80.4268      82.5632      78.8064      73.8175       2.7084       4.8916       0.0284 1175631872
    9389.5       8.7499       1.0424       0.2738       1.7917      93.8182      52.3636       9.0915       8.8684       9.0386       8.9049      17.3478       8.7500      88.8108      87.9837      92.1361      88.1486      80.5976       2.7042       4.8287       0.0256 1175631360
    9389.0       8.7529       1.0430       0.2827       1.8169      93.8182      51.6364       9.0915       8.8567       9.0515       8.9049      18.8202       8.7500      91.9323      94.6508      98.0798      95.5864      83.7919       2.7043       4.8318       0.0183 1175630848
    9388.5       8.7554       1.0444       0.2758       1.7972      93.4545      52.0000       9.0742       8.8677       9.0515       8.9049      18.8179       8.7500      91.3246      95.9533      98.3480      95.7484      84.2614       2.7054       4.8624       0.0200 1175630336
    9388.0       8.7489       1.0496       0.2875       1.8310      94.5455      51.6364       9.0873       8.8794       9.0515       8.9049      20.9267       8.7500      85.4450      91.6327      93.2681      89.5243      80.9358       2.7047       4.8850       0.0159 1175629824
    9387.5       8.7481       1.0549       0.2836       1.8194      95.2727      52.3636       9.0915       8.8684       9.0515       8.9049      22.1235       8.7500      78.7382      86.5721      89.7037      87.0422      79.9639       2.7075       4.8268       0.0132 1175629312
    9387.0       8.7405       1.0623       0.2726       1.7884      95.2727      53.2727       9.1179       8.8684       9.0515       8.9168      23.4786       8.7500      80.3506      90.0859      89.1285      83.0676      77.8018       2.7067       4.7468       0.0179 1175628800
    9386.5       8.7322       1.0678       0.2530       1.7391      94.5455      54.3636       9.0873       8.8677       9.0515       8.9287      23.7823       8.7500      79.4273      83.3077      82.2364      76.8167      73.4892       2.7035       4.6769       0.0279 1175628288
    9386.0       8.7209       1.0750       0.2530       1.7391      94.5455      54.3636       9.1311       8.8567       9.0386       8.9407      22.9194       8.7500      66.0270      68.5752      69.9768      66.5979      64.1129       2.6964       4.6515       0.0260 1175627776
    9385.5       8.7116       1.0867       0.2770       1.8007      95.2727      52.9091       9.1270       8.8560       9.0386       8.9407      22.5891       8.7500      62.0185      63.3396      60.5343      57.4295      56.4049       2.6963       4.6236       0.0289 1175627264
    9385.0       8.7064       1.0949       0.2770       1.8007      95.2727      52.9091       9.1268       8.8677       9.0515       8.9168      23.4517       8.7500      53.3625      51.8330      52.4145      50.9663      49.2453       2.6987       4.6239       0.0329 1175626752
    9384.5       8.6966       1.1043       0.2770       1.8007      95.2727      52.9091       9.1442       8.8574       9.0515       8.9169      27.0526       8.7500      53.6849      54.8326      55.7209      54.8632      54.0427       2.7074       4.6073       0.0124 1175626240
    9384.0       8.6812       1.1191       0.2770       1.8007      98.5455      54.7273       9.1311       8.8801       9.0515       8.9168      30.0045       8.7500      59.1671      61.2711      65.5909      63.1492      61.5720       2.7110       4.5856       0.0019 1175625728
    9383.5       8.6688       1.1350       0.2716       1.7857     100.0000      56.0000       9.1309       8.8567       9.0772       8.9169      32.4196       8.7500      42.8426      45.3141      53.8492      52.8638      50.5533       2.7084       4.5523       0.0323 1175625216
    9383.0       8.6587       1.1534       0.2710       1.7843      99.2727      55.6364       9.1442       8.8450       9.0772       8.9407      33.8943       8.7500      42.3784      44.8677      45.8119      45.7195      42.8458       2.6979       4.5425       0.0416 1175624704
    9382.5       8.6420       1.1738       0.2615       1.7597      98.5455      56.0000       9.0785       8.8567       9.0643       8.9049      34.7584       8.7500      38.1939      40.8385      42.9688      41.2396      39.4971       2.6861       4.5618       0.0348 1175624192
    9382.0       8.6246       1.1922       0.2705       1.7829      98.5455      55.2727       9.0915       8.8567       9.0643       8.9049      29.4077       8.7500      35.5555      38.2529      38.6276      38.6704      36.6647       2.6900       4.5148       0.0431 1175623680
    9381.5       8.6142       1.2087       0.2785       1.8047      97.4545      54.0000       9.0915       8.8567       9.0515       8.9168      22.0328       8.7500      31.5940      33.4677      34.2569      34.2172      32.9861       2.6970       4.4755       0.0465 1175623168
    9381.0       8.6084       1.2189       0.2788       1.8056      94.5455      52.3636       9.0742       8.8443       9.0515       8.9049      15.2965       8.7500      36.3741      38.3317      38.8710      37.5646      34.8897       2.7027       4.4902       0.0362 1175622656
    9380.5       8.6096       1.2255       0.2832       1.8182      94.5455      52.0000       9.0873       8.8560       9.0515       8.9168      13.7909       8.7500      47.3204      51.0830      51.7623      51.1233      48.6876       2.7022       4.5829       0.0288 1175622144
    9380.0       8.6134       1.2274       0.2743       1.7931      94.5455      52.7273       9.0915       8.8567       9.0515       8.9168      17.1198       8.7500      69.1656      75.2413      77.4312      78.7690      79.0181       2.6957       4.6941       0.0092 1175621632
    9379.5       8.6206       1.2183       0.2579       1.7508      94.5455      54.0000       9.0875       8.8677       9.0515       8.9049      21.9501       8.7500      83.0332      89.9772      92.1986      99.1310     103.6164       2.6921       4.7115       0.0057 1175621120
