~VERSION INFORMATION
VERS.           2.0   :CWLS Log ASCII Standard - VERSION 2.0
WRAP.           NO    :One Line per depth step
PROD.  Schlumberger   :LAS Producer
PROG.  DLIS to ASCII 2.2                               :LAS Program name and version
CREA.        2008/02/27 08:04                          :LAS Creation date {YYYY/MM/DD hh:mm}
SOURCE.     Bakken_PNS_Final_Data.dlis  :DLIS File Name
FILE-ID.     Interpretation Chain - gf_user            :File Identification Number
#--------------------------------------------------
~WELL INFORMATION
#MNEM.UNIT      DATA             DESCRIPTION
#---- ------ --------------   -----------------------------
STRT .F        10539.0       :START DEPTH     
STOP .F         7660.0       :STOP DEPTH     
STEP .F           -0.5       :STEP     
NULL .          -999.25      :NULL VALUE
COMP .               :COMPANY
WELL .        Bakken            :WELL
FLD  .                                         :FIELD
LOC  .                                                 :LOCATION
CNTY .                                       :COUNTY
STAT .                                        :STATE
CTRY .        USA                                      :COUNTRY
API  .                                                 :API NUMBER
UWI  .                    :UNIQUE WELL ID
DATE .                                                 :LOG DATE
SRVC .        Schlumberger                             :SERVICE COMPANY
LATI .DEG     48.129                                   :LATITUDE
LONG .DEG     -102.505                                 :LONGITUDE
GDAT .                                                 :GeoDetic Datum
#-----------------------------------------------------------------------------
~PARAMETER INFORMATION
#MNEM.UNIT    VALUE                      DESCRIPTION
#---- -----   --------------------       ------------------------
RUN  .                                   :RUN NUMBER
PDAT .        GROUND LEVEL               :Permanent Datum
EPD  .F         2111.000000              :Elevation of Permanent Datum above Mean Sea Level
EPD  .F         2111.000000              :Elevation of tool zero above Mean Sea Level
LMF  .          KELLY BUSHING            :Logging Measured From (Name of Logging Elevation Reference)
APD  .F          18.000000               :Elevation of Depth Reference (LMF) above Permanent Datum
#-----------------------------------------------------------------------------
~CURVE INFORMATION
#MNEM.UNIT   API CODE                                  DESCRIPTION
#---- -----  --------                                  -----------------------
DEPT .F                                                :DEPTH (BOREHOLE) {F10.1}
MAXXENE_OVERALL.                                       :Overall estimate of maximum cross energy {F13.4}
MINXENE_OVERALL.                                       :Overall estimate of minimum cross energy {F13.4}
PR   .                                                 :Poisson's Ratio {F13.4}
VPVS .                                                 :Compressional to Shear Velocity Ratio {F13.4}
DTSM .US/F                                             :Delta-T Shear {F13.4}
DTCO .US/F                                             :Delta-T Compressional {F13.4}
HD2_PPC2.IN                                            :PPC2 Hole Diameter 2 {F13.4}
HD1_PPC2.IN                                            :PPC2 Hole Diameter 1 {F13.4}
HD2_PPC1.IN                                            :PPC1 Hole Diameter 2 {F13.4}
HD1_PPC1.IN                                            :PPC1 Hole Diameter 1 {F13.4}
GR_EDTC.GAPI                                           :Gamma Ray {F13.4}
BS   .IN                                               :Bit Size {F13.4}
AT90 .OHMM                                             :Array Induction Two Foot Resistivity A90 {F13.4}
AT60 .OHMM                                             :Array Induction Two Foot Resistivity A60 {F13.4}
AT30 .OHMM                                             :Array Induction Two Foot Resistivity A30 {F13.4}
AT20 .OHMM                                             :Array Induction Two Foot Resistivity A20 {F13.4}
AT10 .OHMM                                             :Array Induction Two Foot Resistivity A10 {F13.4}
RHOZ .G/C3                                             :HRDD Standard Resolution Formation Density {F13.4}
PEFZ .                                                 :HRDD Standard Resolution Formation Photoelectric Factor {F13.4}
NPOR .CFCF                                             :Enhanced Thermal Neutron Porosity in Selected Lithology {F13.4}
TDEP ..1IN                                             : {I11}
#-----------------------------------------------------------------------------
# 
#     DEPT    MAXXENE_OVER MINXENE_OVER     PR           VPVS         DTSM         DTCO       HD2_PPC2     HD1_PPC2     HD2_PPC1     HD1_PPC1     GR_EDTC        BS           AT90         AT60         AT30         AT20         AT10         RHOZ         PEFZ         NPOR         TDEP
#             ALL          ALL
~A  
# ...
    7668.0       9.1839       1.2051       0.2616       1.7600     112.0000      63.6364       9.1218       8.8925       9.0964       8.9671      73.2151       8.7500       1.7680       1.7299       1.8136       1.8209       1.8624       2.5521       3.2208       0.0985 1173331968
    7667.5       9.1590       1.1577       0.2596       1.7549     114.5455      65.2727       9.1260       8.8932       9.0964       8.9552      79.1000       8.7500       1.8903       1.8585       1.9624       1.9663       2.0865       2.5734       3.1285       0.1000 1173330944
    7667.0       9.1639       1.1130       0.2109       1.6522     117.4545      71.0909       9.1218       8.9042       9.0964       8.9316      86.3657       8.7500       2.0691       2.0334       2.1576       2.1663       2.3339       2.6025       3.0181       0.1039 1173329920
    7666.5       9.1671       1.0862       0.2152       1.6600     120.7273      72.7273       9.1349       8.8925       9.1092       8.9316      93.8914       8.7500       2.3160       2.2720       2.4510       2.4002       2.6191       2.6417       3.0136       0.1116 1173328896
    7666.0       9.1777       1.0673       0.2371       1.7035     123.2727      72.3636       9.1479       8.8808       9.1349       8.9316     106.5585       8.7500       2.7784       2.7158       2.9451       2.9019       3.1229       2.6619       3.1280       0.1201 1173327872
    7665.5       9.2073       1.0483       0.2331       1.6950     123.2727      72.7273       9.1349       8.9042       9.1349       8.9316     100.6244       8.7500       3.0118       2.9827       3.2240       3.1633       3.2292       2.6741       3.2790       0.1389 1173326848
    7665.0       9.2648       1.0345       0.2457       1.7222     124.0000      72.0000       9.1218       8.9159       9.1477       8.9316      96.3650       8.7500       2.8851       2.9064       3.0613       3.0093       3.0954       2.6743       3.3588       0.1837 1173325824
    7664.5       9.2648       1.0345       0.2625       1.7623     124.0000      70.3636       9.1349       8.9159       9.1477       8.9316      92.2428       8.7500       2.5855       2.5508       2.6648       2.6407       2.7346       2.6858       3.4110       0.1765 1173324800
    7664.0       9.2648       1.0345       0.2625       1.7623     124.0000      70.3636       9.0911       8.9387       9.1092       8.9316      99.3343       8.7500       2.3315       2.2851       2.3289       2.3134       2.3939       2.6795       3.4903       0.1358 1173323776
    7663.5       9.2648       1.0345       0.2625       1.7623     124.0000      70.3636       9.1177       8.9971       9.0836       9.0027      97.5198       8.7500       2.3777       2.2531       2.3233       2.3221       2.4062       2.6749       3.5320       0.1457 1173322752
    7663.0       9.2648       1.0345       0.2589       1.7532     124.0000      70.7273       9.1218       9.0094       9.0836       9.0027      97.3292       8.7500       2.5690       2.3852       2.5659       2.5408       2.6397       2.6601       3.5699       0.1558 1173321728
    7662.5       9.2648       1.0345       0.2503       1.7326     122.5455      70.7273       9.1218       9.0094       9.0836       9.0027      91.0772       8.7500       2.6032       2.4149       2.6206       2.5924       2.6904       2.6629       3.5820       0.1554 1173320704
    7662.0       9.2648       1.0345       0.2407       1.7113     118.5455      69.2727       9.1220       8.9977       9.0707       8.9907      87.4954       8.7500       2.5674       2.4142       2.5707       2.5670       2.6543       2.6598       3.6364       0.1624 1173319680
    7661.5       9.2648       1.0345       0.2655       1.7699     117.4545      66.3636       9.1090       8.9510       9.0836       8.9907      79.7324       8.7500       2.5333       2.3909       2.5506       2.5666       2.6407       2.6497       3.6834       0.1640 1173318656
    7661.0       9.2648       1.0345       0.2683       1.7772     116.0000      65.2727       9.1129       8.9166       9.0836       8.9671      77.7662       8.7500       2.4206       2.2895       2.4272       2.4408       2.4714       2.6465       3.6323       0.2047 1173317632
    7660.5       9.2648       1.0345       0.2556       1.7452     114.5455      65.6364       9.1046       8.9153       9.0836       8.9552      78.2577       8.7500       2.3143       2.2273       2.3441       2.3406       2.3127       2.6436       3.5523       0.1966 1173316608
    7660.0       9.2648       1.0345       0.2480       1.7275     115.2727      66.7273       9.1129       8.9049       9.0964       8.9552      81.7840       8.7500       2.3363       2.2599       2.3694       2.3742       2.3567       2.6452       3.4728       0.1283 1173315584
