~VERSION INFORMATION
VERS.           2.0   :CWLS Log ASCII Standard - VERSION 2.0
WRAP.           NO    :One Line per depth step
PROD.  Schlumberger   :LAS Producer
PROG.  DLIS to ASCII 2.2                               :LAS Program name and version
CREA.        2008/02/27 08:04                          :LAS Creation date {YYYY/MM/DD hh:mm}
SOURCE.     Bakken_PNS_Final_Data.dlis  :DLIS File Name
FILE-ID.     Interpretation Chain - gf_user            :File Identification Number
#--------------------------------------------------
~WELL INFORMATION
#MNEM.UNIT      DATA             DESCRIPTION
#---- ------ --------------   -----------------------------
STRT .F        10539.0       :START DEPTH     
STOP .F         7660.0       :STOP DEPTH     
STEP .F           -0.5       :STEP     
NULL .          -999.25      :NULL VALUE
COMP .               :COMPANY
WELL .        Bakken            :WELL
FLD  .                                         :FIELD
LOC  .                                                 :LOCATION
CNTY .                                       :COUNTY
STAT .                                        :STATE
CTRY .        USA                                      :COUNTRY
API  .                                                 :API NUMBER
UWI  .                    :UNIQUE WELL ID
DATE .                                                 :LOG DATE
SRVC .        Schlumberger                             :SERVICE COMPANY
LATI .DEG     48.129                                   :LATITUDE
LONG .DEG     -102.505                                 :LONGITUDE
GDAT .                                                 :GeoDetic Datum
#-----------------------------------------------------------------------------
~PARAMETER INFORMATION
#MNEM.UNIT    VALUE                      DESCRIPTION
#---- -----   --------------------       ------------------------
RUN  .                                   :RUN NUMBER
PDAT .        GROUND LEVEL               :Permanent Datum
EPD  .F         2111.000000              :Elevation of Permanent Datum above Mean Sea Level
EPD  .F         2111.000000              :Elevation of tool zero above Mean Sea Level
LMF  .          KELLY BUSHING            :Logging Measured From (Name of Logging Elevation Reference)
APD  .F          18.000000               :Elevation of Depth Reference (LMF) above Permanent Datum
#-----------------------------------------------------------------------------
~CURVE INFORMATION
#MNEM.UNIT   API CODE                                  DESCRIPTION
#---- -----  --------                                  -----------------------
DEPT .F                                                :DEPTH (BOREHOLE) {F10.1}
MAXXENE_OVERALL.                                       :Overall estimate of maximum cross energy {F13.4}
MINXENE_OVERALL.                                       :Overall estimate of minimum cross energy {F13.4}
PR   .                                                 :Poisson's Ratio {F13.4}
VPVS .                                                 :Compressional to Shear Velocity Ratio {F13.4}
DTSM .US/F                                             :Delta-T Shear {F13.4}
DTCO .US/F                                             :Delta-T Compressional {F13.4}
HD2_PPC2.IN                                            :PPC2 Hole Diameter 2 {F13.4}
HD1_PPC2.IN                                            :PPC2 Hole Diameter 1 {F13.4}
HD2_PPC1.IN                                            :PPC1 Hole Diameter 2 {F13.4}
HD1_PPC1.IN                                            :PPC1 Hole Diameter 1 {F13.4}
GR_EDTC.GAPI                                           :Gamma Ray {F13.4}
BS   .IN                                               :Bit Size {F13.4}
AT90 .OHMM                                             :Array Induction Two Foot Resistivity A90 {F13.4}
AT60 .OHMM                                             :Array Induction Two Foot Resistivity A60 {F13.4}
AT30 .OHMM                                             :Array Induction Two Foot Resistivity A30 {F13.4}
AT20 .OHMM                                             :Array Induction Two Foot Resistivity A20 {F13.4}
AT10 .OHMM                                             :Array Induction Two Foot Resistivity A10 {F13.4}
RHOZ .G/C3                                             :HRDD Standard Resolution Formation Density {F13.4}
PEFZ .                                                 :HRDD Standard Resolution Formation Photoelectric Factor {F13.4}
NPOR .CFCF                                             :Enhanced Thermal Neutron Porosity in Selected Lithology {F13.4}
TDEP ..1IN                                             : {I11}
#-----------------------------------------------------------------------------
# 
#     DEPT    MAXXENE_OVER MINXENE_OVER     PR           VPVS         DTSM         DTCO       HD2_PPC2     HD1_PPC2     HD2_PPC1     HD1_PPC1     GR_EDTC        BS           AT90         AT60         AT30         AT20         AT10         RHOZ         PEFZ         NPOR         TDEP
#             ALL          ALL
~A  
# ...
    9959.0       8.6660       1.2524       0.2621       1.7613      99.2727      56.3636       9.0476       8.8325       9.0096       8.8677      37.4167       8.7500      49.2445      49.9901      53.9639      54.0482      50.6809       2.7265       4.6432       0.0286 1176214528
    9958.5       8.6913       1.2012       0.2628       1.7628     100.0000      56.7273       9.0742       8.8325       9.0096       8.8439      38.6970       8.7500      35.3838      36.4711      37.2512      37.1282      35.0833       2.7189       4.6389       0.0535 1176214016
    9958.0       8.7119       1.1568       0.2800       1.8092     100.0000      55.2727       9.0740       8.8325       9.0257       8.8677      36.7830       8.7500      32.0474      31.9958      32.5231      32.5768      30.8792       2.7181       4.6082       0.0520 1176213504
    9957.5       8.7233       1.1256       0.2817       1.8140      99.2727      54.7273       9.0610       8.8208       9.0225       8.8558      37.3588       8.7500      38.0259      38.4151      38.3506      39.1491      36.8340       2.7197       4.6097       0.0262 1176212992
    9957.0       8.7399       1.0952       0.2858       1.8261      99.2727      54.3636       9.0476       8.8325       9.0225       8.8677      37.4803       8.7500      43.6841      46.1740      45.0013      44.1499      42.0549       2.7193       4.6187       0.0258 1176212480
    9956.5       8.7548       1.0726       0.2758       1.7974     100.0000      55.6364       9.0610       8.8325       9.0225       8.8557      39.5612       8.7500      45.8749      47.0844      46.5535      45.7140      43.3303       2.7145       4.6029       0.0333 1176211968
    9956.0       8.7749       1.0436       0.2710       1.7843      99.2727      55.6364       9.0610       8.8208       9.0225       8.8677      43.5559       8.7500      40.4501      42.0350      42.2258      41.6703      39.6407       2.7099       4.5705       0.0406 1176211456
    9955.5       8.7981       1.0143       0.2758       1.7974     100.0000      55.6364       9.0610       8.8325       9.0225       8.8677      44.0734       8.7500      37.7767      38.7549      38.9434      37.6738      36.8021       2.7078       4.5603       0.0452 1176210944
    9955.0       8.8171       0.9854       0.2800       1.8092     100.0000      55.2727       9.0567       8.8318       9.0225       8.8677      39.0533       8.7500      34.4101      36.4143      36.8789      35.6071      34.9294       2.7062       4.5985       0.0448 1176210432
    9954.5       8.8272       0.9708       0.2858       1.8261      99.2727      54.3636       9.0742       8.8325       9.0225       8.8797      35.1809       8.7500      33.4955      35.4761      36.5707      35.0670      34.9661       2.7067       4.6432       0.0395 1176209920
    9954.0       8.8345       0.9544       0.2854       1.8249      98.5455      54.0000       9.0740       8.8325       9.0225       8.8797      29.9845       8.7500      40.3197      43.3907      44.3964      42.7368      42.0482       2.7133       4.6447       0.0310 1176209408
    9953.5       8.8410       0.9405       0.2935       1.8498      98.5455      53.2727       9.0567       8.8318       9.0257       8.8811      32.5885       8.7500      54.1966      59.3621      59.5817      56.2487      54.9648       2.7186       4.6380       0.0206 1176208896
    9953.0       8.8477       0.9215       0.2858       1.8261      99.2727      54.3636       9.0742       8.8325       9.0225       8.8677      33.9686       8.7500      53.2172      58.0472      60.4216      60.1012      56.1432       2.7264       4.6490       0.0240 1176208384
    9952.5       8.8599       0.9068       0.2796       1.8079      99.2727      54.9091       9.0607       8.8325       9.0225       8.9153      37.4277       8.7500      47.1200      50.2004      52.8270      52.3854      49.0272       2.7293       4.6654       0.0300 1176207872
    9952.0       8.8604       0.8971       0.2538       1.7409      95.2727      54.7273       9.0610       8.8443       9.0225       8.9034      35.6936       8.7500      46.0672      49.2058      51.0178      50.4825      46.7081       2.7281       4.6823       0.0328 1176207360
    9951.5       8.8743       0.8950       0.2472       1.7258      93.8182      54.3636       9.0476       8.8325       9.0225       8.9153      26.9059       8.7500      43.5168      46.1727      46.9237      45.2099      42.7202       2.7244       4.6704       0.0414 1176206848
    9951.0       8.8791       0.8968       0.2712       1.7847      93.4545      52.3636       9.0343       8.8325       9.0225       8.8915      19.8428       8.7500      48.6665      53.3359      52.4858      51.3229      48.5231       2.7195       4.7048       0.0344 1176206336
    9950.5       8.8838       0.8989       0.2820       1.8149      92.7273      51.0909       9.0610       8.8208       9.0225       8.8915      13.3307       8.7500      66.4450      71.0328      74.5763      73.7108      65.8048       2.7193       4.8352       0.0192 1176205824
    9950.0       8.8850       0.8967       0.2843       1.8214      92.7273      50.9091       9.0610       8.8208       9.0225       8.8915      15.9128       8.7500      98.7612     106.5913     108.2247     106.4661     101.1406       2.7283       5.0768       0.0036 1176205312
    9949.5       8.8897       0.8985       0.2547       1.7431      91.2727      52.3636       9.0567       8.8318       9.0225       8.8915      18.6030       8.7500     139.0881     144.8536     153.3322     144.0588     121.7714       2.7336       5.3746      -0.0007 1176204800
    9949.0       8.8857       0.9041       0.2496       1.7310      91.2727      52.7273       9.0610       8.8325       9.0225       8.8797      19.7693       8.7500     149.7098     153.8504     161.1464     135.8327     118.7777       2.7327       5.4889       0.0028 1176204288
    9948.5       8.8770       0.9144       0.2659       1.7708      92.7273      52.3636       9.0610       8.8325       9.0096       8.8797      19.5920       8.7500     135.9400     142.2540     149.1447     126.6995     107.0019       2.7154       5.3610       0.0159 1176203776
    9948.0       8.8737       0.9193       0.2706       1.7832      92.7273      52.0000       9.0434       8.8318       9.0225       8.8797      18.1117       8.7500     131.8129     128.6473     139.1895     124.1282     107.3322       2.7010       5.0744       0.0230 1176203264
    9947.5       8.8652       0.9257       0.2753       1.7958      92.7273      51.6364       9.0742       8.8325       9.0225       8.8797      17.8540       8.7500     176.3397     185.8601     185.8540     156.7448     130.5330       2.6904       4.8559       0.0119 1176202752
    9947.0       8.8537       0.9406       0.2597       1.7552      91.2727      52.0000       9.0610       8.8325       9.0225       8.8797      18.8946       8.7500     207.1124     236.8394     256.0546     204.1949     158.5927       2.6908       4.7292       0.0045 1176202240
    9946.5       8.8393       0.9586       0.2547       1.7431      91.2727      52.3636       9.0610       8.8325       9.0225       8.8797      15.2793       8.7500     269.3314     292.7319     324.6911     251.9659     188.3754       2.6969       4.6656       0.0070 1176201728
    9946.0       8.8213       0.9778       0.2547       1.7431      91.2727      52.3636       9.0652       8.8333       9.0225       8.8797      15.5370       8.7500     260.9734     326.1950     333.1115     264.0956     188.2394       2.7037       4.6203       0.0132 1176201216
    9945.5       8.8087       1.0008       0.2695       1.7801      91.2727      51.2727       9.0740       8.8325       9.0225       8.8677      12.7714       8.7500     229.7236     299.2715     294.2405     228.7754     179.3038       2.7037       4.6051       0.0132 1176200704
    9945.0       8.7990       1.0212       0.2695       1.7801      91.2727      51.2727       9.0610       8.8208       9.0225       8.8797      16.4140       8.7500     201.3258     264.8577     260.1587     208.8766     178.0997       2.6965       4.6077       0.0111 1176200192
