~VERSION INFORMATION
VERS.           2.0   :CWLS Log ASCII Standard - VERSION 2.0
WRAP.           NO    :One Line per depth step
PROD.  Schlumberger   :LAS Producer
PROG.  DLIS to ASCII 15C0-309                          :LAS Program name and version
CREA.        2008/02/20 22:50                          :LAS Creation date {YYYY/MM/DD hh:mm}
DLIS_CREA.  2008-Feb-20	21:27			       :DLIS Creation date and time {YYYY-MMM-DD hh:mm}
SOURCE.     MAIN_AIT_TLD_MCFL_CNL_046PUP.DLIS          :DLIS File Name
FILE-ID.     AIT_TLD_MCFL_CNL_046PUP                   :File Identification Number
#--------------------------------------------------
~WELL INFORMATION
#MNEM.UNIT      DATA             DESCRIPTION
#---- ------ --------------   -----------------------------
STRT .F      7700.0          :START DEPTH     
STOP .F      10520.0         :STOP DEPTH     
STEP .F       0.5            :STEP     
NULL .          -999.25      :NULL VALUE
COMP .        FIDELITY EXPLORATION & PRODUCTION CO.      :COMPANY
WELL .        DEADWOOD CANYON RANCH 43-28H             :WELL
FLD  .        WILDCAT                                  :FIELD
LOC  .        NE SE                                    :LOCATION
CNTY .        MOUNTRAIL                                :COUNTY
STAT .        N. DAKOTA                                :STATE
CTRY .                                                 :COUNTRY
API  .        33-061-00581                             :API NUMBER
UWI  .        3306100581                               :UNIQUE WELL ID
DATE .        20-Feb-2008                              :LOG DATE {DD-MMM-YYYY}
SRVC .        Schlumberger                             :SERVICE COMPANY
LATI .DEG                                              :LATITUDE
LONG .DEG                                              :LONGITUDE
GDAT .                                                 :GeoDetic Datum
SECT .        28                                       :Section
RANG .        92W                                      :Range
TOWN .        154N                                     :Township
#-----------------------------------------------------------------------------
~PARAMETER INFORMATION
#MNEM.UNIT    VALUE                      DESCRIPTION
#---- -----   --------------------       ------------------------
RUN  .          ONE                      :RUN NUMBER
PDAT .        GROUND LEVEL               :Permanent Datum
EPD  .F         2111.000000              :Elevation of Permanent Datum above Mean Sea Level
LMF  .          KELLY BUSHING            :Logging Measured From (Name of Logging Elevation Reference)
APD  .F          18.000000               :Elevation of Depth Reference (LMF) above Permanent Datum
#-----------------------------------------------------------------------------
~CURVE INFORMATION
#MNEM.UNIT   API CODE                                  DESCRIPTION
#---- -----  --------                                  -----------------------
DEPT .F                                                :DEPTH (BOREHOLE) {F10.1}
AF20 .OHMM                                             :Array Induction Four Foot Resistivity A20 {F13.4}
AF30 .OHMM                                             :Array Induction Four Foot Resistivity A30 {F13.4}
AF60 .OHMM                                             :Array Induction Four Foot Resistivity A60 {F13.4}
AF90 .OHMM                                             :Array Induction Four Foot Resistivity A90 {F13.4}
AT20 .OHMM                                             :Array Induction Two Foot Resistivity A20 {F13.4}
AT30 .OHMM                                             :Array Induction Two Foot Resistivity A30 {F13.4}
AT60 .OHMM                                             :Array Induction Two Foot Resistivity A60 {F13.4}
AT90 .OHMM                                             :Array Induction Two Foot Resistivity A90 {F13.4}
DPHZ .CFCF                                             :HRDD Standard Resolution Density Porosity {F13.4}
GR_EDTC.GAPI                                           :Gamma Ray {F13.4}
HCAL .IN                                               :HRCC Cal. Caliper {F13.4}
HDRA .G/C3                                             :HRDD Density Correction {F13.4}
NPOR .CFCF                                             :Enhanced Thermal Neutron Porosity {F13.4}
PEFZ .                                                 :HRDD Standard Resolution Formation Photoelectric Factor {F13.4}
PXND_HILT.CFCF                                         :HILT Porosity CrossPlot {F13.4}
RHOZ .G/C3                                             :HRDD Standard Resolution Formation Density {F13.4}
TENS .LBF                                              :Cable Tension {F13.4}
#-----------------------------------------------------------------------------
# 
#     DEPT        AF20         AF30         AF60         AF90         AT20         AT30         AT60         AT90         DPHZ       GR_EDTC        HCAL         HDRA         NPOR         PEFZ      PXND_HILT       RHOZ         TENS
#
~A  
# ...
   10500.0      21.9397      23.5018      17.8884      22.6729      19.1015      19.6482      14.7329      16.2970       0.0286      29.3835       8.0875       0.0044       0.0007       6.5888       0.0135       2.6612    4323.0000
   10500.5      14.2020      13.9166      10.9460      13.4103      29.0046      38.2304      19.6721      30.7333       0.0290      29.3835       8.0912       0.0027       0.0004       6.5930       0.0133       2.6604    4323.0000
   10501.0       8.1100       7.7535       6.9681       7.6243      14.7467      15.5382      14.6940      12.0025       0.0300      29.3835       8.1008       0.0016       0.0025       6.5874       0.0132       2.6588    4321.0000
   10501.5       5.1403       5.0678       4.6377       4.8854       5.9197       5.4259       4.8982       5.1988       0.0289      29.3835       8.0838       0.0031       0.0009       6.6109       0.0123       2.6605    4354.0000
   10502.0       3.7914       3.6297       3.4176       3.5285       3.1431       2.9782       2.9195       2.8807       0.0301      29.3835       8.0875       0.0015      -0.0004       6.6316       0.0126       2.6586    4357.0000
   10502.5       3.1128       3.0050       2.8519       3.0002       2.1495       2.1479       2.1066       2.1619       0.0321      29.3835       8.0985      -0.0015      -0.0004       6.6233       0.0135       2.6551    4334.0000
   10503.0       3.0303       2.9345       2.7898       2.9293       2.2112       2.1621       2.0975       2.1280       0.0346      29.3835       8.0801      -0.0013      -0.0004       6.5917       0.0145       2.6508    4326.0000
   10503.5       3.3196       3.1974       3.0256       3.2043       3.0884       2.8866       2.7626       2.7926       0.0360      29.3835       8.0801      -0.0026      -0.0004       6.5670       0.0151       2.6485    4335.0000
   10504.0       3.9573       3.7381       3.5053       3.8166       4.5307       4.1632       3.8730       3.9135       0.0342      29.3835       8.0875      -0.0006      -0.0004       6.5980       0.0143       2.6515    4294.0000
   10504.5       4.7595       4.4990       4.1491       4.6266       6.0567       5.4606       4.9866       5.0881       0.0336      29.3835       8.0831      -0.0041      -0.0004       6.6423       0.0141       2.6526    4305.0000
   10505.0       5.6865       5.3580       4.8675       5.7408       7.7300       7.2442       6.3065       6.0620       0.0324      29.3835       8.0919      -0.0035      -0.0004       6.6729       0.0136       2.6546    4340.0000
   10505.5       6.2059       5.8950       5.2897       6.4221       8.1010       7.5961       6.4470       6.4760       0.0329      29.3835       8.0787      -0.0045      -0.0004       6.6630       0.0138       2.6538    4315.0000
   10506.0       6.4627       6.3046       5.5984       6.9164       6.4651       6.2574       5.5970       5.4099       0.0319      29.3835       8.1008      -0.0050      -0.0004       6.6431       0.0134       2.6554    4317.0000
   10506.5       7.0047       6.7918       5.9637       7.6949       5.5019       5.3877       4.8249       4.8029       0.0302      29.3835       8.0831      -0.0048      -0.0004       6.6443       0.0127       2.6583    4300.0000
   10507.0       7.5457       7.3788       6.4694       8.1916       6.2259       6.3389       5.6333       5.4109       0.0262      29.3835       8.0875      -0.0026      -0.0004       6.6815       0.0110       2.6652    4335.0000
   10507.5       9.0151       8.7418       7.5290       8.5522       8.0381       8.0123       7.0641       6.0198       0.0240      29.3835       8.0764      -0.0012      -0.0004       6.7284       0.0101       2.6689    4361.0000
   10508.0      11.6254      10.9770       9.3297       8.5963      11.8528      11.3895       9.7478       7.0522       0.0253      29.3835       8.0875      -0.0028      -0.0004       6.7572       0.0106       2.6668    4324.0000
   10508.5      16.1422      15.0188      12.1245       8.9819      21.1208      23.0457      17.8962       8.4238       0.0282      29.3835       8.0801      -0.0050      -0.0004       6.7502       0.0118       2.6617    4328.0000
   10509.0      23.0861      21.0283      15.4728       8.2618      33.6016      32.6621      21.1792       9.5075       0.0330      29.3835       8.0831      -0.0088      -0.0004       6.7161       0.0138       2.6536    4361.0000
   10509.5      31.8000      27.9896      18.0602       7.4596      38.6255      35.5405      21.5624      10.1345       0.0346      29.3835       8.0742      -0.0110      -0.0004       6.6804       0.0145       2.6509    4318.0000
   10510.0      39.2555      34.2815      19.6772       7.0438      47.6426      39.2203      22.4043      10.1680       0.0353      29.3835       8.0831      -0.0142      -0.0004       6.6682       0.0148       2.6496    4301.0000
   10510.5      43.7918      38.4419      19.8576       6.8606      53.4116      45.7580      24.4467      10.2751       0.0349      29.3835       8.0691      -0.0168      -0.0004       6.6725       0.0146       2.6503    4291.0000
   10511.0      44.8776      40.4706      19.0098       6.5751      51.8734      43.0257      21.9403       9.6604       0.0357      29.3835       8.0764      -0.0208      -0.0004       6.6708       0.0149       2.6490    4301.0000
   10511.5      43.4154      41.3325      17.4388       6.4297      48.5328      40.3977      18.5782       8.7052       0.0363      29.3835       8.0812      -0.0283      -0.0004       6.6173       0.0152       2.6479    4296.0000
   10512.0      40.7429      41.9283      15.5078       6.2613      41.1090      42.1596      16.0877       7.7573       0.0227      29.3835       8.0777      -0.0292      -0.0004       6.4922       0.0095       2.6712    4257.0000
   10512.5      36.4441      41.4833      14.4383       6.0694      38.1858      41.7315      14.2534       6.9783       0.0067      29.3835       8.0801      -0.0278      -0.0004       6.3038       0.0028       2.6986    4284.0000
   10513.0      34.3850      41.2209      13.4693       5.9228      35.8105      40.1196      13.1143       6.3944      -0.0085      29.3835       8.0875      -0.0227      -0.0004       6.1198       0.0006       2.7245    4324.0000
   10513.5      32.3037      40.9421      12.8550       5.7168      32.0558      41.0756      12.3828       5.9270      -0.0099      29.3835       8.0875      -0.0229      -0.0004       5.9987       0.0007       2.7268    4251.0000
   10514.0      30.7831      40.3314      12.4899       5.6033      29.4116      39.2788      12.1535       5.6642      -0.0098      29.3835       8.0875      -0.0230      -0.0004       5.9545       0.0007       2.7268    4305.0000
   10514.5      29.6145      39.3583      12.3022       5.5196      28.6657      38.1905      12.1208       5.4994      -0.0098      29.3835       8.0875      -0.0230      -0.0004       5.9472       0.0007       2.7268    4301.0000
   10515.0      28.9608      38.9206      12.2516       5.4720      28.6018      38.1602      12.2111       5.4186      -0.0098      29.3835       8.0875      -0.0230      -0.0004       5.9470       0.0007       2.7268    4305.0000
   10515.5      28.7922      38.7165      12.3163       5.4525      28.6323      38.7175      12.1863       5.4033      -0.0098      29.3835       8.0875      -0.0230      -0.0004       5.9470       0.0007       2.7268    4288.0000
   10516.0      28.9606      38.9678      12.2482       5.4564      29.3220      38.8664      12.2182       5.4226      -0.0098      29.3835       8.0875      -0.0230      -0.0004       5.9470       0.0007       2.7268    4331.0000
   10516.5      29.1570      39.2129      12.2295       5.4717      29.6126      39.0199      12.2257       5.4594      -0.0098      29.3835       8.0875      -0.0230      -0.0004       5.9470       0.0007       2.7268    4293.0000
   10517.0      29.2224      39.5106      12.1909       5.4866      29.6676      39.4318      12.1859       5.5008      -0.0098      29.3835       8.0875      -0.0231      -0.0004       5.9470       0.0007       2.7268    4255.0000
