~VERSION INFORMATION
VERS.           2.0   :CWLS Log ASCII Standard - VERSION 2.0
WRAP.           NO    :One Line per depth step
PROD.  Schlumberger   :LAS Producer
PROG.  DLIS to ASCII 15C0-309                          :LAS Program name and version
CREA.        2008/02/20 22:50                          :LAS Creation date {YYYY/MM/DD hh:mm}
DLIS_CREA.  2008-Feb-20	21:27			       :DLIS Creation date and time {YYYY-MMM-DD hh:mm}
SOURCE.     MAIN_AIT_TLD_MCFL_CNL_046PUP.DLIS          :DLIS File Name
FILE-ID.     AIT_TLD_MCFL_CNL_046PUP                   :File Identification Number
#--------------------------------------------------
~WELL INFORMATION
#MNEM.UNIT      DATA             DESCRIPTION
#---- ------ --------------   -----------------------------
STRT .F      7700.0          :START DEPTH     
STOP .F      10520.0         :STOP DEPTH     
STEP .F       0.5            :STEP     
NULL .          -999.25      :NULL VALUE
COMP .        FIDELITY EXPLORATION & PRODUCTION CO.      :COMPANY
WELL .        DEADWOOD CANYON RANCH 43-28H             :WELL
FLD  .        WILDCAT                                  :FIELD
LOC  .        NE SE                                    :LOCATION
CNTY .        MOUNTRAIL                                :COUNTY
STAT .        N. DAKOTA                                :STATE
CTRY .                                                 :COUNTRY
API  .        33-061-00581                             :API NUMBER
UWI  .        3306100581                               :UNIQUE WELL ID
DATE .        20-Feb-2008                              :LOG DATE {DD-MMM-YYYY}
SRVC .        Schlumberger                             :SERVICE COMPANY
LATI .DEG                                              :LATITUDE
LONG .DEG                                              :LONGITUDE
GDAT .                                                 :GeoDetic Datum
SECT .        28                                       :Section
RANG .        92W                                      :Range
TOWN .        154N                                     :Township
#-----------------------------------------------------------------------------
~PARAMETER INFORMATION
#MNEM.UNIT    VALUE                      DESCRIPTION
#---- -----   --------------------       ------------------------
RUN  .          ONE                      :RUN NUMBER
PDAT .        GROUND LEVEL               :Permanent Datum
EPD  .F         2111.000000              :Elevation of Permanent Datum above Mean Sea Level
LMF  .          KELLY BUSHING            :Logging Measured From (Name of Logging Elevation Reference)
APD  .F          18.000000               :Elevation of Depth Reference (LMF) above Permanent Datum
#-----------------------------------------------------------------------------
~CURVE INFORMATION
#MNEM.UNIT   API CODE                                  DESCRIPTION
#---- -----  --------                                  -----------------------
DEPT .F                                                :DEPTH (BOREHOLE) {F10.1}
AF20 .OHMM                                             :Array Induction Four Foot Resistivity A20 {F13.4}
AF30 .OHMM                                             :Array Induction Four Foot Resistivity A30 {F13.4}
AF60 .OHMM                                             :Array Induction Four Foot Resistivity A60 {F13.4}
AF90 .OHMM                                             :Array Induction Four Foot Resistivity A90 {F13.4}
AT20 .OHMM                                             :Array Induction Two Foot Resistivity A20 {F13.4}
AT30 .OHMM                                             :Array Induction Two Foot Resistivity A30 {F13.4}
AT60 .OHMM                                             :Array Induction Two Foot Resistivity A60 {F13.4}
AT90 .OHMM                                             :Array Induction Two Foot Resistivity A90 {F13.4}
DPHZ .CFCF                                             :HRDD Standard Resolution Density Porosity {F13.4}
GR_EDTC.GAPI                                           :Gamma Ray {F13.4}
HCAL .IN                                               :HRCC Cal. Caliper {F13.4}
HDRA .G/C3                                             :HRDD Density Correction {F13.4}
NPOR .CFCF                                             :Enhanced Thermal Neutron Porosity {F13.4}
PEFZ .                                                 :HRDD Standard Resolution Formation Photoelectric Factor {F13.4}
PXND_HILT.CFCF                                         :HILT Porosity CrossPlot {F13.4}
RHOZ .G/C3                                             :HRDD Standard Resolution Formation Density {F13.4}
TENS .LBF                                              :Cable Tension {F13.4}
#-----------------------------------------------------------------------------
# 
#     DEPT        AF20         AF30         AF60         AF90         AT20         AT30         AT60         AT90         DPHZ       GR_EDTC        HCAL         HDRA         NPOR         PEFZ      PXND_HILT       RHOZ         TENS
#
~A  
# ...
    9012.5      74.9479      83.6639      84.8151      80.6237      61.2481      64.9033      65.0250      63.2543       0.0171      22.9882       8.7061       0.0021       0.0252       4.7959       0.0204       2.6808    3897.0000
    9013.0      84.0150      94.2614      97.2855      89.6446      77.1549      82.0938      89.7635      78.4603       0.0134      25.9355       8.8313       0.0023       0.0182       4.8544       0.0161       2.6871    3952.0000
    9013.5     101.9012     116.0602     121.8783     108.0256     110.2191     116.1495     120.3805     108.0687       0.0162      25.7559       8.8755      -0.0001       0.0086       5.0275       0.0131       2.6824    3997.0000
    9014.0     129.8931     151.8766     158.5351     138.1506     165.8329     176.0216     185.8997     163.1751       0.0159      28.1488       8.8608      -0.0017       0.0077       5.1574       0.0115       2.6828    3930.0000
    9014.5     173.8269     211.9682     225.3077     183.2599     245.6418     268.7263     272.3793     255.3755       0.0110      28.7736       8.8534      -0.0007       0.0054       5.1778       0.0073       2.6912    3916.0000
    9015.0     235.0674     305.8577     326.4079     255.8213     305.5435     370.0941     391.5282     301.2535       0.0071      29.2982       8.8387       0.0012       0.0006       5.0784       0.0045       2.6979    3935.0000
    9015.5     315.2332     443.8660     485.4343     366.0305     436.5905     535.7337     567.5766     457.8881       0.0082      28.4711       8.7577       0.0017      -0.0017       4.9799       0.0042       2.6960    3946.0000
    9016.0     414.3965     627.3171     681.0728     497.8071     736.5515     816.1214     839.7696     696.5336       0.0048      29.1611       8.7430       0.0046       0.0002       4.9600       0.0028       2.7017    3913.0000
    9016.5     489.5528     803.9800     932.1524     587.8726     832.9756    1228.9386    1273.4662    1089.4126       0.0025      27.8657       8.7356       0.0061       0.0001       4.9547       0.0019       2.7058    3951.0000
    9017.0     495.1187     920.5555    1105.9727     626.6241     833.3162    1194.6591    1245.8530    1017.6082       0.0023      27.5140       8.7135       0.0063       0.0011       4.9962       0.0022       2.7061    3940.0000
    9017.5     452.8312     911.7281    1049.0911     590.0818     633.2835     900.9275     930.1348     758.6268       0.0057      28.8142       8.6399       0.0035       0.0036       5.0168       0.0043       2.7003    3917.0000
    9018.0     417.8436     818.0120     904.6561     519.9761     417.5197     630.4608     754.8972     529.1432       0.0050      28.7295       8.6104       0.0024       0.0044       5.0434       0.0044       2.7014    3920.0000
    9018.5     405.0760     722.5906     749.6686     437.4929     335.0421     483.0401     487.4113     411.4216       0.0028      26.4649       8.5736       0.0020       0.0064       5.0565       0.0045       2.7052    3927.0000
    9019.0     399.7217     646.5368     594.2967     395.4645     417.0644     557.7676     485.8655     476.0792       0.0019      28.2699       8.5515       0.0022       0.0059       5.0723       0.0054       2.7068    3947.0000
    9019.5     407.4363     601.6281     556.4626     348.4994     549.9316     553.9756     494.0613     417.2322       0.0028      32.4417       8.5183       0.0028       0.0052       5.1020       0.0056       2.7053    3910.0000
    9020.0     432.1201     599.0384     567.4306     312.7773     580.8541     545.8210     478.3589     399.2630       0.0047      39.1544       8.4705       0.0035       0.0027       5.1447       0.0056       2.7019    3916.0000
    9020.5     463.0146     566.6434     594.1044     303.4055     572.0029     502.5912     454.8577     364.4263       0.0055      39.1647       8.4410       0.0040       0.0088       5.1717       0.0051       2.7006    3972.0000
    9021.0     469.3840     579.1722     551.2474     277.4140     592.4024     579.9517     520.1334     395.6368       0.0069      40.5133       8.4557       0.0039       0.0066       5.2009       0.0050       2.6981    3926.0000
    9021.5     487.5947     620.1934     674.8615     260.1117     686.6484     461.3360     463.3742     374.6598       0.0076      38.0555       8.4079       0.0033      -0.0001       5.2149       0.0042       2.6969    3927.0000
    9022.0     504.7573     552.3730     556.1431     297.0338     766.0350     779.1364     619.9886     419.8333       0.0079      34.9321       8.3747       0.0025      -0.0008       5.2166       0.0040       2.6966    3938.0000
    9022.5     365.3019     366.3226     365.3565     266.3478    1256.2214     787.5483     785.2026     524.1920       0.0059      29.4963       8.3600       0.0023      -0.0001       5.1888       0.0034       2.6999    3944.0000
    9023.0     246.4434     248.0272     247.5226     200.5382     579.7357     315.3641     281.7780     243.0905       0.0079      30.9806       8.3526       0.0013       0.0004       5.1658       0.0051       2.6966    3969.0000
    9023.5     171.1647     172.7419     168.7229     150.4952     192.2425     175.6294     160.9866     154.7720       0.0093      29.6084       8.3379       0.0008       0.0068       5.0623       0.0081       2.6941    3946.0000
    9024.0     126.2303     126.4579     119.8162     114.9208     107.1598      98.9028      88.3818      93.7451       0.0130      28.6253       8.3158      -0.0003       0.0126       4.9210       0.0127       2.6878    3981.0000
    9024.5      96.4170      95.1033      87.1089      89.1926      96.8363      90.9700      83.6067      84.2320       0.0139      24.4607       8.3305      -0.0008       0.0168       4.7696       0.0168       2.6863    4014.0000
    9025.0      77.7456      75.1892      68.3191      71.1588      86.3960      85.3774      67.2520      78.1033       0.0151      24.6832       8.2974      -0.0022       0.0214       4.7094       0.0215       2.6842    3939.0000
    9025.5      64.6278      61.5672      56.7816      58.5610      76.7043      69.1525      53.4401      61.8052       0.0115      25.9267       8.3158      -0.0025       0.0236       4.6851       0.0240       2.6904    3985.0000
    9026.0      55.2138      52.2389      48.4943      49.9558      52.4480      53.2877      47.3069      51.1041       0.0080      24.1830       8.3232      -0.0024       0.0301       4.6860       0.0264       2.6964    3964.0000
    9026.5      49.9948      47.4907      44.4616      44.6534      42.4001      39.0471      37.8256      36.2971       0.0052      24.3055       8.3232      -0.0011       0.0315       4.7074       0.0256       2.7011    3981.0000
    9027.0      49.1444      47.0354      44.4153      44.3064      38.9419      36.3089      34.2431      33.5190       0.0083      25.1851       8.3158      -0.0010       0.0275       4.8189       0.0234       2.6959    4005.0000
    9027.5      52.0194      50.1914      47.8833      46.6629      45.2615      42.0705      40.7087      38.9259       0.0091      27.9779       8.3526      -0.0001       0.0200       4.9034       0.0199       2.6945    3989.0000
    9028.0      57.9904      56.4484      54.4332      51.4840      69.0651      64.7583      60.7227      54.6932       0.0130      29.8755       8.3674      -0.0003       0.0143       4.9376       0.0178       2.6878    3990.0000
    9028.5      67.1518      66.2029      65.8954      59.5922      87.7315      83.4472      78.9285      67.3416       0.0161      30.2174       8.3416      -0.0001       0.0181       4.8568       0.0169       2.6825    4008.0000
    9029.0      79.4699      79.5293      78.9846      69.8520      80.8487      75.3946      78.8551      69.4157       0.0195      29.6787       8.3361      -0.0003       0.0193       4.7903       0.0183       2.6766    3944.0000
    9029.5      95.5548      98.6034      99.1329      84.2257      85.2392      86.5129      96.1547      68.1795       0.0156      33.5684       8.3747       0.0012       0.0143       4.8029       0.0157       2.6834    3987.0000
