~VERSION INFORMATION
VERS.           2.0   :CWLS Log ASCII Standard - VERSION 2.0
WRAP.           NO    :One Line per depth step
PROD.  Schlumberger   :LAS Producer
PROG.  DLIS to ASCII 2.2                               :LAS Program name and version
CREA.        2008/02/27 08:04                          :LAS Creation date {YYYY/MM/DD hh:mm}
SOURCE.     Bakken_PNS_Final_Data.dlis  :DLIS File Name
FILE-ID.     Interpretation Chain - gf_user            :File Identification Number
#--------------------------------------------------
~WELL INFORMATION
#MNEM.UNIT      DATA             DESCRIPTION
#---- ------ --------------   -----------------------------
STRT .F        10539.0       :START DEPTH     
STOP .F         7660.0       :STOP DEPTH     
STEP .F           -0.5       :STEP     
NULL .          -999.25      :NULL VALUE
COMP .               :COMPANY
WELL .        Bakken            :WELL
FLD  .                                         :FIELD
LOC  .                                                 :LOCATION
CNTY .                                       :COUNTY
STAT .                                        :STATE
CTRY .        USA                                      :COUNTRY
API  .                                                 :API NUMBER
UWI  .                    :UNIQUE WELL ID
DATE .                                                 :LOG DATE
SRVC .        Schlumberger                             :SERVICE COMPANY
LATI .DEG     48.129                                   :LATITUDE
LONG .DEG     -102.505                                 :LONGITUDE
GDAT .                                                 :GeoDetic Datum
#-----------------------------------------------------------------------------
~PARAMETER INFORMATION
#MNEM.UNIT    VALUE                      DESCRIPTION
#---- -----   --------------------       ------------------------
RUN  .                                   :RUN NUMBER
PDAT .        GROUND LEVEL               :Permanent Datum
EPD  .F         2111.000000              :Elevation of Permanent Datum above Mean Sea Level
EPD  .F         2111.000000              :Elevation of tool zero above Mean Sea Level
LMF  .          KELLY BUSHING            :Logging Measured From (Name of Logging Elevation Reference)
APD  .F          18.000000               :Elevation of Depth Reference (LMF) above Permanent Datum
#-----------------------------------------------------------------------------
~CURVE INFORMATION
#MNEM.UNIT   API CODE                                  DESCRIPTION
#---- -----  --------                                  -----------------------
DEPT .F                                                :DEPTH (BOREHOLE) {F10.1}
MAXXENE_OVERALL.                                       :Overall estimate of maximum cross energy {F13.4}
MINXENE_OVERALL.                                       :Overall estimate of minimum cross energy {F13.4}
PR   .                                                 :Poisson's Ratio {F13.4}
VPVS .                                                 :Compressional to Shear Velocity Ratio {F13.4}
DTSM .US/F                                             :Delta-T Shear {F13.4}
DTCO .US/F                                             :Delta-T Compressional {F13.4}
HD2_PPC2.IN                                            :PPC2 Hole Diameter 2 {F13.4}
HD1_PPC2.IN                                            :PPC2 Hole Diameter 1 {F13.4}
HD2_PPC1.IN                                            :PPC1 Hole Diameter 2 {F13.4}
HD1_PPC1.IN                                            :PPC1 Hole Diameter 1 {F13.4}
GR_EDTC.GAPI                                           :Gamma Ray {F13.4}
BS   .IN                                               :Bit Size {F13.4}
AT90 .OHMM                                             :Array Induction Two Foot Resistivity A90 {F13.4}
AT60 .OHMM                                             :Array Induction Two Foot Resistivity A60 {F13.4}
AT30 .OHMM                                             :Array Induction Two Foot Resistivity A30 {F13.4}
AT20 .OHMM                                             :Array Induction Two Foot Resistivity A20 {F13.4}
AT10 .OHMM                                             :Array Induction Two Foot Resistivity A10 {F13.4}
RHOZ .G/C3                                             :HRDD Standard Resolution Formation Density {F13.4}
PEFZ .                                                 :HRDD Standard Resolution Formation Photoelectric Factor {F13.4}
NPOR .CFCF                                             :Enhanced Thermal Neutron Porosity in Selected Lithology {F13.4}
TDEP ..1IN                                             : {I11}
#-----------------------------------------------------------------------------
# 
#     DEPT    MAXXENE_OVER MINXENE_OVER     PR           VPVS         DTSM         DTCO       HD2_PPC2     HD1_PPC2     HD2_PPC1     HD1_PPC1     GR_EDTC        BS           AT90         AT60         AT30         AT20         AT10         RHOZ         PEFZ         NPOR         TDEP
#             ALL          ALL
~A  
# ...
    9002.0      11.7323       6.1479       0.2908       1.8412      92.7273      50.3636       9.0738       8.8911       9.0772       8.9167      43.9311       8.7500     140.8201     151.5458     151.4489     123.9752     106.5590       2.7028       5.0788       0.0133 1175234560
    9001.5      11.1862       6.2065       0.2798       1.8085      92.7273      51.2727       9.0913       8.8918       9.0643       8.9167      42.4979       8.7500     210.0583     226.3773     230.4783     188.4500     162.8548       2.7145       5.1196       0.0095 1175234048
    9001.0      10.6812       6.1767       0.2816       1.8136      92.0000      50.7273       9.0913       8.8918       9.0772       8.9167      37.2131       8.7500     276.7932     303.3032     336.0464     349.2564     292.1974       2.7201       5.1588       0.0067 1175233536
    9000.5      10.3016       6.0053       0.2908       1.8412      92.7273      50.3636       9.0913       8.8918       9.0772       8.9048      35.9729       8.7500     305.8631     361.6135     397.9374     402.0992     290.1063       2.7151       5.1359       0.0126 1175233024
    9000.0      10.0604       5.7057       0.2908       1.8412      92.7273      50.3636       9.0911       8.8684       9.0676       8.9063      33.8390       8.7500     288.6163     338.1324     354.0199     248.9920     214.1458       2.7068       5.1408       0.0121 1175232512
    8999.5       9.9152       5.3531       0.2908       1.8412      92.7273      50.3636       9.0780       8.8684       9.0644       8.9048      31.1883       8.7500     222.9660     279.5297     269.3511     192.9406     174.9112       2.6964       5.1567       0.0059 1175232000
    8999.0       9.8332       4.9936       0.2865       1.8280      92.7273      50.7273       9.0650       8.8567       9.0547       8.9063      28.4913       8.7500     197.0880     250.9425     248.4083     192.1942     169.6125       2.6887       5.2109       0.0079 1175231488
    8998.5       9.7752       4.6025       0.2865       1.8280      92.7273      50.7273       9.0782       8.8450       9.0547       8.9063      27.8330       8.7500     177.6236     227.2871     218.0349     185.9316     165.1659       2.6882       5.1853       0.0105 1175230976
    8998.0       9.7569       4.2812       0.2908       1.8412      92.7273      50.3636       9.0782       8.8450       9.0419       8.9054      31.7809       8.7500     161.9530     203.9368     194.4854     170.7182     147.1562       2.6894       5.1320       0.0145 1175230464
    8997.5       9.7519       4.0080       0.2865       1.8280      92.7273      50.7273       9.0913       8.8450       9.0386       8.9048      33.6198       8.7500     148.8715     182.0854     174.7856     159.4017     131.7108       2.6939       5.0548       0.0160 1175229952
    8997.0       9.7583       3.7505       0.2869       1.8292      93.4545      51.0909       9.0780       8.8567       9.0386       8.9048      35.2693       8.7500     140.0513     165.2683     160.1803     149.6156     117.3357       2.7003       4.9787       0.0104 1175229440
    8996.5       9.7764       3.4959       0.2843       1.8214      92.7273      50.9091       9.0650       8.8450       9.0386       8.9048      30.4555       8.7500     136.0689     155.1309     151.4809     142.0936     113.8077       2.7166       4.9115       0.0184 1175228928
    8996.0       9.7833       3.2660       0.2865       1.8280      92.7273      50.7273       9.0782       8.8684       9.0644       8.9048      29.4204       8.7500     138.2737     152.8426     150.1665     139.3068     115.6107       2.7259       4.8527       0.0231 1175228416
    8995.5       9.7479       3.0863       0.2811       1.8123      91.2727      50.3636       9.0782       8.8450       9.0515       8.9048      27.4259       8.7500     160.2292     169.1779     168.6747     141.8401     121.7952       2.7209       4.9001       0.0154 1175227904
    8995.0       9.7090       3.0167       0.2900       1.8388      91.2727      49.6364       9.0913       8.8450       9.0419       8.9048      28.3073       8.7500     185.4999     192.7483     183.8119     158.8849     134.8228       2.7036       4.9790       0.0108 1175227392
    8994.5       9.7054       3.0545       0.2950       1.8545      92.7273      50.0000       9.0913       8.8567       9.0386       8.9048      28.9973       8.7500     199.2431     209.2601     206.7510     170.5109     144.1142       2.6963       5.0608       0.0101 1175226880
    8994.0       9.7123       3.1226       0.2908       1.8412      92.7273      50.3636       9.0871       8.8563       9.0290       8.8944      26.7519       8.7500     247.3089     250.5313     258.4307     207.0696     176.1769       2.6927       5.1339       0.0130 1175226368
    8993.5       9.7086       3.1953       0.2798       1.8085      92.7273      51.2727       9.0780       8.8450       9.0386       8.8930      26.5985       8.7500     290.1490     308.9622     318.4079     279.1544     240.7704       2.6929       5.1976       0.0058 1175225856
    8993.0       9.7166       3.2691       0.2820       1.8149      92.7273      51.0909       9.0782       8.8450       9.0257       8.8930      23.8325       8.7500     299.1642     340.8629     309.2129     264.9100     236.6660       2.6880       5.2961       0.0048 1175225344
    8992.5       9.7136       3.3789       0.2954       1.8556      93.4545      50.3636       9.0953       8.8223       9.0257       8.9406      27.2489       8.7500     248.8427     270.6321     260.1574     208.1063     184.7129       2.6812       5.3861       0.0043 1175224832
    8992.0       9.7093       3.5007       0.2954       1.8556      93.4545      50.3636       9.0913       8.8567       9.0129       8.9048      26.6969       8.7500     194.2334     224.5373     204.3907     169.9837     151.5722       2.6767       5.4200       0.0098 1175224320
    8991.5       9.7166       3.6319       0.2911       1.8423      93.4545      50.7273       9.0871       8.8566       9.0257       8.9048      29.2864       8.7500     157.3069     178.5007     164.8287     144.7366     128.8489       2.6793       5.3820       0.0126 1175223808
    8991.0       9.7154       3.7579       0.2869       1.8292      93.4545      51.0909       9.0913       8.8567       9.0290       8.9063      28.4604       8.7500     132.4147     144.6875     139.4663     127.6640     119.3569       2.6855       5.2722       0.0069 1175223296
    8990.5       9.7153       3.8925       0.2911       1.8423      93.4545      50.7273       9.0650       8.8450       9.0386       8.9048      28.0220       8.7500     104.0399     115.6794     108.6906     100.8658      97.8494       2.6868       5.1924       0.0108 1175222784
    8990.0       9.7221       4.0256       0.2865       1.8280      92.7273      50.7273       9.0822       8.8340       9.0257       8.9063      30.0913       8.7500      83.7802      89.0699      88.1582      83.6704      79.6130       2.6810       5.1610       0.0198 1175222272
    8989.5       9.7321       4.1528       0.2908       1.8412      92.7273      50.3636       9.0913       8.8567       9.0257       8.9048      32.6887       8.7500      82.4635      86.6997      86.5746      82.8248      73.9787       2.6730       5.1933       0.0165 1175221760
    8989.0       9.7429       4.2907       0.2950       1.8545      92.7273      50.0000       9.0780       8.8567       9.0257       8.9048      34.6441       8.7500     105.3376     111.0344     114.0755     106.4129      91.0967       2.6735       5.2169       0.0122 1175221248
    8988.5       9.7445       4.4208       0.2992       1.8681      92.7273      49.6364       9.0780       8.8450       9.0257       8.8691      36.8915       8.7500     149.8681     155.3455     170.0580     150.0881     128.4774       2.6816       5.2150       0.0152 1175220736
    8988.0       9.7479       4.5735       0.2947       1.8535      92.0000      49.6364       9.0913       8.8450       9.0290       8.8587      37.3943       8.7500     213.7422     229.5921     244.0909     221.5201     195.3203       2.6943       5.1898       0.0120 1175220224
