~VERSION INFORMATION
VERS.           2.0   :CWLS Log ASCII Standard - VERSION 2.0
WRAP.           NO    :One Line per depth step
PROD.  Schlumberger   :LAS Producer
PROG.  DLIS to ASCII 15C0-309                          :LAS Program name and version
CREA.        2008/02/20 22:50                          :LAS Creation date {YYYY/MM/DD hh:mm}
DLIS_CREA.  2008-Feb-20	21:27			       :DLIS Creation date and time {YYYY-MMM-DD hh:mm}
SOURCE.     MAIN_AIT_TLD_MCFL_CNL_046PUP.DLIS          :DLIS File Name
FILE-ID.     AIT_TLD_MCFL_CNL_046PUP                   :File Identification Number
#--------------------------------------------------
~WELL INFORMATION
#MNEM.UNIT      DATA             DESCRIPTION
#---- ------ --------------   -----------------------------
STRT .F      7700.0          :START DEPTH     
STOP .F      10520.0         :STOP DEPTH     
STEP .F       0.5            :STEP     
NULL .          -999.25      :NULL VALUE
COMP .        FIDELITY EXPLORATION & PRODUCTION CO.      :COMPANY
WELL .        DEADWOOD CANYON RANCH 43-28H             :WELL
FLD  .        WILDCAT                                  :FIELD
LOC  .        NE SE                                    :LOCATION
CNTY .        MOUNTRAIL                                :COUNTY
STAT .        N. DAKOTA                                :STATE
CTRY .                                                 :COUNTRY
API  .        33-061-00581                             :API NUMBER
UWI  .        3306100581                               :UNIQUE WELL ID
DATE .        20-Feb-2008                              :LOG DATE {DD-MMM-YYYY}
SRVC .        Schlumberger                             :SERVICE COMPANY
LATI .DEG                                              :LATITUDE
LONG .DEG                                              :LONGITUDE
GDAT .                                                 :GeoDetic Datum
SECT .        28                                       :Section
RANG .        92W                                      :Range
TOWN .        154N                                     :Township
#-----------------------------------------------------------------------------
~PARAMETER INFORMATION
#MNEM.UNIT    VALUE                      DESCRIPTION
#---- -----   --------------------       ------------------------
RUN  .          ONE                      :RUN NUMBER
PDAT .        GROUND LEVEL               :Permanent Datum
EPD  .F         2111.000000              :Elevation of Permanent Datum above Mean Sea Level
LMF  .          KELLY BUSHING            :Logging Measured From (Name of Logging Elevation Reference)
APD  .F          18.000000               :Elevation of Depth Reference (LMF) above Permanent Datum
#-----------------------------------------------------------------------------
~CURVE INFORMATION
#MNEM.UNIT   API CODE                                  DESCRIPTION
#---- -----  --------                                  -----------------------
DEPT .F                                                :DEPTH (BOREHOLE) {F10.1}
AF20 .OHMM                                             :Array Induction Four Foot Resistivity A20 {F13.4}
AF30 .OHMM                                             :Array Induction Four Foot Resistivity A30 {F13.4}
AF60 .OHMM                                             :Array Induction Four Foot Resistivity A60 {F13.4}
AF90 .OHMM                                             :Array Induction Four Foot Resistivity A90 {F13.4}
AT20 .OHMM                                             :Array Induction Two Foot Resistivity A20 {F13.4}
AT30 .OHMM                                             :Array Induction Two Foot Resistivity A30 {F13.4}
AT60 .OHMM                                             :Array Induction Two Foot Resistivity A60 {F13.4}
AT90 .OHMM                                             :Array Induction Two Foot Resistivity A90 {F13.4}
DPHZ .CFCF                                             :HRDD Standard Resolution Density Porosity {F13.4}
GR_EDTC.GAPI                                           :Gamma Ray {F13.4}
HCAL .IN                                               :HRCC Cal. Caliper {F13.4}
HDRA .G/C3                                             :HRDD Density Correction {F13.4}
NPOR .CFCF                                             :Enhanced Thermal Neutron Porosity {F13.4}
PEFZ .                                                 :HRDD Standard Resolution Formation Photoelectric Factor {F13.4}
PXND_HILT.CFCF                                         :HILT Porosity CrossPlot {F13.4}
RHOZ .G/C3                                             :HRDD Standard Resolution Formation Density {F13.4}
TENS .LBF                                              :Cable Tension {F13.4}
#-----------------------------------------------------------------------------
# 
#     DEPT        AF20         AF30         AF60         AF90         AT20         AT30         AT60         AT90         DPHZ       GR_EDTC        HCAL         HDRA         NPOR         PEFZ      PXND_HILT       RHOZ         TENS
#
~A  
# ...
    8627.5       1.8761       1.8103       1.6351       1.6763       1.8477       1.7083       1.4002       1.4806       0.0584      16.4403       8.2937      -0.0035       0.0544       4.9079       0.0743       2.6101    3831.0000
    8628.0       1.6155       1.5523       1.4225       1.4428       1.1965       1.1235       1.0367       1.0502       0.1099      19.8837       8.3158      -0.0003       0.1897       4.5228       0.1413       2.5221    3860.0000
    8628.5       1.5638       1.4918       1.3765       1.3849       1.0212       0.9539       0.8822       0.8957       0.1252      23.1066       8.3895      -0.0029       0.3968       4.2366       0.2027       2.4959    3850.0000
    8629.0       1.7191       1.6229       1.4965       1.5099       1.4595       1.3294       1.2126       1.1967       0.0906      28.4605       8.4410      -0.0028       0.3422       4.1941       0.1846       2.5551    3820.0000
    8629.5       2.1321       1.9895       1.8181       1.8471       2.4628       2.0580       1.8166       1.7351       0.0409      33.8183       8.4852      -0.0014       0.1553       4.4156       0.1065       2.6401    3877.0000
    8630.0       2.9887       2.7525       2.5002       2.5375       4.6127       3.7391       3.1255       3.0183       0.0081      30.9145       8.5625       0.0002       0.0349       4.7119       0.0462       2.6962    3899.0000
    8630.5       4.3580       4.1616       3.7534       3.7980       6.2227       6.5420       5.4329       4.4608       0.0003      22.9808       8.5883      -0.0000       0.0008       4.9269       0.0186       2.7095    3915.0000
    8631.0       6.5579       6.7276       6.0311       6.0518       6.8687      10.0971       7.9806       6.7846       0.0008      18.9279       8.6122      -0.0005      -0.0010       4.9892       0.0102       2.7087    3817.0000
    8631.5      10.6067      12.7759      11.0930      11.2246      10.0892      17.2531      13.4874      11.4989       0.0004      23.3842       8.6104      -0.0008       0.0098       4.9613       0.0115       2.7094    3850.0000
    8632.0      19.3360      23.6092      21.0270      19.7547      21.9177      46.1177      26.6456      24.6304      -0.0020      25.4245       8.5662      -0.0003       0.0199       4.9580       0.0131       2.7135    3881.0000
    8632.5      34.8343      37.8792      34.8803      37.3913      33.1584      66.7960     111.2246      60.1987      -0.0033      23.6121       8.4926       0.0005       0.0160       5.0603       0.0131       2.7156    3835.0000
    8633.0      54.9219      63.4316      62.6353      67.4635      63.1292     731.6833     211.6181     943.1824      -0.0069      18.5008       8.4115       0.0007       0.0096       5.2766       0.0079       2.7218    3845.0000
    8633.5     105.8102     259.6697     367.4120     369.3483     165.9414    1049.8330     901.0460    1950.0000      -0.0093      15.3852       8.3674      -0.0008      -0.0021       5.5015       0.0043       2.7259    3829.0000
    8634.0     123.0729     259.3814    1338.2335     373.9948     312.7832     208.3459     304.8620     844.0941      -0.0129      13.8326       8.3232      -0.0054      -0.0033       5.6192       0.0029       2.7320    3890.0000
    8634.5     125.7055     181.0701     559.1736     262.2844     148.8830      81.6599      96.2503     241.2475      -0.0095      14.0045       8.3158      -0.0040       0.0026       5.6059       0.0063       2.7262    3907.0000
    8635.0      97.8594      87.6538     378.2500     149.1611      93.6156      51.6932      57.5871     113.0740       0.0026      14.3784       8.3011      -0.0024       0.0118       5.5167       0.0153       2.7055    3846.0000
    8635.5      71.0921      62.7838     179.7545     107.7524      53.8345      41.3402      51.1717      94.5804       0.0123      14.1447       8.2863       0.0032       0.0383       5.3777       0.0259       2.6890    3835.0000
    8636.0      53.4488      40.8143      86.1497      59.3083      61.5688      77.3404      78.9923     160.0245       0.0167      14.4263       8.2863       0.0030       0.0397       5.2551       0.0310       2.6814    3862.0000
    8636.5      34.1610      24.6668      45.7152      33.1031      68.2647      41.1383      39.0778     210.6672       0.0100      18.1458       8.2937       0.0042       0.0277       5.1178       0.0297       2.6929    3833.0000
    8637.0      21.8120      15.9951      25.7320      19.2004      42.0128      21.7770      20.6974      71.6012       0.0118      23.5548       8.2937       0.0016       0.0255       4.9744       0.0339       2.6899    3832.0000
    8637.5      16.0992      11.6291      15.9158      11.9514      17.2576      11.8474      11.1287      32.1243       0.0174      28.3486       8.3305      -0.0011       0.0423       4.7732       0.0449       2.6803    3866.0000
    8638.0      13.8053       8.8078      10.9587       8.2760      10.6171       7.4660       8.4017      21.9583       0.0249      30.8429       8.4042      -0.0037       0.0817       4.5847       0.0635       2.6675    3839.0000
    8638.5      11.1174       7.0376       8.0287       6.0176       8.7777       6.2488       5.3747      11.5077       0.0228      30.8484       8.4410      -0.0031       0.0879       4.4474       0.0711       2.6709    3849.0000
    8639.0      10.3746       6.0584       6.2401       4.5292      10.0573       6.0774       4.9132       8.8839       0.0218      30.5399       8.4852      -0.0041       0.0686       4.4292       0.0659       2.6728    3848.0000
    8639.5       9.5032       5.3393       5.1437       3.6589      12.1448       5.8743       4.4566       6.9552       0.0190      28.4631       8.5128      -0.0046       0.0669       4.4915       0.0570       2.6775    3841.0000
    8640.0       8.5869       4.6487       4.0961       2.9883      15.8096       5.8540       4.1092       5.1327       0.0153      24.3594       8.5147      -0.0027       0.0504       4.6013       0.0494       2.6838    3822.0000
    8640.5       6.9614       3.8741       3.2100       2.3973      10.6865       4.8631       3.4043       3.6502       0.0157      17.9765       8.4999       0.0014       0.0340       4.7753       0.0480       2.6832    3772.0000
    8641.0       5.0339       3.0630       2.4734       1.9032       7.0877       3.7574       2.7078       2.3905       0.0265      13.6296       8.4705       0.0053       0.0460       4.9424       0.0582       2.6646    3852.0000
    8641.5       3.5015       2.3442       1.8848       1.4993       5.3688       3.0406       2.0967       1.8209       0.0534      11.3449       8.4631       0.0047       0.0776       5.0293       0.0796       2.6187    3843.0000
    8642.0       2.4653       1.7709       1.4306       1.1827       3.1571       2.1830       1.5981       1.3254       0.0832      10.3331       8.4189       0.0030       0.1265       5.0009       0.1090       2.5677    3767.0000
    8642.5       1.7833       1.3534       1.1074       0.9413       1.9692       1.4784       1.1348       0.9719       0.1104      11.4090       8.3821       0.0020       0.1493       4.9186       0.1357       2.5213    3823.0000
    8643.0       1.3773       1.0899       0.8976       0.7915       1.4152       1.1268       0.8895       0.7944       0.1306      12.0551       8.3011       0.0039       0.1657       4.8796       0.1654       2.4867    3853.0000
    8643.5       1.1277       0.9041       0.7546       0.6819       1.1320       0.9150       0.7263       0.6653       0.1488      14.2785       8.2863       0.0057       0.2380       4.8468       0.2035       2.4556    3828.0000
    8644.0       0.9535       0.7762       0.6621       0.6075       0.9419       0.7830       0.6409       0.5898       0.1552      14.6700       8.3029       0.0139       0.2691       4.8813       0.2238       2.4445    3796.0000
    8644.5       0.8585       0.7061       0.6081       0.5632       0.8193       0.6766       0.5702       0.5330       0.1591      16.4390       8.2348       0.0198       0.3048       4.8009       0.2392       2.4380    3771.0000
