~VERSION INFORMATION
VERS.           2.0   :CWLS Log ASCII Standard - VERSION 2.0
WRAP.           NO    :One Line per depth step
PROD.  Schlumberger   :LAS Producer
PROG.  DLIS to ASCII 2.2                               :LAS Program name and version
CREA.        2008/02/27 08:04                          :LAS Creation date {YYYY/MM/DD hh:mm}
SOURCE.     Bakken_PNS_Final_Data.dlis  :DLIS File Name
FILE-ID.     Interpretation Chain - gf_user            :File Identification Number
#--------------------------------------------------
~WELL INFORMATION
#MNEM.UNIT      DATA             DESCRIPTION
#---- ------ --------------   -----------------------------
STRT .F        10539.0       :START DEPTH     
STOP .F         7660.0       :STOP DEPTH     
STEP .F           -0.5       :STEP     
NULL .          -999.25      :NULL VALUE
COMP .               :COMPANY
WELL .        Bakken            :WELL
FLD  .                                         :FIELD
LOC  .                                                 :LOCATION
CNTY .                                       :COUNTY
STAT .                                        :STATE
CTRY .        USA                                      :COUNTRY
API  .                                                 :API NUMBER
UWI  .                    :UNIQUE WELL ID
DATE .                                                 :LOG DATE
SRVC .        Schlumberger                             :SERVICE COMPANY
LATI .DEG     48.129                                   :LATITUDE
LONG .DEG     -102.505                                 :LONGITUDE
GDAT .                                                 :GeoDetic Datum
#-----------------------------------------------------------------------------
~PARAMETER INFORMATION
#MNEM.UNIT    VALUE                      DESCRIPTION
#---- -----   --------------------       ------------------------
RUN  .                                   :RUN NUMBER
PDAT .        GROUND LEVEL               :Permanent Datum
EPD  .F         2111.000000              :Elevation of Permanent Datum above Mean Sea Level
EPD  .F         2111.000000              :Elevation of tool zero above Mean Sea Level
LMF  .          KELLY BUSHING            :Logging Measured From (Name of Logging Elevation Reference)
APD  .F          18.000000               :Elevation of Depth Reference (LMF) above Permanent Datum
#-----------------------------------------------------------------------------
~CURVE INFORMATION
#MNEM.UNIT   API CODE                                  DESCRIPTION
#---- -----  --------                                  -----------------------
DEPT .F                                                :DEPTH (BOREHOLE) {F10.1}
MAXXENE_OVERALL.                                       :Overall estimate of maximum cross energy {F13.4}
MINXENE_OVERALL.                                       :Overall estimate of minimum cross energy {F13.4}
PR   .                                                 :Poisson's Ratio {F13.4}
VPVS .                                                 :Compressional to Shear Velocity Ratio {F13.4}
DTSM .US/F                                             :Delta-T Shear {F13.4}
DTCO .US/F                                             :Delta-T Compressional {F13.4}
HD2_PPC2.IN                                            :PPC2 Hole Diameter 2 {F13.4}
HD1_PPC2.IN                                            :PPC2 Hole Diameter 1 {F13.4}
HD2_PPC1.IN                                            :PPC1 Hole Diameter 2 {F13.4}
HD1_PPC1.IN                                            :PPC1 Hole Diameter 1 {F13.4}
GR_EDTC.GAPI                                           :Gamma Ray {F13.4}
BS   .IN                                               :Bit Size {F13.4}
AT90 .OHMM                                             :Array Induction Two Foot Resistivity A90 {F13.4}
AT60 .OHMM                                             :Array Induction Two Foot Resistivity A60 {F13.4}
AT30 .OHMM                                             :Array Induction Two Foot Resistivity A30 {F13.4}
AT20 .OHMM                                             :Array Induction Two Foot Resistivity A20 {F13.4}
AT10 .OHMM                                             :Array Induction Two Foot Resistivity A10 {F13.4}
RHOZ .G/C3                                             :HRDD Standard Resolution Formation Density {F13.4}
PEFZ .                                                 :HRDD Standard Resolution Formation Photoelectric Factor {F13.4}
NPOR .CFCF                                             :Enhanced Thermal Neutron Porosity in Selected Lithology {F13.4}
TDEP ..1IN                                             : {I11}
#-----------------------------------------------------------------------------
# 
#     DEPT    MAXXENE_OVER MINXENE_OVER     PR           VPVS         DTSM         DTCO       HD2_PPC2     HD1_PPC2     HD2_PPC1     HD1_PPC1     GR_EDTC        BS           AT90         AT60         AT30         AT20         AT10         RHOZ         PEFZ         NPOR         TDEP
#             ALL          ALL
~A  
# ...
   10350.5       9.1474       0.8394       0.2407       1.7112     114.1818      66.7273       9.0476       8.8208       9.0257       8.8335      73.5936       8.7500       1.5242       1.5696       1.5919       1.6194       1.6467       2.6762       4.1813       0.1590 1176615424
   10350.0       9.1316       0.8280       0.2363       1.7019     114.1818      67.0909       9.0343       8.8325       9.0129       8.8454      69.7696       8.7500       1.5785       1.6278       1.6410       1.6807       1.6878       2.6845       4.1251       0.1572 1176614912
   10349.5       9.1271       0.8347       0.2432       1.7166     114.5455      66.7273       9.0476       8.8091       9.0353       8.8320      71.2597       8.7500       1.6164       1.6429       1.6782       1.7023       1.7216       2.6894       4.0900       0.1555 1176614400
   10349.0       9.1133       0.8588       0.2480       1.7275     115.2727      66.7273       9.0343       8.8208       9.0353       8.8320      79.0158       8.7500       1.6194       1.6674       1.6951       1.7326       1.7606       2.6848       4.0577       0.1685 1176613888
   10348.5       9.1028       0.8983       0.2382       1.7059     116.0000      68.0000       9.0519       8.8333       9.0386       8.8335      85.5617       8.7500       1.6662       1.7120       1.7479       1.7849       1.8024       2.6701       4.0225       0.1764 1176613376
   10348.0       9.0714       0.9375       0.2347       1.6984     116.7273      68.7273       9.0301       8.7966       9.0386       8.8335      89.5743       8.7500       1.6564       1.7069       1.7334       1.7768       1.7831       2.6589       3.9595       0.1857 1176612864
   10347.5       9.0249       0.9721       0.2304       1.6895     116.7273      69.0909       9.0346       8.8208       9.0386       8.8454      91.1106       8.7500       1.6579       1.7082       1.7417       1.7870       1.7868       2.6507       3.9381       0.1876 1176612352
   10347.0       8.9886       1.0004       0.2397       1.7090     117.4545      68.7273       9.0343       8.8091       9.0386       8.8335      96.1345       8.7500       1.6750       1.7125       1.7564       1.7997       1.7939       2.6548       3.9468       0.1794 1176611840
   10346.5       8.9691       1.0266       0.2325       1.6939     116.7273      68.9091       9.0346       8.7973       9.0386       8.8335      94.9631       8.7500       1.6726       1.7147       1.7433       1.7871       1.7793       2.6618       4.0714       0.1871 1176611328
   10346.0       8.9549       1.0521       0.2325       1.6939     116.7273      68.9091       9.0212       8.8091       9.0096       8.8320      96.5198       8.7500       1.6768       1.7198       1.7411       1.7909       1.7871       2.6843       4.2919       0.1910 1176610816
   10345.5       8.9362       1.0735       0.2347       1.6984     116.7273      68.7273       9.0388       8.8098       9.0225       8.8320      93.5003       8.7500       1.7543       1.7995       1.8190       1.8684       1.8595       2.6905       4.4585       0.1877 1176610304
   10345.0       8.9161       1.0997       0.2473       1.7258     116.7273      67.6364       9.0081       8.8322       9.0371       8.8335      93.3311       8.7500       1.8501       1.8964       1.9146       1.9514       1.9400       2.7016       4.5785       0.1738 1176609792
   10344.5       8.9088       1.1290       0.2573       1.7493     116.7273      66.7273       9.0081       8.7973       9.0257       8.8454      84.9341       8.7500       1.7973       1.8458       1.8384       1.8629       1.8631       2.7098       4.6288       0.1734 1176609280
   10344.0       8.8921       1.1470       0.2521       1.7370     115.2727      66.3636       9.0081       8.8091       9.0225       8.8320      82.4422       8.7500       1.6854       1.7173       1.7191       1.7373       1.7360       2.7080       4.7310       0.1908 1176608768
   10343.5       8.8592       1.1693       0.2480       1.7275     115.2727      66.7273       9.0124       8.8098       9.0386       8.8320      80.8822       8.7500       1.6651       1.6921       1.6878       1.7206       1.7195       2.6978       4.6783       0.1869 1176608256
   10343.0       8.8500       1.1824       0.2425       1.7151     113.8182      66.3636       9.0212       8.8091       9.0225       8.8320      86.4738       8.7500       1.7044       1.7318       1.7381       1.7545       1.7654       2.6821       4.4456       0.1654 1176607744
   10342.5       8.8423       1.1817       0.2442       1.7190     113.4545      66.0000       9.0081       8.7973       9.0129       8.8335      81.8405       8.7500       1.7100       1.7357       1.7552       1.7798       1.7873       2.6947       4.1530       0.1522 1176607232
   10342.0       8.8390       1.1843       0.2582       1.7514     112.7273      64.3636       9.0081       8.8091       9.0129       8.8335      74.4631       8.7500       1.7349       1.7712       1.7848       1.8073       1.8223       2.7068       3.9719       0.1326 1176606720
   10341.5       8.8440       1.1706       0.2656       1.7701     112.0000      63.2727       9.0476       8.8091       9.0353       8.8320      66.0214       8.7500       1.7550       1.8113       1.8458       1.8800       1.8831       2.7168       3.9125       0.1310 1176606208
   10341.0       8.8567       1.1511       0.2656       1.7701     112.0000      63.2727       9.0343       8.8091       9.0129       8.8335      65.4412       8.7500       1.6877       1.7362       1.7948       1.8164       1.8170       2.7054       3.9263       0.1717 1176605696
   10340.5       8.8720       1.1361       0.2627       1.7627     113.4545      64.3636       9.0212       8.8208       9.0386       8.8335      69.7695       8.7500       1.6193       1.6378       1.6821       1.7191       1.7093       2.6850       3.9127       0.1905 1176605184
   10340.0       8.9000       1.1233       0.2556       1.7452     114.5455      65.6364       9.0479       8.8091       9.0386       8.8335      75.3451       8.7500       1.5505       1.5760       1.6096       1.6387       1.6186       2.6578       3.8612       0.2085 1176604672
   10339.5       8.9161       1.1017       0.2331       1.6952     115.2727      68.0000       9.0610       8.8325       9.0368       8.8320      81.4327       8.7500       1.4535       1.4871       1.5112       1.5273       1.5143       2.6453       3.7337       0.2113 1176604160
   10339.0       8.9219       1.0759       0.2290       1.6867     117.4545      69.6364       9.0479       8.8091       9.0353       8.8320      89.4603       8.7500       1.3954       1.4243       1.4442       1.4480       1.4497       2.6434       3.6357       0.2035 1176603648
   10338.5       8.9269       1.0425       0.2280       1.6848     118.5455      70.3636       9.0476       8.8325       9.0257       8.8335      90.1016       8.7500       1.4290       1.4683       1.4796       1.4722       1.4969       2.6664       3.5965       0.1952 1176603136
   10338.0       8.9237       1.0064       0.2192       1.6675     116.7273      70.0000       9.0479       8.8091       9.0386       8.8335      92.8025       8.7500       1.5901       1.6716       1.6637       1.6832       1.7040       2.6903       3.6344       0.1593 1176602624
   10337.5       8.9239       0.9758       0.2323       1.6935     114.5455      67.6364       9.0476       8.8091       9.0353       8.8320      81.8368       8.7500       1.8052       1.8610       1.9043       1.9405       2.0382       2.7102       3.6985       0.1257 1176602112
   10337.0       8.9346       0.9507       0.2627       1.7627     113.4545      64.3636       9.0479       8.8091       9.0353       8.8320      74.0745       8.7500       2.1001       2.1162       2.2066       2.1648       2.2096       2.7066       3.7602       0.1364 1176601600
   10336.5       8.9441       0.9332       0.2611       1.7586     111.2727      63.2727       9.0343       8.8560       9.0386       8.8335      67.0063       8.7500       1.9090       1.9561       2.0292       2.0491       2.0601       2.6987       3.8375       0.1806 1176601088
