~VERSION INFORMATION
VERS.           2.0   :CWLS Log ASCII Standard - VERSION 2.0
WRAP.           NO    :One Line per depth step
PROD.  Schlumberger   :LAS Producer
PROG.  DLIS to ASCII 15C0-309                          :LAS Program name and version
CREA.        2008/02/20 22:50                          :LAS Creation date {YYYY/MM/DD hh:mm}
DLIS_CREA.  2008-Feb-20	21:27			       :DLIS Creation date and time {YYYY-MMM-DD hh:mm}
SOURCE.     MAIN_AIT_TLD_MCFL_CNL_046PUP.DLIS          :DLIS File Name
FILE-ID.     AIT_TLD_MCFL_CNL_046PUP                   :File Identification Number
#--------------------------------------------------
~WELL INFORMATION
#MNEM.UNIT      DATA             DESCRIPTION
#---- ------ --------------   -----------------------------
STRT .F      7700.0          :START DEPTH     
STOP .F      10520.0         :STOP DEPTH     
STEP .F       0.5            :STEP     
NULL .          -999.25      :NULL VALUE
COMP .        FIDELITY EXPLORATION & PRODUCTION CO.      :COMPANY
WELL .        DEADWOOD CANYON RANCH 43-28H             :WELL
FLD  .        WILDCAT                                  :FIELD
LOC  .        NE SE                                    :LOCATION
CNTY .        MOUNTRAIL                                :COUNTY
STAT .        N. DAKOTA                                :STATE
CTRY .                                                 :COUNTRY
API  .        33-061-00581                             :API NUMBER
UWI  .        3306100581                               :UNIQUE WELL ID
DATE .        20-Feb-2008                              :LOG DATE {DD-MMM-YYYY}
SRVC .        Schlumberger                             :SERVICE COMPANY
LATI .DEG                                              :LATITUDE
LONG .DEG                                              :LONGITUDE
GDAT .                                                 :GeoDetic Datum
SECT .        28                                       :Section
RANG .        92W                                      :Range
TOWN .        154N                                     :Township
#-----------------------------------------------------------------------------
~PARAMETER INFORMATION
#MNEM.UNIT    VALUE                      DESCRIPTION
#---- -----   --------------------       ------------------------
RUN  .          ONE                      :RUN NUMBER
PDAT .        GROUND LEVEL               :Permanent Datum
EPD  .F         2111.000000              :Elevation of Permanent Datum above Mean Sea Level
LMF  .          KELLY BUSHING            :Logging Measured From (Name of Logging Elevation Reference)
APD  .F          18.000000               :Elevation of Depth Reference (LMF) above Permanent Datum
#-----------------------------------------------------------------------------
~CURVE INFORMATION
#MNEM.UNIT   API CODE                                  DESCRIPTION
#---- -----  --------                                  -----------------------
DEPT .F                                                :DEPTH (BOREHOLE) {F10.1}
AF20 .OHMM                                             :Array Induction Four Foot Resistivity A20 {F13.4}
AF30 .OHMM                                             :Array Induction Four Foot Resistivity A30 {F13.4}
AF60 .OHMM                                             :Array Induction Four Foot Resistivity A60 {F13.4}
AF90 .OHMM                                             :Array Induction Four Foot Resistivity A90 {F13.4}
AT20 .OHMM                                             :Array Induction Two Foot Resistivity A20 {F13.4}
AT30 .OHMM                                             :Array Induction Two Foot Resistivity A30 {F13.4}
AT60 .OHMM                                             :Array Induction Two Foot Resistivity A60 {F13.4}
AT90 .OHMM                                             :Array Induction Two Foot Resistivity A90 {F13.4}
DPHZ .CFCF                                             :HRDD Standard Resolution Density Porosity {F13.4}
GR_EDTC.GAPI                                           :Gamma Ray {F13.4}
HCAL .IN                                               :HRCC Cal. Caliper {F13.4}
HDRA .G/C3                                             :HRDD Density Correction {F13.4}
NPOR .CFCF                                             :Enhanced Thermal Neutron Porosity {F13.4}
PEFZ .                                                 :HRDD Standard Resolution Formation Photoelectric Factor {F13.4}
PXND_HILT.CFCF                                         :HILT Porosity CrossPlot {F13.4}
RHOZ .G/C3                                             :HRDD Standard Resolution Formation Density {F13.4}
TENS .LBF                                              :Cable Tension {F13.4}
#-----------------------------------------------------------------------------
# 
#     DEPT        AF20         AF30         AF60         AF90         AT20         AT30         AT60         AT90         DPHZ       GR_EDTC        HCAL         HDRA         NPOR         PEFZ      PXND_HILT       RHOZ         TENS
#
~A  
# ...
    8067.5      93.5188     125.4030     113.7711     120.7627     201.5414     387.6664     214.9333     428.4338       0.3920       9.5760       8.6472      -0.0012      -0.0372       5.3543       0.2638       2.0397    3593.0000
    8068.0      55.7800      70.5704      63.8327      81.3772      90.7161      76.3293      63.7165      68.0523       0.3737      11.0368       8.6104       0.0006      -0.0404       5.5363       0.2532       2.0709    3572.0000
    8068.5      36.9113      45.3233      42.4412      59.9525      45.5113      44.2979      39.9140      44.8039       0.3244      14.6997       8.5932       0.0118      -0.0269       5.7403       0.2237       2.1552    3644.0000
    8069.0      28.1316      33.8327      33.3262      48.7093      14.6855      16.9848      17.0800      18.3049       0.2716      18.7065       8.4557       0.0232       0.0308       5.8575       0.1947       2.2455    3601.0000
    8069.5      26.3234      31.3408      33.3350      45.9022      11.3823      12.4931      13.2555      13.4183       0.2445      21.5456       8.5101       0.0338       0.0436       5.8358       0.1782       2.2920    3577.0000
    8070.0      30.5556      36.1309      40.4285      50.6360      25.4259      28.5522      32.0685      33.5524       0.2500      20.5817       8.6963       0.0399      -0.0146       5.6906       0.1804       2.2825    3608.0000
    8070.5      40.6105      48.3670      55.8462      64.8792      68.9910      61.4559      57.2911      58.3293       0.2507      17.5361       8.7700       0.0526      -0.0177       5.5257       0.1790       2.2813    3633.0000
    8071.0      59.7513      71.1511      85.6880      88.3869     166.9124      69.3279      79.5365      77.6908       0.2557      14.5710       8.7700       0.0578      -0.0028       5.4485       0.1812       2.2727    3609.0000
    8071.5      84.1453     105.4372     124.2410     124.9226     150.4833     183.0576     142.9751     185.4296       0.2767      13.4808       8.7921       0.0488      -0.0100       5.4342       0.1939       2.2368    3606.0000
    8072.0     107.3709     145.0715     144.1345     156.9851     134.7712     131.3139     205.6528     128.7761       0.3131      11.0420       8.9713       0.0289      -0.0240       5.3892       0.2163       2.1746    3615.0000
    8072.5     103.7769     135.6338     120.5274     133.5549     137.2503     140.6720     202.4546     131.8654       0.3464      10.0301       9.0646       0.0118      -0.0354       5.3057       0.2369       2.1177    3582.0000
    8073.0      79.8817      94.5653      89.4366      94.7553     120.8170     238.9516     314.5327     221.8685       0.3623       8.3773       9.1315       0.0045      -0.0359       5.1935       0.2464       2.0905    3619.0000
    8073.5      56.0065      59.7780      61.4763      62.6848     195.5613     158.2083     165.9850     154.6996       0.3732       7.3687       8.9664       0.0010      -0.0344       5.1662       0.2529       2.0718    3642.0000
    8074.0      31.1490      32.5426      34.6249      34.8073      75.4579      63.7784      75.9246      54.6707       0.3627       7.1116       8.9492       0.0003      -0.0356       5.1903       0.2466       2.0899    3597.0000
    8074.5      18.8115      19.9246      20.3165      21.1856      26.3066      33.3694      28.1387      34.2791       0.3140       8.6258       8.9467       0.0010      -0.0218       5.1575       0.2198       2.1731    3659.0000
    8075.0      13.2179      13.7893      13.9091      14.4572      11.7169      12.1877      12.9134      13.0174       0.2171      15.2220       8.7779       0.0105       0.0538       5.0751       0.1633       2.3387    3589.0000
    8075.5      10.5791      10.8792      11.1019      11.3845       7.5765       7.5608       7.8788       8.2264       0.1129      23.1261       8.4705       0.0158       0.1177       4.8911       0.0969       2.5170    3595.0000
    8076.0       9.9650      10.1706      10.5520      10.7716       6.4802       6.7290       6.9528       7.1052       0.0313      30.4386       8.4521       0.0169       0.1166       4.8142       0.0772       2.6565    3605.0000
    8076.5      11.5242      11.6939      12.1957      12.2368       8.5552       8.2945       8.4062       8.5012      -0.0135      29.9887       8.4484       0.0086       0.0553       4.8042       0.0499       2.7330    3574.0000
    8077.0      15.6325      15.6891      16.6512      16.6852      16.4348      19.1046      22.5366      23.3583      -0.0422      23.6912       8.4508       0.0048       0.0179       4.9621       0.0219       2.7821    3626.0000
    8077.5      22.7596      23.0150      26.0012      24.8094      34.4595      43.9937      51.0979      53.7035      -0.0602      16.2526       8.4017       0.0051       0.0023       5.1655       0.0054       2.8129    3607.0000
    8078.0      40.5021      39.9010      43.8755      43.8532     120.7240      69.7094      62.3412      65.0064      -0.0670       9.7623       8.3968       0.0049      -0.0034       5.2972       0.0009       2.8246    3665.0000
    8078.5      72.0971      66.5768      72.3803      67.8170     255.5853      71.0005      73.8129     150.2159      -0.0714       7.7517       8.3885       0.0057      -0.0028       5.3708       0.0007       2.8320    3599.0000
    8079.0     123.8213     103.5752     103.1783      92.3321     398.7272     127.6700     131.4129     192.3300      -0.0733       6.9217       8.4066       0.0062      -0.0070       5.4191       0.0006       2.8354    3619.0000
    8079.5     200.7559     157.2748     148.7860     114.2403     577.8971     394.3324     326.7365     314.8660      -0.0829       7.1145       8.4729       0.0108      -0.0107       5.4906       0.0000       2.8517    3660.0000
    8080.0     301.1176     264.9586     255.0279     150.5794     538.2759     399.0746     253.3182     222.6542      -0.0988       6.4946       8.5570       0.0150      -0.0090       5.5412       0.0000       2.8789    3630.0000
    8080.5     276.9751     363.6893     368.2915     132.4735     511.8754     273.9594     168.3039     127.7654      -0.1204       6.1560       8.6620       0.0156      -0.0010       5.5192       0.0000       2.9158    3665.0000
    8081.0     207.7332     261.6022     211.6766      77.7901     467.3194     222.9430     107.9725      91.4462      -0.1345       5.6721       8.7227       0.0107      -0.0026       5.4832       0.0000       2.9399    3614.0000
    8081.5     167.0889     210.0274     162.7140      63.4342     189.3455     171.4771      87.0616      63.9608      -0.1419       5.9643       8.7602       0.0051      -0.0138       5.4450       0.0000       2.9526    3637.0000
    8082.0     144.3478     157.5133     152.6892      52.5405     117.5433     122.4864      76.3805      51.6527      -0.1466       5.0113       8.7724       0.0026      -0.0137       5.3900       0.0000       2.9607    3580.0000
    8082.5      98.4594      90.6522      91.2278      51.3359     170.0436     135.2904      59.6817      41.0094      -0.1546       5.3762       8.7200       0.0025      -0.0176       5.3169       0.0000       2.9744    3603.0000
    8083.0      66.7324      62.1876      56.6968      38.5396     131.2467      62.9560      47.9185      32.4508      -0.1537       5.9005       8.6153       0.0026      -0.0209       5.2691       0.0000       2.9728    3601.0000
    8083.5      41.6554      41.5494      35.9633      27.8451      55.6527      41.6749      34.6842      26.8551      -0.1437       8.3087       8.5432      -0.0003      -0.0199       5.2512       0.0000       2.9558    3601.0000
    8084.0      23.6242      25.3692      24.0998      19.5633      31.0357      28.6670      25.2603      17.2864      -0.1244      10.1709       8.4990      -0.0106      -0.0153       5.2640       0.0000       2.9227    3557.0000
    8084.5      13.7208      14.6873      14.3881      11.7642      20.4807      27.7846      26.8673      14.2906      -0.1015      13.1887       8.4521      -0.0227      -0.0034       5.1991       0.0000       2.8835    3615.0000
