~VERSION INFORMATION
VERS.           2.0   :CWLS Log ASCII Standard - VERSION 2.0
WRAP.           NO    :One Line per depth step
PROD.  Schlumberger   :LAS Producer
PROG.  DLIS to ASCII 2.2                               :LAS Program name and version
CREA.        2008/02/27 08:04                          :LAS Creation date {YYYY/MM/DD hh:mm}
SOURCE.     Bakken_PNS_Final_Data.dlis  :DLIS File Name
FILE-ID.     Interpretation Chain - gf_user            :File Identification Number
#--------------------------------------------------
~WELL INFORMATION
#MNEM.UNIT      DATA             DESCRIPTION
#---- ------ --------------   -----------------------------
STRT .F        10539.0       :START DEPTH     
STOP .F         7660.0       :STOP DEPTH     
STEP .F           -0.5       :STEP     
NULL .          -999.25      :NULL VALUE
COMP .               :COMPANY
WELL .        Bakken            :WELL
FLD  .                                         :FIELD
LOC  .                                                 :LOCATION
CNTY .                                       :COUNTY
STAT .                                        :STATE
CTRY .        USA                                      :COUNTRY
API  .                                                 :API NUMBER
UWI  .                    :UNIQUE WELL ID
DATE .                                                 :LOG DATE
SRVC .        Schlumberger                             :SERVICE COMPANY
LATI .DEG     48.129                                   :LATITUDE
LONG .DEG     -102.505                                 :LONGITUDE
GDAT .                                                 :GeoDetic Datum
#-----------------------------------------------------------------------------
~PARAMETER INFORMATION
#MNEM.UNIT    VALUE                      DESCRIPTION
#---- -----   --------------------       ------------------------
RUN  .                                   :RUN NUMBER
PDAT .        GROUND LEVEL               :Permanent Datum
EPD  .F         2111.000000              :Elevation of Permanent Datum above Mean Sea Level
EPD  .F         2111.000000              :Elevation of tool zero above Mean Sea Level
LMF  .          KELLY BUSHING            :Logging Measured From (Name of Logging Elevation Reference)
APD  .F          18.000000               :Elevation of Depth Reference (LMF) above Permanent Datum
#-----------------------------------------------------------------------------
~CURVE INFORMATION
#MNEM.UNIT   API CODE                                  DESCRIPTION
#---- -----  --------                                  -----------------------
DEPT .F                                                :DEPTH (BOREHOLE) {F10.1}
MAXXENE_OVERALL.                                       :Overall estimate of maximum cross energy {F13.4}
MINXENE_OVERALL.                                       :Overall estimate of minimum cross energy {F13.4}
PR   .                                                 :Poisson's Ratio {F13.4}
VPVS .                                                 :Compressional to Shear Velocity Ratio {F13.4}
DTSM .US/F                                             :Delta-T Shear {F13.4}
DTCO .US/F                                             :Delta-T Compressional {F13.4}
HD2_PPC2.IN                                            :PPC2 Hole Diameter 2 {F13.4}
HD1_PPC2.IN                                            :PPC2 Hole Diameter 1 {F13.4}
HD2_PPC1.IN                                            :PPC1 Hole Diameter 2 {F13.4}
HD1_PPC1.IN                                            :PPC1 Hole Diameter 1 {F13.4}
GR_EDTC.GAPI                                           :Gamma Ray {F13.4}
BS   .IN                                               :Bit Size {F13.4}
AT90 .OHMM                                             :Array Induction Two Foot Resistivity A90 {F13.4}
AT60 .OHMM                                             :Array Induction Two Foot Resistivity A60 {F13.4}
AT30 .OHMM                                             :Array Induction Two Foot Resistivity A30 {F13.4}
AT20 .OHMM                                             :Array Induction Two Foot Resistivity A20 {F13.4}
AT10 .OHMM                                             :Array Induction Two Foot Resistivity A10 {F13.4}
RHOZ .G/C3                                             :HRDD Standard Resolution Formation Density {F13.4}
PEFZ .                                                 :HRDD Standard Resolution Formation Photoelectric Factor {F13.4}
NPOR .CFCF                                             :Enhanced Thermal Neutron Porosity in Selected Lithology {F13.4}
TDEP ..1IN                                             : {I11}
#-----------------------------------------------------------------------------
# 
#     DEPT    MAXXENE_OVER MINXENE_OVER     PR           VPVS         DTSM         DTCO       HD2_PPC2     HD1_PPC2     HD2_PPC1     HD1_PPC1     GR_EDTC        BS           AT90         AT60         AT30         AT20         AT10         RHOZ         PEFZ         NPOR         TDEP
#             ALL          ALL
~A  
# ...
    9770.5       8.7377       1.6589       0.2758       1.7974     100.0000      55.6364       9.0829       8.8905       9.0515       8.9287      33.4733       8.7500      36.2264      38.9474      39.4814      39.4537      38.7672       2.7184       4.5768       0.0401 1176021504
    9770.0       8.7911       1.6175       0.2758       1.7974     100.0000      55.6364       9.0913       8.8918       9.0611       8.9273      30.8517       8.7500      31.8402      34.7167      34.0764      34.1982      33.8787       2.7268       4.6048       0.0468 1176020992
    9769.5       8.8422       1.5713       0.2758       1.7974     100.0000      55.6364       9.0871       8.8912       9.0611       8.9287      34.1294       8.7500      32.3434      33.7112      33.7547      33.9032      33.2208       2.7297       4.5940       0.0460 1176020480
    9769.0       8.8830       1.5260       0.2710       1.7843      99.2727      55.6364       9.1002       8.8794       9.0772       8.9287      33.6204       8.7500      33.5968      35.1769      35.6381      35.5011      34.0852       2.7258       4.6053       0.0369 1176019968
    9768.5       8.9226       1.4704       0.2569       1.7484      98.5455      56.3636       9.1268       8.8794       9.0772       8.9287      32.0888       8.7500      33.0035      34.4583      35.1258      35.4780      34.6998       2.7158       4.5574       0.0408 1176019456
    9768.0       8.9610       1.4139       0.2754       1.7961      99.2727      55.2727       9.1268       8.8677       9.0868       8.9273      27.0414       8.7500      33.2099      34.2661      34.7860      34.2213      34.7476       2.7093       4.5587       0.0463 1176018944
    9767.5       9.0095       1.3589       0.2770       1.8007      98.5455      54.7273       9.1401       8.8677       9.0740       8.9273      26.6878       8.7500      34.6294      35.4190      37.5682      37.4066      35.9566       2.7112       4.5461       0.0419 1176018432
    9767.0       9.0518       1.3086       0.2586       1.7525      95.2727      54.3636       9.1266       8.8677       9.0900       8.9168      27.5573       8.7500      42.5562      43.9737      45.7429      45.3122      42.7548       2.7121       4.5851       0.0228 1176017920
    9766.5       9.0802       1.2646       0.2627       1.7627      94.5455      53.6364       9.1268       8.8677       9.0740       8.9168      26.7393       8.7500      54.4175      56.5335      59.9164      58.8046      51.3513       2.7078       4.6615       0.0186 1176017408
    9766.0       9.1037       1.2320       0.2726       1.7884      95.2727      53.2727       9.1135       8.8677       9.0740       8.9153      22.7703       8.7500      55.5385      55.7740      60.2050      58.5931      54.4951       2.7001       4.7647       0.0253 1176016896
    9765.5       9.1128       1.2143       0.2743       1.7931      94.5455      52.7273       9.1268       8.8560       9.0740       8.9153      18.4575       8.7500      61.5974      63.7797      65.1743      60.1758      56.7934       2.6976       4.8355       0.0226 1176016384
    9765.0       9.1138       1.2017       0.2712       1.7847      93.4545      52.3636       9.1401       8.8560       9.0868       8.9153      20.1793       8.7500      74.7329      80.5815      81.7136      77.4248      74.0156       2.7086       4.8170       0.0127 1176015872
    9764.5       9.1160       1.1916       0.2659       1.7708      92.7273      52.3636       9.1266       8.8560       9.0611       8.9153      18.4555       8.7500      99.5458     104.6107     112.5939     110.3307     106.7411       2.7247       4.7486       0.0040 1176015360
    9764.0       9.1224       1.1759       0.2692       1.7793      93.8182      52.7273       9.1268       8.8325       9.0740       8.9168      20.8088       8.7500     109.1678     118.0282     121.8111     122.3730     117.8474       2.7323       4.6725       0.0148 1176014848
    9763.5       9.1146       1.1658       0.2697       1.7808      94.5455      53.0909       9.1002       8.8443       9.0740       8.9153      22.8903       8.7500     112.8902     120.4378     126.2346     123.3613     109.6353       2.7282       4.6557       0.0120 1176014336
    9763.0       9.1015       1.1602       0.2551       1.7441      94.1818      54.0000       9.0871       8.8560       9.0772       8.9168      27.8854       8.7500     114.3925     119.7921     132.2938     126.8972     105.1672       2.7190       4.6566       0.0095 1176013824
    9762.5       9.0800       1.1620       0.2421       1.7143      93.8182      54.7273       9.1179       8.8567       9.0482       8.9153      27.7748       8.7500      92.5788     100.0719     106.1959      96.7718      84.0379       2.7163       4.6600       0.0164 1176013312
    9762.0       9.0614       1.1673       0.2586       1.7525      95.2727      54.3636       9.0871       8.8560       9.0740       8.9153      22.8231       8.7500      81.3672      86.5917      90.2724      85.5886      67.8937       2.7183       4.6633       0.0299 1176012800
    9761.5       9.0400       1.1719       0.2743       1.7931      94.5455      52.7273       9.0740       8.8443       9.0515       8.9168      18.6906       8.7500      71.6300      77.0821      78.7980      75.0304      66.0213       2.7225       4.7108       0.0338 1176012288
    9761.0       9.0219       1.1786       0.2738       1.7917      93.8182      52.3636       9.0871       8.8560       9.0644       8.9168      17.4830       8.7500      85.6941      95.0148      95.5131      87.7695      78.7761       2.7263       4.8175       0.0223 1176011776
    9760.5       9.0034       1.1888       0.2692       1.7793      93.8182      52.7273       9.1002       8.8560       9.0626       8.9153      19.6159       8.7500      93.2688     102.4283     104.7085      98.6989      97.4536       2.7309       4.9175       0.0115 1176011264
    9760.0       8.9882       1.1983       0.2726       1.7884      95.2727      53.2727       9.1309       8.8567       9.0644       8.9048      20.6411       8.7500      98.9226     105.1998     108.7780     102.7544     102.6764       2.7277       4.9710       0.0081 1176010752
    9759.5       8.9712       1.2030       0.2741       1.7926      97.4545      54.3636       9.1002       8.8560       9.0740       8.8915      25.4714       8.7500      81.9511      93.9469      95.5223      87.7716      83.9945       2.7249       4.9193       0.0176 1176010240
    9759.0       8.9541       1.2092       0.2629       1.7632      97.4545      55.2727       9.0740       8.8560       9.0611       8.9153      25.1739       8.7500      70.3325      75.5033      77.1908      69.2229      65.9432       2.7188       4.8524       0.0280 1176009728
    9758.5       8.9423       1.2121       0.2724       1.7881      98.1818      54.9091       9.0871       8.8677       9.0644       8.9168      26.0464       8.7500      59.4143      61.6264      63.7900      61.4805      55.4440       2.7093       4.8276       0.0299 1176009216
    9758.0       8.9503       1.2109       0.2789       1.8060      98.1818      54.3636       9.1004       8.8560       9.0644       8.9168      20.4063       8.7500      53.2124      54.4696      56.4975      54.4066      47.6221       2.7060       4.8057       0.0418 1176008704
    9757.5       8.9674       1.2030       0.2935       1.8498      98.5455      53.2727       9.1179       8.8684       9.0643       8.9168      21.6134       8.7500      46.4796      46.8952      48.7282      48.2259      44.5488       2.7151       4.8029       0.0322 1176008192
    9757.0       8.9791       1.1915       0.2869       1.8294      97.4545      53.2727       9.0871       8.8443       9.0643       8.9049      22.3034       8.7500      55.7266      57.8507      58.8178      57.6462      53.7327       2.7290       4.7425       0.0253 1176007680
    9756.5       8.9938       1.1760       0.2586       1.7525      95.2727      54.3636       9.1004       8.8560       9.0644       8.9168      26.3977       8.7500      70.7372      71.4446      76.1108      73.4152      68.9410       2.7293       4.7196       0.0159 1176007168
