~VERSION INFORMATION
VERS.           2.0   :CWLS Log ASCII Standard - VERSION 2.0
WRAP.           NO    :One Line per depth step
PROD.  Schlumberger   :LAS Producer
PROG.  DLIS to ASCII 15C0-309                          :LAS Program name and version
CREA.        2008/02/20 22:50                          :LAS Creation date {YYYY/MM/DD hh:mm}
DLIS_CREA.  2008-Feb-20	21:27			       :DLIS Creation date and time {YYYY-MMM-DD hh:mm}
SOURCE.     MAIN_AIT_TLD_MCFL_CNL_046PUP.DLIS          :DLIS File Name
FILE-ID.     AIT_TLD_MCFL_CNL_046PUP                   :File Identification Number
#--------------------------------------------------
~WELL INFORMATION
#MNEM.UNIT      DATA             DESCRIPTION
#---- ------ --------------   -----------------------------
STRT .F      7700.0          :START DEPTH     
STOP .F      10520.0         :STOP DEPTH     
STEP .F       0.5            :STEP     
NULL .          -999.25      :NULL VALUE
COMP .        FIDELITY EXPLORATION & PRODUCTION CO.      :COMPANY
WELL .        DEADWOOD CANYON RANCH 43-28H             :WELL
FLD  .        WILDCAT                                  :FIELD
LOC  .        NE SE                                    :LOCATION
CNTY .        MOUNTRAIL                                :COUNTY
STAT .        N. DAKOTA                                :STATE
CTRY .                                                 :COUNTRY
API  .        33-061-00581                             :API NUMBER
UWI  .        3306100581                               :UNIQUE WELL ID
DATE .        20-Feb-2008                              :LOG DATE {DD-MMM-YYYY}
SRVC .        Schlumberger                             :SERVICE COMPANY
LATI .DEG                                              :LATITUDE
LONG .DEG                                              :LONGITUDE
GDAT .                                                 :GeoDetic Datum
SECT .        28                                       :Section
RANG .        92W                                      :Range
TOWN .        154N                                     :Township
#-----------------------------------------------------------------------------
~PARAMETER INFORMATION
#MNEM.UNIT    VALUE                      DESCRIPTION
#---- -----   --------------------       ------------------------
RUN  .          ONE                      :RUN NUMBER
PDAT .        GROUND LEVEL               :Permanent Datum
EPD  .F         2111.000000              :Elevation of Permanent Datum above Mean Sea Level
LMF  .          KELLY BUSHING            :Logging Measured From (Name of Logging Elevation Reference)
APD  .F          18.000000               :Elevation of Depth Reference (LMF) above Permanent Datum
#-----------------------------------------------------------------------------
~CURVE INFORMATION
#MNEM.UNIT   API CODE                                  DESCRIPTION
#---- -----  --------                                  -----------------------
DEPT .F                                                :DEPTH (BOREHOLE) {F10.1}
AF20 .OHMM                                             :Array Induction Four Foot Resistivity A20 {F13.4}
AF30 .OHMM                                             :Array Induction Four Foot Resistivity A30 {F13.4}
AF60 .OHMM                                             :Array Induction Four Foot Resistivity A60 {F13.4}
AF90 .OHMM                                             :Array Induction Four Foot Resistivity A90 {F13.4}
AT20 .OHMM                                             :Array Induction Two Foot Resistivity A20 {F13.4}
AT30 .OHMM                                             :Array Induction Two Foot Resistivity A30 {F13.4}
AT60 .OHMM                                             :Array Induction Two Foot Resistivity A60 {F13.4}
AT90 .OHMM                                             :Array Induction Two Foot Resistivity A90 {F13.4}
DPHZ .CFCF                                             :HRDD Standard Resolution Density Porosity {F13.4}
GR_EDTC.GAPI                                           :Gamma Ray {F13.4}
HCAL .IN                                               :HRCC Cal. Caliper {F13.4}
HDRA .G/C3                                             :HRDD Density Correction {F13.4}
NPOR .CFCF                                             :Enhanced Thermal Neutron Porosity {F13.4}
PEFZ .                                                 :HRDD Standard Resolution Formation Photoelectric Factor {F13.4}
PXND_HILT.CFCF                                         :HILT Porosity CrossPlot {F13.4}
RHOZ .G/C3                                             :HRDD Standard Resolution Formation Density {F13.4}
TENS .LBF                                              :Cable Tension {F13.4}
#-----------------------------------------------------------------------------
# 
#     DEPT        AF20         AF30         AF60         AF90         AT20         AT30         AT60         AT90         DPHZ       GR_EDTC        HCAL         HDRA         NPOR         PEFZ      PXND_HILT       RHOZ         TENS
#
~A  
# ...
    8452.5     367.3917     536.2890    1081.5704    1072.2418     302.4998     333.3541     490.0798     405.0461       0.3066      15.9213       8.8111       0.0374      -0.0446       5.3780       0.2122       2.1858    3682.0000
    8453.0     509.3143     654.1464    1098.5719    1239.3887     551.6465     609.4059    1111.0093     899.8428       0.3501      12.6458       8.8249       0.0157      -0.0441       5.3539       0.2391       2.1114    3724.0000
    8453.5     660.2847     826.7851    1193.0865    1525.2206    1646.1692    1043.8922    1427.7755    1056.9321       0.3763       9.6908       8.7448      -0.0001      -0.0333       5.2830       0.2547       2.0665    3661.0000
    8454.0     868.1940    1152.9562    1222.1349    1663.5497    1896.3962    1101.1240    1045.2205     818.0667       0.3722      10.0397       8.7365       0.0004      -0.0300       5.2332       0.2523       2.0735    3702.0000
    8454.5     997.4180    1419.2991    1226.9449    1096.9907    1031.4978     779.1985     709.6758     520.7695       0.3667      12.2608       8.7472       0.0010      -0.0353       5.1841       0.2491       2.0829    3700.0000
    8455.0     995.4106    1559.8575    1531.3507     750.9542     911.1024     921.6245     917.8683     594.7690       0.3661      11.8220       8.7365       0.0000      -0.0360       5.1811       0.2487       2.0840    3705.0000
    8455.5     855.2935    1470.1062    1688.5690     742.8839     834.3253    1066.2081     751.4141     493.4883       0.3692      11.5980       8.7200      -0.0013      -0.0385       5.1999       0.2506       2.0786    3695.0000
    8456.0     629.2280    1269.9341    1635.7607     648.2707     751.2960     731.2324     690.9757     437.6341       0.3710      11.1547       8.7156      -0.0008      -0.0361       5.2440       0.2516       2.0757    3695.0000
    8456.5     528.2943    1157.5571    1595.2546     641.4756     496.8380     685.8051     745.8600     445.8745       0.3549      10.9361       8.6896       0.0048      -0.0306       5.4019       0.2420       2.1031    3747.0000
    8457.0     486.9589     982.5466    1535.9135     578.0552     415.5139     643.7762     897.3411     488.5676       0.3183      11.0298       8.7409       0.0119      -0.0188       5.6294       0.2196       2.1656    3702.0000
    8457.5     415.7604     810.6752    1436.0376     500.2180     434.1426     528.8105     707.8829     440.3851       0.2604      12.1265       8.4221       0.0263      -0.0085       5.8122       0.1830       2.2647    3717.0000
    8458.0     430.4847     815.2474    1232.7767     535.1080     482.5234     577.9736    1025.7806     575.3613       0.2175      13.2165       8.4999       0.0422      -0.0025       5.8218       0.1533       2.3381    3725.0000
    8458.5     438.8712     841.0061    1172.1512     572.6047     697.3524    1038.1504    1276.1970     791.1604       0.2339      13.4371       8.8719       0.0426      -0.0234       5.6811       0.1640       2.3101    3760.0000
    8459.0     431.9409     911.1268    1178.2626     639.1968     491.0445     835.5568     950.4744     710.4238       0.2985      10.3105       8.8755       0.0268      -0.0472       5.5381       0.2071       2.1996    3718.0000
    8459.5     468.0046    1131.8329    1303.5154     803.1188     568.2079     857.0687     923.0723     733.2256       0.3644       7.8017       8.7872       0.0054      -0.0425       5.3902       0.2477       2.0868    3765.0000
    8460.0     486.4757    1327.6599    1516.5472     997.2754     615.5814    1114.6416    1047.2249     824.5253       0.3882       6.5978       8.8034      -0.0021      -0.0399       5.2827       0.2617       2.0461    3766.0000
    8460.5     558.1020    1554.4229    1655.6691    1244.6840     744.8542    1530.4805    1414.6914    1088.4280       0.3884       5.9628       8.7724      -0.0023      -0.0421       5.2168       0.2617       2.0459    3765.0000
    8461.0     603.2646    1815.5643    1853.2471    1640.7677     815.5060    1870.9867    1874.9291    1759.4307       0.3887       6.3998       8.7415      -0.0025      -0.0428       5.2178       0.2619       2.0453    3780.0000
    8461.5     617.6330    1907.5996    1934.7637    1817.0060     843.7604    1950.0000    1950.0000    1950.0000       0.3907       5.9628       8.7238      -0.0028      -0.0401       5.2484       0.2631       2.0420    3784.0000
    8462.0     615.5119    1918.4474    1950.0000    1884.2637     803.7923    1756.2083    1864.2740    1696.8356       0.3896       7.4299       8.6973      -0.0024      -0.0427       5.2472       0.2625       2.0437    3775.0000
    8462.5     600.2647    1843.5881    1950.0000    1837.4330     506.1307     957.8314    1607.6362     974.4442       0.3885       8.1947       8.6885      -0.0025      -0.0433       5.2437       0.2618       2.0457    3786.0000
    8463.0     576.8864    1621.1726    1950.0000    1623.1409     625.2858    1177.5271    1405.0306    1364.1854       0.3844       7.7987       8.6885      -0.0021      -0.0409       5.2181       0.2595       2.0526    3740.0000
    8463.5     546.3316    1443.8600    1932.5455    1423.3574     707.2556    1091.5094    1186.5789    1289.9982       0.3799       7.9080       8.6840      -0.0018      -0.0388       5.2465       0.2568       2.0603    3862.0000
    8464.0     545.4124    1245.5387    1853.9061    1208.3322     627.4587     910.6589    1002.5898    1144.6185       0.3668       8.0172       8.6840       0.0011      -0.0345       5.3875       0.2491       2.0828    3783.0000
    8464.5     557.0308    1035.1514    1732.4286     998.6315     530.4414     911.5358     962.5522    1166.7545       0.3462       9.8336       8.5603       0.0034      -0.0338       5.6414       0.2368       2.1179    3784.0000
    8465.0     547.6245     998.2038    1605.6083     872.9335     597.4883     682.1995     732.2520     805.9020       0.3169      11.6389       8.4012       0.0117      -0.0247       5.8854       0.2188       2.1680    3811.0000
    8465.5     574.6743     831.0772    1439.7999     663.7830     720.9101     712.8785    1300.0128    1226.3329       0.3029      12.9500       8.4410       0.0158      -0.0161       5.9329       0.2099       2.1920    3753.0000
    8466.0     516.2221     770.0794    1231.2448     610.7999     806.7807     752.3411    1048.7789     772.8817       0.3089      11.8574       8.5471       0.0174      -0.0276       5.7926       0.2137       2.1817    3762.0000
    8466.5     452.2604     812.7387    1010.3306     713.0586     578.0237     683.4927     968.5944     548.3214       0.3387       9.6151       8.6443       0.0095      -0.0423       5.5649       0.2322       2.1309    3765.0000
    8467.0     405.6023     837.5320     778.1783     545.9755     448.3409     504.1238     517.8082     432.9419       0.3665       6.8836       8.6708       0.0028      -0.0454       5.4229       0.2490       2.0832    3743.0000
    8467.5     289.3734     607.5597     545.7017     380.9848     377.3732     795.4123     468.4951     271.8445       0.3835       6.6881       8.7106      -0.0014      -0.0414       5.3967       0.2589       2.0541    3766.0000
    8468.0     240.7914     475.8249     455.9382     323.1096     258.9615     392.4230     384.6136     260.9342       0.3625       7.7808       8.7548       0.0101      -0.0383       5.4463       0.2466       2.0901    3743.0000
    8468.5     211.3467     395.6825     358.3273     240.2930     193.6769     291.5448     293.4284     209.9483       0.3032       9.0919       8.7989       0.0397      -0.0353       5.5594       0.2101       2.1916    3743.0000
    8469.0     189.2132     285.9606     285.9239     202.9412     164.6146     212.9772     211.6631     155.6395       0.2473      13.0023       8.9138       0.0651      -0.0157       5.6871       0.1732       2.2872    3728.0000
    8469.5     172.1575     236.7761     276.8965     205.7007     175.7771     164.4751     176.5249     139.9207       0.2251      15.0783       8.8741       0.0720       0.0031       5.7881       0.1599       2.3251    3754.0000
