~VERSION INFORMATION
VERS.           2.0   :CWLS Log ASCII Standard - VERSION 2.0
WRAP.           NO    :One Line per depth step
PROD.  Schlumberger   :LAS Producer
PROG.  DLIS to ASCII 15C0-309                          :LAS Program name and version
CREA.        2008/02/20 22:50                          :LAS Creation date {YYYY/MM/DD hh:mm}
DLIS_CREA.  2008-Feb-20	21:27			       :DLIS Creation date and time {YYYY-MMM-DD hh:mm}
SOURCE.     MAIN_AIT_TLD_MCFL_CNL_046PUP.DLIS          :DLIS File Name
FILE-ID.     AIT_TLD_MCFL_CNL_046PUP                   :File Identification Number
#--------------------------------------------------
~WELL INFORMATION
#MNEM.UNIT      DATA             DESCRIPTION
#---- ------ --------------   -----------------------------
STRT .F      7700.0          :START DEPTH     
STOP .F      10520.0         :STOP DEPTH     
STEP .F       0.5            :STEP     
NULL .          -999.25      :NULL VALUE
COMP .        FIDELITY EXPLORATION & PRODUCTION CO.      :COMPANY
WELL .        DEADWOOD CANYON RANCH 43-28H             :WELL
FLD  .        WILDCAT                                  :FIELD
LOC  .        NE SE                                    :LOCATION
CNTY .        MOUNTRAIL                                :COUNTY
STAT .        N. DAKOTA                                :STATE
CTRY .                                                 :COUNTRY
API  .        33-061-00581                             :API NUMBER
UWI  .        3306100581                               :UNIQUE WELL ID
DATE .        20-Feb-2008                              :LOG DATE {DD-MMM-YYYY}
SRVC .        Schlumberger                             :SERVICE COMPANY
LATI .DEG                                              :LATITUDE
LONG .DEG                                              :LONGITUDE
GDAT .                                                 :GeoDetic Datum
SECT .        28                                       :Section
RANG .        92W                                      :Range
TOWN .        154N                                     :Township
#-----------------------------------------------------------------------------
~PARAMETER INFORMATION
#MNEM.UNIT    VALUE                      DESCRIPTION
#---- -----   --------------------       ------------------------
RUN  .          ONE                      :RUN NUMBER
PDAT .        GROUND LEVEL               :Permanent Datum
EPD  .F         2111.000000              :Elevation of Permanent Datum above Mean Sea Level
LMF  .          KELLY BUSHING            :Logging Measured From (Name of Logging Elevation Reference)
APD  .F          18.000000               :Elevation of Depth Reference (LMF) above Permanent Datum
#-----------------------------------------------------------------------------
~CURVE INFORMATION
#MNEM.UNIT   API CODE                                  DESCRIPTION
#---- -----  --------                                  -----------------------
DEPT .F                                                :DEPTH (BOREHOLE) {F10.1}
AF20 .OHMM                                             :Array Induction Four Foot Resistivity A20 {F13.4}
AF30 .OHMM                                             :Array Induction Four Foot Resistivity A30 {F13.4}
AF60 .OHMM                                             :Array Induction Four Foot Resistivity A60 {F13.4}
AF90 .OHMM                                             :Array Induction Four Foot Resistivity A90 {F13.4}
AT20 .OHMM                                             :Array Induction Two Foot Resistivity A20 {F13.4}
AT30 .OHMM                                             :Array Induction Two Foot Resistivity A30 {F13.4}
AT60 .OHMM                                             :Array Induction Two Foot Resistivity A60 {F13.4}
AT90 .OHMM                                             :Array Induction Two Foot Resistivity A90 {F13.4}
DPHZ .CFCF                                             :HRDD Standard Resolution Density Porosity {F13.4}
GR_EDTC.GAPI                                           :Gamma Ray {F13.4}
HCAL .IN                                               :HRCC Cal. Caliper {F13.4}
HDRA .G/C3                                             :HRDD Density Correction {F13.4}
NPOR .CFCF                                             :Enhanced Thermal Neutron Porosity {F13.4}
PEFZ .                                                 :HRDD Standard Resolution Formation Photoelectric Factor {F13.4}
PXND_HILT.CFCF                                         :HILT Porosity CrossPlot {F13.4}
RHOZ .G/C3                                             :HRDD Standard Resolution Formation Density {F13.4}
TENS .LBF                                              :Cable Tension {F13.4}
#-----------------------------------------------------------------------------
# 
#     DEPT        AF20         AF30         AF60         AF90         AT20         AT30         AT60         AT90         DPHZ       GR_EDTC        HCAL         HDRA         NPOR         PEFZ      PXND_HILT       RHOZ         TENS
#
~A  
# ...
    9940.0      44.1086      45.6222      45.4579      44.0055      53.9135      53.2802      48.2628      45.9557       0.0037      37.6441       8.3438      -0.0013       0.0415       4.5558       0.0389       2.7038    4185.0000
    9940.5      46.6910      48.2142      47.2901      45.6154      47.8713      48.9777      46.1092      45.6504       0.0066      38.0468       8.3482      -0.0017       0.0349       4.6644       0.0365       2.6987    4204.0000
    9941.0      50.1444      51.8243      50.2320      48.9638      43.2708      42.8529      42.1965      41.5538       0.0051      36.1543       8.3305      -0.0010       0.0375       4.7065       0.0354       2.7013    4185.0000
    9941.5      55.1004      57.0597      55.0269      53.5785      53.2495      53.4783      49.9939      50.1669       0.0080      35.0563       8.3416      -0.0023       0.0371       4.7533       0.0347       2.6963    4161.0000
    9942.0      62.4616      64.9085      62.2492      60.5116      63.8411      64.9097      59.4048      63.7588       0.0072      32.8708       8.3416      -0.0019       0.0326       4.7558       0.0320       2.6977    4145.0000
    9942.5      72.6586      76.3883      73.0653      70.5629      74.9459      75.8519      68.6072      73.3864       0.0070      30.6124       8.3438      -0.0016       0.0337       4.7655       0.0283       2.6981    4178.0000
    9943.0      87.7201      93.4732      89.7654      85.0709      93.0913      95.8536      92.8594      92.0215       0.0028      28.9248       8.3305       0.0001       0.0268       4.7323       0.0250       2.7053    4165.0000
    9943.5     108.4078     118.3166     113.4948     104.9542     127.5651     140.0645     137.5489     122.6367       0.0056      24.7499       8.3195      -0.0014       0.0188       4.7136       0.0197       2.7004    4137.0000
    9944.0     133.4057     150.6028     144.9127     130.0804     175.1698     201.2904     194.4538     167.4451       0.0097      21.9581       8.3361      -0.0030       0.0130       4.6767       0.0160       2.6934    4180.0000
    9944.5     160.3055     188.2426     182.1835     158.6689     197.0212     226.3184     225.4637     182.0728       0.0121      17.7874       8.3305      -0.0032       0.0103       4.6405       0.0122       2.6893    4124.0000
    9945.0     183.9406     224.7130     219.0371     179.3430     208.8766     260.1587     264.8577     201.3258       0.0079      18.5832       8.3305      -0.0009       0.0111       4.6077       0.0115       2.6965    4177.0000
    9945.5     198.6830     250.9647     245.5801     193.5895     228.7754     294.2405     299.2715     229.7236       0.0037      17.0801       8.3361       0.0009       0.0132       4.6051       0.0118       2.7037    4156.0000
    9946.0     200.4564     258.2212     251.3007     201.4770     264.0956     333.1115     326.1950     260.9734       0.0037      15.6593       8.3261       0.0006       0.0132       4.6203       0.0112       2.7037    4186.0000
    9946.5     189.5641     244.5315     234.2227     192.5083     251.9659     324.6911     292.7319     269.3314       0.0077      15.6571       8.3416      -0.0008       0.0070       4.6656       0.0100       2.6969    4184.0000
    9947.0     172.0069     218.6682     206.1031     176.0764     204.1949     256.0546     236.8394     207.1124       0.0112      18.1394       8.3350      -0.0017       0.0045       4.7292       0.0102       2.6908    4167.0000
    9947.5     153.6365     191.0336     179.8901     160.2293     156.7448     185.8540     185.8601     176.3397       0.0115      21.7483       8.3471      -0.0020       0.0119       4.8559       0.0114       2.6904    4253.0000
    9948.0     138.1165     167.0005     157.9053     145.6696     124.1282     139.1895     128.6473     131.8129       0.0053      23.0434       8.3394      -0.0020       0.0230       5.0744       0.0135       2.7010    4189.0000
    9948.5     125.4815     148.7146     141.1481     131.7152     126.6995     149.1447     142.2540     135.9400      -0.0032      22.0615       8.3416      -0.0025       0.0159       5.3610       0.0115       2.7154    4164.0000
    9949.0     113.9228     131.4557     125.7913     117.9526     135.8327     161.1464     153.8504     149.7098      -0.0133      19.6774       8.3482      -0.0010       0.0028       5.4889       0.0084       2.7327    4184.0000
    9949.5      98.7752     110.5195     106.4465      98.5128     144.0588     153.3322     144.8536     139.0881      -0.0138      16.5957       8.3416       0.0005      -0.0007       5.3746       0.0070       2.7336    4200.0000
    9950.0      82.1550      89.9979      86.7482      80.8301     106.4661     108.2247     106.5913      98.7612      -0.0107      18.4301       8.3659       0.0024       0.0036       5.0768       0.0099       2.7283    4172.0000
    9950.5      69.5364      75.6290      73.8970      68.8471      73.7108      74.5763      71.0328      66.4450      -0.0055      23.8525       8.3526       0.0027       0.0192       4.8352       0.0162       2.7193    4203.0000
    9951.0      59.7162      63.4564      61.5782      57.1619      51.3229      52.4858      53.3359      48.6665      -0.0056      32.6958       8.3836       0.0033       0.0344       4.7048       0.0253       2.7195    4201.0000
    9951.5      53.8850      56.9649      55.2124      52.0408      45.2099      46.9237      46.1727      43.5168      -0.0084      35.6844       8.3836       0.0041       0.0414       4.6704       0.0296       2.7244    4206.0000
    9952.0      51.8839      54.5919      52.9033      49.4446      50.4825      51.0178      49.2058      46.0672      -0.0106      36.9425       8.3637       0.0049       0.0328       4.6823       0.0293       2.7281    4240.0000
    9952.5      50.4533      52.5064      50.6052      47.8055      52.3854      52.8270      50.2004      47.1200      -0.0113      32.7737       8.3637       0.0044       0.0300       4.6654       0.0272       2.7293    4216.0000
    9953.0      48.5310      50.9013      49.3735      46.1624      60.1012      60.4216      58.0472      53.2172      -0.0096      31.3348       8.3802       0.0031       0.0240       4.6490       0.0259       2.7264    4220.0000
    9953.5      46.3551      48.5534      47.2753      43.7784      56.2487      59.5817      59.3621      54.1966      -0.0050      31.1473       8.3615       0.0006       0.0206       4.6380       0.0261       2.7186    4188.0000
    9954.0      43.2699      45.3907      44.4111      41.0721      42.7368      44.3964      43.3907      40.3197      -0.0020      34.3370       8.3570      -0.0006       0.0310       4.6447       0.0299       2.7133    4205.0000
    9954.5      40.8280      42.6457      41.8397      38.7828      35.0670      36.5707      35.4761      33.4955       0.0019      38.1763       8.3305      -0.0016       0.0395       4.6432       0.0357       2.7067    4227.0000
    9955.0      39.4950      41.1179      40.6090      37.9904      35.6071      36.8789      36.4143      34.4101       0.0022      39.2355       8.3471      -0.0010       0.0448       4.5985       0.0393       2.7062    4202.0000
    9955.5      39.3706      40.8054      40.6897      38.1036      37.6738      38.9434      38.7549      37.7767       0.0013      40.3822       8.3438       0.0000       0.0452       4.5603       0.0392       2.7078    4247.0000
    9956.0      39.7446      40.9815      40.8794      38.6968      41.6703      42.2258      42.0350      40.4501       0.0001      41.6535       8.3526       0.0007       0.0406       4.5705       0.0354       2.7099    4241.0000
    9956.5      40.1739      41.2652      40.9473      39.1308      45.7140      46.5535      47.0844      45.8749      -0.0026      41.5542       8.3582       0.0013       0.0333       4.6029       0.0329       2.7145    4246.0000
    9957.0      39.9777      40.8065      40.3249      39.1178      44.1499      45.0013      46.1740      43.6841      -0.0054      41.0648       8.3471       0.0018       0.0258       4.6187       0.0301       2.7193    4247.0000
