~VERSION INFORMATION
VERS.           2.0   :CWLS Log ASCII Standard - VERSION 2.0
WRAP.           NO    :One Line per depth step
PROD.  Schlumberger   :LAS Producer
PROG.  DLIS to ASCII 2.2                               :LAS Program name and version
CREA.        2008/02/27 08:04                          :LAS Creation date {YYYY/MM/DD hh:mm}
SOURCE.     Bakken_PNS_Final_Data.dlis  :DLIS File Name
FILE-ID.     Interpretation Chain - gf_user            :File Identification Number
#--------------------------------------------------
~WELL INFORMATION
#MNEM.UNIT      DATA             DESCRIPTION
#---- ------ --------------   -----------------------------
STRT .F        10539.0       :START DEPTH     
STOP .F         7660.0       :STOP DEPTH     
STEP .F           -0.5       :STEP     
NULL .          -999.25      :NULL VALUE
COMP .               :COMPANY
WELL .        Bakken            :WELL
FLD  .                                         :FIELD
LOC  .                                                 :LOCATION
CNTY .                                       :COUNTY
STAT .                                        :STATE
CTRY .        USA                                      :COUNTRY
API  .                                                 :API NUMBER
UWI  .                    :UNIQUE WELL ID
DATE .                                                 :LOG DATE
SRVC .        Schlumberger                             :SERVICE COMPANY
LATI .DEG     48.129                                   :LATITUDE
LONG .DEG     -102.505                                 :LONGITUDE
GDAT .                                                 :GeoDetic Datum
#-----------------------------------------------------------------------------
~PARAMETER INFORMATION
#MNEM.UNIT    VALUE                      DESCRIPTION
#---- -----   --------------------       ------------------------
RUN  .                                   :RUN NUMBER
PDAT .        GROUND LEVEL               :Permanent Datum
EPD  .F         2111.000000              :Elevation of Permanent Datum above Mean Sea Level
EPD  .F         2111.000000              :Elevation of tool zero above Mean Sea Level
LMF  .          KELLY BUSHING            :Logging Measured From (Name of Logging Elevation Reference)
APD  .F          18.000000               :Elevation of Depth Reference (LMF) above Permanent Datum
#-----------------------------------------------------------------------------
~CURVE INFORMATION
#MNEM.UNIT   API CODE                                  DESCRIPTION
#---- -----  --------                                  -----------------------
DEPT .F                                                :DEPTH (BOREHOLE) {F10.1}
MAXXENE_OVERALL.                                       :Overall estimate of maximum cross energy {F13.4}
MINXENE_OVERALL.                                       :Overall estimate of minimum cross energy {F13.4}
PR   .                                                 :Poisson's Ratio {F13.4}
VPVS .                                                 :Compressional to Shear Velocity Ratio {F13.4}
DTSM .US/F                                             :Delta-T Shear {F13.4}
DTCO .US/F                                             :Delta-T Compressional {F13.4}
HD2_PPC2.IN                                            :PPC2 Hole Diameter 2 {F13.4}
HD1_PPC2.IN                                            :PPC2 Hole Diameter 1 {F13.4}
HD2_PPC1.IN                                            :PPC1 Hole Diameter 2 {F13.4}
HD1_PPC1.IN                                            :PPC1 Hole Diameter 1 {F13.4}
GR_EDTC.GAPI                                           :Gamma Ray {F13.4}
BS   .IN                                               :Bit Size {F13.4}
AT90 .OHMM                                             :Array Induction Two Foot Resistivity A90 {F13.4}
AT60 .OHMM                                             :Array Induction Two Foot Resistivity A60 {F13.4}
AT30 .OHMM                                             :Array Induction Two Foot Resistivity A30 {F13.4}
AT20 .OHMM                                             :Array Induction Two Foot Resistivity A20 {F13.4}
AT10 .OHMM                                             :Array Induction Two Foot Resistivity A10 {F13.4}
RHOZ .G/C3                                             :HRDD Standard Resolution Formation Density {F13.4}
PEFZ .                                                 :HRDD Standard Resolution Formation Photoelectric Factor {F13.4}
NPOR .CFCF                                             :Enhanced Thermal Neutron Porosity in Selected Lithology {F13.4}
TDEP ..1IN                                             : {I11}
#-----------------------------------------------------------------------------
# 
#     DEPT    MAXXENE_OVER MINXENE_OVER     PR           VPVS         DTSM         DTCO       HD2_PPC2     HD1_PPC2     HD2_PPC1     HD1_PPC1     GR_EDTC        BS           AT90         AT60         AT30         AT20         AT10         RHOZ         PEFZ         NPOR         TDEP
#             ALL          ALL
~A  
# ...
    8045.0      11.1583       0.3492       0.3087       1.9010     104.7273      55.0909       9.0650       9.5554       9.0676       9.6621      33.4470       8.7500       9.8148       9.8326      10.3854      10.3962       9.8330       2.6419       4.3721       0.0231 1174104064
    8044.5      11.1566       0.3420       0.3151       1.9247     102.1818      53.0909       9.0822       9.4860       9.0548       9.4857      35.8622       8.7500      16.1330      16.1387      18.0115      18.7822      18.3841       2.6911       4.5127       0.0101 1174103040
    8044.0      11.1530       0.3415       0.3189       1.9394     104.7273      54.0000       9.0864       9.2427       9.0548       9.4505      26.5466       8.7500      26.3610      25.8497      28.2428      43.8710      37.0507       2.7760       4.8561       0.0058 1174102016
    8043.5      11.1849       0.3372       0.3289       1.9804     110.1818      55.6364       9.0824       9.1260       9.0580       9.4278      19.3213       8.7500      46.3360      45.8731      49.2291     100.3820      55.5051       2.8581       5.3042      -0.0102 1174100992
    8043.0      11.4192       0.3400       0.3173       1.9329     115.2727      59.6364       9.0782       9.1139       9.0419       9.3207       8.2806       8.7500     161.7274      90.8640     100.7028     199.1840      66.7286       2.8659       5.7725       0.0082 1174099968
    8042.5      11.4930       0.3432       0.2819       1.8146     117.4545      64.7273       9.0692       9.1027       9.3907       9.4399       6.9764       8.7500     175.5104    1008.8631    1950.0000     496.7275      79.1928       2.6836       6.1472       0.0229 1174098944
    8042.0      11.4459       0.3533       0.2688       1.7784     116.7273      65.6364       9.6066       9.4049       9.3238       9.3799       5.2513       8.7500     220.2303     963.0803    1950.0000     703.6072      84.8269       2.3768       6.2493      -0.0131 1174097920
    8041.5      11.3398       0.3581       0.2688       1.7784     116.7273      65.6364       9.3581       9.2888       9.3651       9.3809       5.0788       8.7500     233.1803     416.1639    1129.6588     885.9810      85.0544       2.1191       6.0190      -0.0341 1174096896
    8041.0      11.3402       0.3629       0.2840       1.8207     118.1818      64.9091       9.4535       9.2543       9.3750       9.3680       5.6948       8.7500     181.4504     234.0206     598.5560     619.2877      93.3832       2.0216       5.6240      -0.0371 1174095872
    8040.5      11.2788       0.2993       0.2828       1.8172     119.2727      65.6364       9.4367       9.1958       9.4515       9.3562       6.7280       8.7500     145.1718     193.1463     465.7961     491.7980      97.4872       2.0338       5.3387      -0.0394 1174094848
    8040.0      11.2512       0.2982       0.2667       1.7730     119.2727      67.2727       9.6977       9.2307       9.6044       9.3563       7.6159       8.7500     135.0274     164.7217     382.8945     393.1487     101.3985       2.0420       5.2320      -0.0445 1174093824
    8039.5      11.1941       0.2929       0.2407       1.7113     118.5455      69.2727       9.6064       9.3353       9.6070       9.4161       8.4765       8.7500     114.6462     147.3245     366.3533     273.3824     106.4712       2.0518       5.2127      -0.0470 1174092800
    8039.0      11.1776       0.2868       0.2183       1.6658     117.8182      70.7273       9.6361       9.3355       9.6171       9.4270       9.1685       8.7500     155.3941     268.2177     609.6854     320.0305     120.4706       2.0642       5.1965      -0.0419 1174091776
    8038.5      11.1191       0.2838       0.2020       1.6364     117.8182      72.0000       9.6585       9.4049       9.5689       9.5102       9.3157       8.7500     206.4147     294.3852     698.2333     452.8394     129.0294       2.0775       5.1562      -0.0380 1174090752
    8038.0      11.0025       0.2880       0.2077       1.6465     118.5455      72.0000       9.5281       9.5091       9.4771       9.6152       9.8362       8.7500     394.6037     594.3568    1166.5846     542.1794     134.1108       2.0869       5.1121      -0.0343 1174089728
    8037.5      10.8673       0.2991       0.2331       1.6951     119.2727      70.3636       9.4497       9.4513       9.3779       9.6277       9.6614       8.7500    1456.4349    1915.2208    1950.0000     617.4014     142.8090       2.0925       5.0606      -0.0348 1174088704
    8037.0      10.7513       0.3150       0.2546       1.7428     120.7273      69.2727       9.4628       9.4744       9.3367       9.6504       8.7972       8.7500    1950.0000    1950.0000    1950.0000     583.3718     154.5432       2.0952       5.0314      -0.0346 1174087680
    8036.5      10.6386       0.3350       0.2589       1.7533     121.4545      69.2727       9.4144       9.4514       9.3239       9.6036       8.6064       8.7500    1950.0000    1950.0000    1950.0000     448.0690     160.8789       2.0948       5.0573      -0.0378 1174086656
    8036.0      10.5863       0.3462       0.2652       1.7690     122.5455      69.2727       9.3317       9.3585       9.3367       9.5799       9.2988       8.7500    1950.0000    1860.1053    1699.0176     298.6398     147.0810       2.1025       5.1241      -0.0376 1174085632
    8035.5      10.5391       0.3535       0.2652       1.7690     122.5455      69.2727       9.4105       9.1842       9.3269       9.4513      12.0606       8.7500     772.4650     547.0245     421.4599     182.1319     117.9379       2.1257       5.2256      -0.0353 1174084608
    8035.0      10.4768       0.3798       0.2546       1.7428     120.7273      69.2727       9.2490       9.1605       9.3907       9.6394      13.8009       8.7500     581.1575     372.1284     260.5827     114.6840      78.6201       2.1586       5.2855      -0.0229 1174083584
    8034.5      10.1565       0.3804       0.2495       1.7309     119.2727      68.9091       9.2267       9.1842       9.4133       9.4977      15.2539       8.7500     338.4005     194.0975     153.8264      82.8008      58.0016       2.1804       5.3041      -0.0168 1174082560
    8034.0      10.1624       0.3843       0.2519       1.7366     117.4545      67.6364       9.4235       9.2888       9.3907       9.5102      14.3913       8.7500     391.5878     279.2758     179.3117      92.7452      57.8196       2.1557       5.2688      -0.0155 1174081536
    8033.5      10.0988       0.3806       0.2559       1.7459     117.4545      67.2727       9.4105       9.2191       9.3366       9.4152      11.1136       8.7500     690.0383     500.3134     317.7811     151.3430      70.2625       2.1076       5.2606      -0.0215 1174080512
    8033.0      10.0568       0.3735       0.2603       1.7568     118.1818      67.2727       9.4067       9.2071       9.3238       9.3326       7.7631       8.7500     997.7871     856.1092     713.5433     294.5367      97.0798       2.0643       5.2320      -0.0317 1174079488
    8032.5       9.8377       0.3530       0.2587       1.7527     118.5455      67.6364       9.4105       9.2074       9.3268       9.3219       6.2105       8.7500    1950.0000    1950.0000    1675.7765     545.3461     104.4852       2.0524       5.1992      -0.0376 1174078464
    8032.0       9.7133       0.3318       0.2592       1.7540     119.2727      68.0000       9.5024       9.1726       9.3012       9.3101       5.9441       8.7500    1950.0000    1950.0000    1950.0000     741.1989     115.0041       2.0522       5.1570      -0.0383 1174077440
    8031.5       9.7068       0.3182       0.2737       1.7914     121.8182      68.0000       9.6100       9.2195       9.5025       9.2972       6.9791       8.7500    1256.6459    1509.7526    1950.0000     664.6462     119.9270       2.0592       5.1218      -0.0359 1174076416
    8031.0       9.6845       0.3048       0.2697       1.7807     124.0000      69.6364       9.6064       9.2889       9.8457       9.5564       9.5668       8.7500    1408.6781    1912.5023    1570.2198     421.9178     121.7586       2.0725       5.1217      -0.0361 1174075392
