~VERSION INFORMATION
VERS.           2.0   :CWLS Log ASCII Standard - VERSION 2.0
WRAP.           NO    :One Line per depth step
PROD.  Schlumberger   :LAS Producer
PROG.  DLIS to ASCII 2.2                               :LAS Program name and version
CREA.        2008/02/27 08:04                          :LAS Creation date {YYYY/MM/DD hh:mm}
SOURCE.     Bakken_PNS_Final_Data.dlis  :DLIS File Name
FILE-ID.     Interpretation Chain - gf_user            :File Identification Number
#--------------------------------------------------
~WELL INFORMATION
#MNEM.UNIT      DATA             DESCRIPTION
#---- ------ --------------   -----------------------------
STRT .F        10539.0       :START DEPTH     
STOP .F         7660.0       :STOP DEPTH     
STEP .F           -0.5       :STEP     
NULL .          -999.25      :NULL VALUE
COMP .               :COMPANY
WELL .        Bakken            :WELL
FLD  .                                         :FIELD
LOC  .                                                 :LOCATION
CNTY .                                       :COUNTY
STAT .                                        :STATE
CTRY .        USA                                      :COUNTRY
API  .                                                 :API NUMBER
UWI  .                    :UNIQUE WELL ID
DATE .                                                 :LOG DATE
SRVC .        Schlumberger                             :SERVICE COMPANY
LATI .DEG     48.129                                   :LATITUDE
LONG .DEG     -102.505                                 :LONGITUDE
GDAT .                                                 :GeoDetic Datum
#-----------------------------------------------------------------------------
~PARAMETER INFORMATION
#MNEM.UNIT    VALUE                      DESCRIPTION
#---- -----   --------------------       ------------------------
RUN  .                                   :RUN NUMBER
PDAT .        GROUND LEVEL               :Permanent Datum
EPD  .F         2111.000000              :Elevation of Permanent Datum above Mean Sea Level
EPD  .F         2111.000000              :Elevation of tool zero above Mean Sea Level
LMF  .          KELLY BUSHING            :Logging Measured From (Name of Logging Elevation Reference)
APD  .F          18.000000               :Elevation of Depth Reference (LMF) above Permanent Datum
#-----------------------------------------------------------------------------
~CURVE INFORMATION
#MNEM.UNIT   API CODE                                  DESCRIPTION
#---- -----  --------                                  -----------------------
DEPT .F                                                :DEPTH (BOREHOLE) {F10.1}
MAXXENE_OVERALL.                                       :Overall estimate of maximum cross energy {F13.4}
MINXENE_OVERALL.                                       :Overall estimate of minimum cross energy {F13.4}
PR   .                                                 :Poisson's Ratio {F13.4}
VPVS .                                                 :Compressional to Shear Velocity Ratio {F13.4}
DTSM .US/F                                             :Delta-T Shear {F13.4}
DTCO .US/F                                             :Delta-T Compressional {F13.4}
HD2_PPC2.IN                                            :PPC2 Hole Diameter 2 {F13.4}
HD1_PPC2.IN                                            :PPC2 Hole Diameter 1 {F13.4}
HD2_PPC1.IN                                            :PPC1 Hole Diameter 2 {F13.4}
HD1_PPC1.IN                                            :PPC1 Hole Diameter 1 {F13.4}
GR_EDTC.GAPI                                           :Gamma Ray {F13.4}
BS   .IN                                               :Bit Size {F13.4}
AT90 .OHMM                                             :Array Induction Two Foot Resistivity A90 {F13.4}
AT60 .OHMM                                             :Array Induction Two Foot Resistivity A60 {F13.4}
AT30 .OHMM                                             :Array Induction Two Foot Resistivity A30 {F13.4}
AT20 .OHMM                                             :Array Induction Two Foot Resistivity A20 {F13.4}
AT10 .OHMM                                             :Array Induction Two Foot Resistivity A10 {F13.4}
RHOZ .G/C3                                             :HRDD Standard Resolution Formation Density {F13.4}
PEFZ .                                                 :HRDD Standard Resolution Formation Photoelectric Factor {F13.4}
NPOR .CFCF                                             :Enhanced Thermal Neutron Porosity in Selected Lithology {F13.4}
TDEP ..1IN                                             : {I11}
#-----------------------------------------------------------------------------
# 
#     DEPT    MAXXENE_OVER MINXENE_OVER     PR           VPVS         DTSM         DTCO       HD2_PPC2     HD1_PPC2     HD2_PPC1     HD1_PPC1     GR_EDTC        BS           AT90         AT60         AT30         AT20         AT10         RHOZ         PEFZ         NPOR         TDEP
#             ALL          ALL
~A  
# ...
    8436.5       9.9899       0.3271       0.2892       1.8364     126.5455      68.9091       9.1746       9.0327       9.3495       8.9300      55.5969       8.7500      13.7122      11.3414      10.3138       9.4688       8.0119       2.7399       4.0322       0.1148 1174655488
    8436.0      10.0465       0.3296       0.2652       1.7690     122.5455      69.2727       9.1746       9.0327       9.3623       8.9420      59.5503       8.7500      11.8039      10.8601       9.1764       8.0876       7.1565       2.6879       3.7890       0.2134 1174654976
    8435.5      10.1615       0.3268       0.2521       1.7370     115.2727      66.3636       9.1616       9.0561       9.3623       8.9300      60.6973       8.7500       8.8048       7.7906       6.6846       6.1513       6.1626       2.6508       3.5537       0.2367 1174654464
    8435.0      10.1690       0.3267       0.2791       1.8065     112.0000      62.0000       9.1575       9.0322       9.3623       8.9300      59.0790       8.7500       9.1805       8.0782       7.0464       6.7699       6.0581       2.6421       3.4066       0.1447 1174653952
    8434.5      10.2296       0.3219       0.2839       1.8204     110.5455      60.7273       9.1877       9.0444       9.3623       8.9064      63.5787       8.7500      12.2078      10.6479       8.3735       7.4972       6.7023       2.6471       3.3590       0.0950 1174653440
    8434.0      10.2341       0.3129       0.2715       1.7855     112.0000      62.7273       9.1877       9.0444       9.3367       8.9064      66.7093       8.7500      15.7891      14.1633      10.5878       8.5560       7.7375       2.6525       3.3834       0.0811 1174652928
    8433.5      10.2871       0.3032       0.2450       1.7207     112.0000      65.0909       9.1877       9.0444       9.3495       8.9064      68.2925       8.7500       8.9632       7.9730       7.3877       6.9289       6.2246       2.6523       3.4471       0.0878 1174652416
    8433.0      10.3100       0.2850       0.2485       1.7285     113.4545      65.6364       9.1705       9.0439       9.2983       8.9183      59.1209       8.7500       8.0137       7.5579       6.4637       6.2259       5.5844       2.6551       3.5341       0.1033 1174651904
    8432.5      10.3035       0.2708       0.2962       1.8584     114.5455      61.6364       9.1879       9.0561       9.2727       8.9302      49.2921       8.7500       5.7068       5.6820       5.0430       4.9052       4.3982       2.6632       3.6921       0.1231 1174651392
    8432.0      10.3698       0.2327       0.3137       1.9195     112.7273      58.7273       9.1612       9.0561       9.2216       8.9420      35.7432       8.7500       5.2990       5.3466       4.8231       4.6984       4.3154       2.6970       3.9309       0.1154 1174650880
    8431.5      10.2726       0.2139       0.3167       1.9306     111.2727      57.6364       9.1353       9.0211       9.1959       8.9420      32.4982       8.7500       7.3413       7.3042       6.9828       6.7183       5.9751       2.7531       4.2490       0.0808 1174650368
    8431.0      10.2354       0.2181       0.2889       1.8354     109.4545      59.6364       9.1614       9.0094       9.1959       8.9300      25.2478       8.7500      13.3554      13.3791      12.8365      11.6014       9.8759       2.8131       4.5114       0.0282 1174649856
    8430.5      10.2011       0.2223       0.2747       1.7942     106.1818      59.1819       9.1483       8.9977       9.1959       8.9182      24.0976       8.7500      10.7610      11.2513      10.5639       9.9386       9.1599       2.8466       4.6713       0.0332 1174649344
    8430.0      10.1636       0.2391       0.2818       1.8142     106.5455      58.7273       9.1351       8.9744       9.2087       8.9300      20.2994       8.7500       9.0826       9.4086       9.2386       8.9137       8.5440       2.8653       4.6784       0.0669 1174648832
    8429.5      10.1528       0.2564       0.3007       1.8730     107.2727      57.2727       9.1440       8.9854       9.2471       8.9300      24.4167       8.7500      10.9549      12.1471      12.0659      11.4283      10.7234       2.8765       4.6587       0.0421 1174648320
    8429.0      10.1458       0.2703       0.3007       1.8730     107.2727      57.2727       9.1746       8.9977       9.2471       8.9300      26.7164       8.7500      16.5006      17.3794      17.8516      16.8133      15.4492       2.8729       4.6262       0.0237 1174647808
    8428.5      10.1433       0.2776       0.2755       1.7963     105.8182      58.9091       9.1746       8.9744       9.2855       8.9419      29.1684       8.7500      12.0757      12.9528      12.6697      12.6234      12.6802       2.8509       4.5131       0.0446 1174647296
    8428.0      10.1137       0.2907       0.2467       1.7246     104.7273      60.7273       9.1746       9.0211       9.3111       8.9300      30.0589       8.7500       7.9805       8.2360       8.0332       7.8644       8.2423       2.8247       4.3805       0.0812 1174646784
    8427.5      10.1179       0.2967       0.2421       1.7143     104.7273      61.0909       9.1705       9.0205       9.3111       8.9538      30.0530       8.7500       6.4344       6.2707       6.2529       6.3919       6.3738       2.8216       4.2947       0.0925 1174646272
    8427.0      10.1131       0.3034       0.2802       1.8095     110.5455      61.0909       9.1879       9.0211       9.2855       8.9420      39.6757       8.7500       6.6809       6.8650       6.6554       6.7842       6.8430       2.8296       4.3909       0.0658 1174645760
    8426.5      10.0926       0.3085       0.2776       1.8023     116.0000      64.3636       9.2793       9.0094       9.2983       8.9420      44.0343       8.7500       6.4803       6.9852       7.1040       7.2000       7.0395       2.8393       4.5975       0.0615 1174645248
    8426.0      10.1988       0.3069       0.3067       1.8938     116.7273      61.6364       9.4376       9.5092       9.9975       9.9198      48.1710       8.7500       6.2235       6.8516       7.1645       7.3070       7.2977       2.8256       4.9528       0.0642 1174644736
    8425.5      10.4615       0.3040       0.2816       1.8136     116.7273      64.3636       9.4113       9.5207       9.9975       9.9082      47.4065       8.7500       6.0717       6.8525       7.2340       7.4438       7.3624       2.7759       5.2155       0.1072 1174644224
    8425.0      10.3426       0.3022       0.2698       1.7809     115.2727      64.7273       9.4113       9.5092       9.3367       9.0727      51.8459       8.7500       5.9295       6.7663       7.0615       7.2156       7.1942       2.7013       5.1763       0.1577 1174643712
    8424.5      10.3394       0.3026       0.2598       1.7554     117.4545      66.9091       9.2272       9.1260       9.2600       8.9539      61.9825       8.7500       5.8321       6.7445       7.0297       7.2184       6.9082       2.6341       4.6662       0.1719 1174643200
    8424.0      10.3595       0.2944       0.2644       1.7669     118.5455      67.0909       9.6717       9.1842       9.7697       9.8263      62.6174       8.7500       5.7372       6.6380       6.9510       6.9204       6.7551       2.6112       4.1490       0.1399 1174642688
    8423.5      10.3740       0.2848       0.2744       1.7933     116.7273      65.0909       9.3589       9.4976       9.7570       9.8028      64.3425       8.7500       5.4514       5.9937       6.2550       6.4790       6.4370       2.6065       3.9411       0.1179 1174642176
    8423.0      10.3298       0.2717       0.2782       1.8040     113.8182      63.0909       9.3851       9.4976       9.6427       9.7090      60.5558       8.7500       6.4363       7.0670       7.3814       7.4604       7.3749       2.6158       4.0611       0.1251 1174641664
    8422.5      10.2772       0.2591       0.2710       1.7843     111.2727      62.3636       9.3851       9.4976       9.2118       9.0028      61.2323       8.7500       9.1844      10.3909      10.6787      11.3682      10.2468       2.6205       4.1861       0.1003 1174641152
