~VERSION INFORMATION
VERS.           2.0   :CWLS Log ASCII Standard - VERSION 2.0
WRAP.           NO    :One Line per depth step
PROD.  Schlumberger   :LAS Producer
PROG.  DLIS to ASCII 15C0-309                          :LAS Program name and version
CREA.        2008/02/20 22:50                          :LAS Creation date {YYYY/MM/DD hh:mm}
DLIS_CREA.  2008-Feb-20	21:27			       :DLIS Creation date and time {YYYY-MMM-DD hh:mm}
SOURCE.     MAIN_AIT_TLD_MCFL_CNL_046PUP.DLIS          :DLIS File Name
FILE-ID.     AIT_TLD_MCFL_CNL_046PUP                   :File Identification Number
#--------------------------------------------------
~WELL INFORMATION
#MNEM.UNIT      DATA             DESCRIPTION
#---- ------ --------------   -----------------------------
STRT .F      7700.0          :START DEPTH     
STOP .F      10520.0         :STOP DEPTH     
STEP .F       0.5            :STEP     
NULL .          -999.25      :NULL VALUE
COMP .        FIDELITY EXPLORATION & PRODUCTION CO.      :COMPANY
WELL .        DEADWOOD CANYON RANCH 43-28H             :WELL
FLD  .        WILDCAT                                  :FIELD
LOC  .        NE SE                                    :LOCATION
CNTY .        MOUNTRAIL                                :COUNTY
STAT .        N. DAKOTA                                :STATE
CTRY .                                                 :COUNTRY
API  .        33-061-00581                             :API NUMBER
UWI  .        3306100581                               :UNIQUE WELL ID
DATE .        20-Feb-2008                              :LOG DATE {DD-MMM-YYYY}
SRVC .        Schlumberger                             :SERVICE COMPANY
LATI .DEG                                              :LATITUDE
LONG .DEG                                              :LONGITUDE
GDAT .                                                 :GeoDetic Datum
SECT .        28                                       :Section
RANG .        92W                                      :Range
TOWN .        154N                                     :Township
#-----------------------------------------------------------------------------
~PARAMETER INFORMATION
#MNEM.UNIT    VALUE                      DESCRIPTION
#---- -----   --------------------       ------------------------
RUN  .          ONE                      :RUN NUMBER
PDAT .        GROUND LEVEL               :Permanent Datum
EPD  .F         2111.000000              :Elevation of Permanent Datum above Mean Sea Level
LMF  .          KELLY BUSHING            :Logging Measured From (Name of Logging Elevation Reference)
APD  .F          18.000000               :Elevation of Depth Reference (LMF) above Permanent Datum
#-----------------------------------------------------------------------------
~CURVE INFORMATION
#MNEM.UNIT   API CODE                                  DESCRIPTION
#---- -----  --------                                  -----------------------
DEPT .F                                                :DEPTH (BOREHOLE) {F10.1}
AF20 .OHMM                                             :Array Induction Four Foot Resistivity A20 {F13.4}
AF30 .OHMM                                             :Array Induction Four Foot Resistivity A30 {F13.4}
AF60 .OHMM                                             :Array Induction Four Foot Resistivity A60 {F13.4}
AF90 .OHMM                                             :Array Induction Four Foot Resistivity A90 {F13.4}
AT20 .OHMM                                             :Array Induction Two Foot Resistivity A20 {F13.4}
AT30 .OHMM                                             :Array Induction Two Foot Resistivity A30 {F13.4}
AT60 .OHMM                                             :Array Induction Two Foot Resistivity A60 {F13.4}
AT90 .OHMM                                             :Array Induction Two Foot Resistivity A90 {F13.4}
DPHZ .CFCF                                             :HRDD Standard Resolution Density Porosity {F13.4}
GR_EDTC.GAPI                                           :Gamma Ray {F13.4}
HCAL .IN                                               :HRCC Cal. Caliper {F13.4}
HDRA .G/C3                                             :HRDD Density Correction {F13.4}
NPOR .CFCF                                             :Enhanced Thermal Neutron Porosity {F13.4}
PEFZ .                                                 :HRDD Standard Resolution Formation Photoelectric Factor {F13.4}
PXND_HILT.CFCF                                         :HILT Porosity CrossPlot {F13.4}
RHOZ .G/C3                                             :HRDD Standard Resolution Formation Density {F13.4}
TENS .LBF                                              :Cable Tension {F13.4}
#-----------------------------------------------------------------------------
# 
#     DEPT        AF20         AF30         AF60         AF90         AT20         AT30         AT60         AT90         DPHZ       GR_EDTC        HCAL         HDRA         NPOR         PEFZ      PXND_HILT       RHOZ         TENS
#
~A  
# ...
    7892.5       6.8350       6.7984       6.6657       6.4527       7.7093       7.8113       7.6398       7.4409      -0.0371      46.2234       8.4990      -0.0016       0.0555       3.8339       0.0498       2.7734    3550.0000
    7893.0       6.3856       6.3682       6.2540       6.0497       6.8733       6.9612       6.7491       6.6963      -0.0305      46.8392       8.4915      -0.0023       0.0623       3.8224       0.0536       2.7621    3554.0000
    7893.5       5.7740       5.7419       5.6420       5.4653       6.0079       6.0019       5.8002       5.7688      -0.0213      50.3340       8.4548      -0.0029       0.0680       3.8144       0.0596       2.7464    3540.0000
    7894.0       5.1765       5.1274       5.0400       4.8959       5.1861       5.1225       5.1129       4.9510      -0.0115      54.0060       8.4631      -0.0033       0.0772       3.8163       0.0675       2.7297    3562.0000
    7894.5       4.7070       4.6444       4.5747       4.4537       4.6432       4.5802       4.5415       4.4032      -0.0073      56.8750       8.4714      -0.0031       0.0950       3.8114       0.0749       2.7226    3522.0000
    7895.0       4.3419       4.2807       4.2091       4.0974       4.0552       3.9686       3.9051       3.8016      -0.0087      56.9205       8.4631      -0.0028       0.1018       3.8271       0.0803       2.7249    3528.0000
    7895.5       4.0804       4.0165       3.9509       3.8468       3.9173       3.8119       3.7466       3.6450      -0.0157      52.7230       8.4769      -0.0023       0.1001       3.8594       0.0790       2.7369    3527.0000
    7896.0       3.8473       3.7662       3.7118       3.6198       4.0358       4.0234       3.9441       3.8193      -0.0200      49.0196       8.4824      -0.0023       0.0892       3.9149       0.0787       2.7442    3489.0000
    7896.5       3.6149       3.5665       3.5183       3.4345       3.8444       3.8102       3.7206       3.6146      -0.0187      50.2030       8.4935      -0.0025       0.0843       3.9486       0.0801       2.7420    3532.0000
    7897.0       3.4136       3.3649       3.3196       3.2548       3.3091       3.2295       3.1656       3.0825      -0.0141      54.6504       8.5211      -0.0020       0.1106       3.9143       0.0893       2.7342    3509.0000
    7897.5       3.3072       3.2577       3.2279       3.1659       2.9795       2.9274       2.9115       2.8388      -0.0084      61.2814       8.5211      -0.0010       0.1394       3.8304       0.0986       2.7244    3513.0000
    7898.0       3.3127       3.2622       3.2422       3.1684       2.9873       2.9580       2.9578       2.8763      -0.0046      61.0473       8.5156      -0.0006       0.1352       3.7558       0.0982       2.7179    3528.0000
    7898.5       3.4545       3.4077       3.3874       3.3095       3.2018       3.1365       3.1681       3.0776      -0.0021      59.6724       8.5018      -0.0014       0.1229       3.7537       0.0957       2.7136    3486.0000
    7899.0       3.7865       3.7460       3.7259       3.6443       3.6060       3.5811       3.5669       3.4860      -0.0036      55.0452       8.4797      -0.0022       0.1136       3.8047       0.0885       2.7162    3516.0000
    7899.5       4.3061       4.2426       4.2217       4.1212       4.2855       4.2751       4.1801       4.0971      -0.0052      52.4361       8.4382      -0.0030       0.0810       3.8833       0.0759       2.7188    3526.0000
    7900.0       4.9265       4.8667       4.8454       4.7408       5.2498       5.1549       5.1079       5.0307      -0.0084      46.7179       8.4493      -0.0034       0.0690       3.9367       0.0658       2.7244    3526.0000
    7900.5       5.7073       5.6322       5.6385       5.4574       6.5995       6.4771       6.3922       6.2046      -0.0154      41.4348       8.4189      -0.0030       0.0657       3.9480       0.0584       2.7364    3519.0000
    7901.0       6.4047       6.3109       6.3042       6.0981       7.5192       7.3610       7.3970       7.1676      -0.0247      40.4513       8.3723      -0.0021       0.0609       3.9362       0.0558       2.7522    3554.0000
    7901.5       6.8940       6.7977       6.8058       6.5652       7.1587       7.1774       7.2603       7.0324      -0.0321      43.5086       8.3830      -0.0011       0.0665       3.9269       0.0542       2.7648    3542.0000
    7902.0       7.2258       7.1545       7.1699       6.8928       7.1806       7.2384       7.3076       7.1754      -0.0360      45.8541       8.3802      -0.0002       0.0696       3.9195       0.0546       2.7716    3539.0000
    7902.5       7.3908       7.3127       7.3250       7.0367       7.4461       7.4672       7.5522       7.4188      -0.0359      45.0982       8.3858      -0.0003       0.0695       3.9321       0.0557       2.7715    3550.0000
    7903.0       7.4539       7.3544       7.3558       7.0790       7.6670       7.5780       7.5810       7.5376      -0.0376      42.7853       8.4079       0.0002       0.0678       3.9241       0.0557       2.7743    3558.0000
    7903.5       7.4264       7.3020       7.2862       7.0357       7.6478       7.5008       7.4884       7.4712      -0.0409      41.4859       8.4217       0.0010       0.0656       3.9028       0.0538       2.7799    3550.0000
    7904.0       7.3383       7.1971       7.1542       6.9248       7.4581       7.3346       7.0680       7.2828      -0.0440      41.8129       8.4217       0.0019       0.0619       3.8789       0.0524       2.7853    3507.0000
    7904.5       7.2685       7.1193       7.0405       6.8242       7.0510       6.8728       6.7757       6.7757      -0.0449      44.0776       8.4603       0.0020       0.0691       3.8840       0.0526       2.7867    3519.0000
    7905.0       7.2775       7.1463       7.0175       6.8192       6.6369       6.4139       6.6116       6.4309      -0.0420      43.1737       8.4659       0.0007       0.0734       3.9390       0.0539       2.7818    3548.0000
    7905.5       7.4836       7.2551       7.1252       6.9491       6.9344       6.8669       6.7298       6.6758      -0.0404      42.1071       8.4803      -0.0005       0.0664       3.9986       0.0514       2.7792    3551.0000
    7906.0       7.7694       7.5765       7.3658       7.1347       7.8490       7.6693       7.4219       7.3242      -0.0381      37.3773       8.4741      -0.0018       0.0576       4.0482       0.0475       2.7751    3526.0000
    7906.5       7.7859       7.5843       7.2972       7.0736       9.5976       8.9730       8.4514       8.3281      -0.0344      35.9924       8.4631      -0.0024       0.0509       4.0651       0.0438       2.7688    3527.0000
    7907.0       7.2011       7.0351       6.7384       6.5813      10.8513      11.1190      10.5419      10.6406      -0.0248      32.9349       8.4533      -0.0040       0.0420       4.0913       0.0446       2.7524    3500.0000
    7907.5       6.2028       6.0994       5.8464       5.6834       7.7254       7.5230       6.9282       6.8467      -0.0207      35.9086       8.4382      -0.0029       0.0431       4.0610       0.0481       2.7454    3520.0000
    7908.0       5.2179       5.1590       4.9303       4.8384       5.0066       4.8601       4.6915       4.5528      -0.0174      40.7389       8.4272      -0.0021       0.0739       4.0257       0.0614       2.7398    3506.0000
    7908.5       4.4972       4.4621       4.2984       4.2275       3.9537       3.9818       3.8357       3.7798      -0.0180      46.5550       8.4300      -0.0005       0.1068       3.9601       0.0741       2.7408    3531.0000
    7909.0       4.0361       4.0087       3.8656       3.8122       3.8303       3.8127       3.6787       3.5796      -0.0142      47.7903       8.4272      -0.0012       0.0987       3.9260       0.0823       2.7343    3538.0000
    7909.5       3.7591       3.7258       3.5953       3.5720       3.6843       3.6512       3.5277       3.4393      -0.0106      50.5505       8.3968      -0.0018       0.1015       3.8899       0.0863       2.7281    3554.0000
