~VERSION INFORMATION
VERS.           2.0   :CWLS Log ASCII Standard - VERSION 2.0
WRAP.           NO    :One Line per depth step
PROD.  Schlumberger   :LAS Producer
PROG.  DLIS to ASCII 2.2                               :LAS Program name and version
CREA.        2008/02/27 08:04                          :LAS Creation date {YYYY/MM/DD hh:mm}
SOURCE.     Bakken_PNS_Final_Data.dlis  :DLIS File Name
FILE-ID.     Interpretation Chain - gf_user            :File Identification Number
#--------------------------------------------------
~WELL INFORMATION
#MNEM.UNIT      DATA             DESCRIPTION
#---- ------ --------------   -----------------------------
STRT .F        10539.0       :START DEPTH     
STOP .F         7660.0       :STOP DEPTH     
STEP .F           -0.5       :STEP     
NULL .          -999.25      :NULL VALUE
COMP .               :COMPANY
WELL .        Bakken            :WELL
FLD  .                                         :FIELD
LOC  .                                                 :LOCATION
CNTY .                                       :COUNTY
STAT .                                        :STATE
CTRY .        USA                                      :COUNTRY
API  .                                                 :API NUMBER
UWI  .                    :UNIQUE WELL ID
DATE .                                                 :LOG DATE
SRVC .        Schlumberger                             :SERVICE COMPANY
LATI .DEG     48.129                                   :LATITUDE
LONG .DEG     -102.505                                 :LONGITUDE
GDAT .                                                 :GeoDetic Datum
#-----------------------------------------------------------------------------
~PARAMETER INFORMATION
#MNEM.UNIT    VALUE                      DESCRIPTION
#---- -----   --------------------       ------------------------
RUN  .                                   :RUN NUMBER
PDAT .        GROUND LEVEL               :Permanent Datum
EPD  .F         2111.000000              :Elevation of Permanent Datum above Mean Sea Level
EPD  .F         2111.000000              :Elevation of tool zero above Mean Sea Level
LMF  .          KELLY BUSHING            :Logging Measured From (Name of Logging Elevation Reference)
APD  .F          18.000000               :Elevation of Depth Reference (LMF) above Permanent Datum
#-----------------------------------------------------------------------------
~CURVE INFORMATION
#MNEM.UNIT   API CODE                                  DESCRIPTION
#---- -----  --------                                  -----------------------
DEPT .F                                                :DEPTH (BOREHOLE) {F10.1}
MAXXENE_OVERALL.                                       :Overall estimate of maximum cross energy {F13.4}
MINXENE_OVERALL.                                       :Overall estimate of minimum cross energy {F13.4}
PR   .                                                 :Poisson's Ratio {F13.4}
VPVS .                                                 :Compressional to Shear Velocity Ratio {F13.4}
DTSM .US/F                                             :Delta-T Shear {F13.4}
DTCO .US/F                                             :Delta-T Compressional {F13.4}
HD2_PPC2.IN                                            :PPC2 Hole Diameter 2 {F13.4}
HD1_PPC2.IN                                            :PPC2 Hole Diameter 1 {F13.4}
HD2_PPC1.IN                                            :PPC1 Hole Diameter 2 {F13.4}
HD1_PPC1.IN                                            :PPC1 Hole Diameter 1 {F13.4}
GR_EDTC.GAPI                                           :Gamma Ray {F13.4}
BS   .IN                                               :Bit Size {F13.4}
AT90 .OHMM                                             :Array Induction Two Foot Resistivity A90 {F13.4}
AT60 .OHMM                                             :Array Induction Two Foot Resistivity A60 {F13.4}
AT30 .OHMM                                             :Array Induction Two Foot Resistivity A30 {F13.4}
AT20 .OHMM                                             :Array Induction Two Foot Resistivity A20 {F13.4}
AT10 .OHMM                                             :Array Induction Two Foot Resistivity A10 {F13.4}
RHOZ .G/C3                                             :HRDD Standard Resolution Formation Density {F13.4}
PEFZ .                                                 :HRDD Standard Resolution Formation Photoelectric Factor {F13.4}
NPOR .CFCF                                             :Enhanced Thermal Neutron Porosity in Selected Lithology {F13.4}
TDEP ..1IN                                             : {I11}
#-----------------------------------------------------------------------------
# 
#     DEPT    MAXXENE_OVER MINXENE_OVER     PR           VPVS         DTSM         DTCO       HD2_PPC2     HD1_PPC2     HD2_PPC1     HD1_PPC1     GR_EDTC        BS           AT90         AT60         AT30         AT20         AT10         RHOZ         PEFZ         NPOR         TDEP
#             ALL          ALL
~A  
# ...
    8813.5       9.4397       0.7174       0.2954       1.8556      93.4545      50.3636       9.0650       8.8801       9.0676       8.9302      15.3806       8.7500     212.6624      35.3943      37.2568      54.0829      78.8041       2.6858       5.5693       0.0068 1175041536
    8813.0       9.4299       0.7565       0.2911       1.8423      93.4545      50.7273       9.0915       8.8567       9.0547       8.9302      13.0122       8.7500      99.7872      31.2131      39.8408      40.8420     111.1036       2.6935       5.4406       0.0052 1175041024
    8812.5       9.4306       0.7864       0.2765       1.7993      91.2727      50.7273       9.0957       8.8574       9.0661       8.9302      11.9822       8.7500      57.9686      32.8932      36.2371      40.3079     114.6268       2.6970       5.3228       0.0032 1175040512
    8812.0       9.4470       0.8191       0.2765       1.7993      91.2727      50.7273       9.0782       8.8684       9.0547       8.9064      12.1643       8.7500      33.0009      25.3849      27.9630      37.3052      82.7037       2.7022       5.2293       0.0014 1175040000
    8811.5       9.4747       0.8469       0.3061       1.8917      95.2727      50.3636       9.0782       8.8684       9.0676       8.8945      15.2669       8.7500      18.0578      17.0689      22.1836      22.9832      61.2734       2.7017       5.2528       0.0018 1175039488
    8811.0       9.5065       0.8494       0.3285       1.9787     101.4545      51.2727       9.0915       8.8567       9.0547       8.8945      20.3990       8.7500       8.4525       9.2694       9.9021       9.6244      46.5182       2.7098       5.3047       0.0122 1175038976
    8810.5       9.5374       0.8382       0.3192       1.9404     106.5455      54.9091       9.0915       8.8684       9.0418       8.8826      28.7615       8.7500       3.8975       4.3373       4.7995       5.0416      26.5815       2.7112       5.3396       0.0113 1175038464
    8810.0       9.5498       0.8177       0.3057       1.8902     112.7273      59.6364       9.1483       8.9510       9.1189       8.9421      29.8487       8.7500       2.4197       2.8451       3.3201       3.8815      12.6300       2.7028       5.1566       0.0041 1175037952
    8809.5       9.5550       0.8034       0.2612       1.7589     116.7273      66.3636       9.2795       8.9276       9.1189       9.1673      29.0262       8.7500       1.5581       1.8695       2.1718       2.3686       4.9085       2.6573       4.7222       0.0237 1175037440
    8809.0       9.5904       0.7733       0.2469       1.7249     118.5455      68.7273       9.3544       8.9269       9.0933       9.2854      23.5081       8.7500       0.9364       1.0723       1.2071       1.3096       2.1826       2.5834       4.2181       0.1215 1175036928
    8808.5       9.6180       0.7398       0.2515       1.7354     119.2727      68.7273       9.3019       8.9743       9.1061       9.3209      23.8723       8.7500       0.6584       0.7479       0.8253       0.8930       1.4575       2.5201       3.7963       0.2573 1175036416
    8808.0       9.6380       0.7185       0.2551       1.7441     121.4545      69.6364       9.2099       8.9737       9.0933       9.2736      22.4895       8.7500       0.5764       0.6808       0.7655       0.8481       1.2869       2.4888       3.5709       0.2540 1175035904
    8807.5       9.6682       0.7048       0.2503       1.7326     122.5455      70.7273       9.1355       9.0677       9.1831       9.2263      20.4225       8.7500       0.5407       0.6434       0.7638       0.8684       1.2584       2.4898       3.4468       0.2405 1175035392
    8807.0       9.6957       0.6999       0.2570       1.7487     124.0000      70.9091       9.1222       9.2307       9.2728       9.1200      19.5118       8.7500       0.4903       0.5920       0.7260       0.8457       1.2198       2.4937       3.3858       0.2501 1175034880
    8806.5       9.7246       0.6839       0.2550       1.7437     126.1818      72.3636       9.0785       9.1372       9.3240       9.1081      20.8946       8.7500       0.4532       0.5486       0.6730       0.7847       1.1914       2.5008       3.3761       0.2557 1175034368
    8806.0       9.7779       0.6729       0.2478       1.7270     126.5455      73.2727       9.1090       9.0677       9.3111       9.0132      23.3944       8.7500       0.4301       0.5212       0.6436       0.7552       1.1899       2.5035       3.3610       0.2629 1175033856
    8805.5       9.7737       0.6573       0.3281       1.9769     124.7273      63.0909       9.1181       8.9970       9.2215       8.9657      26.9923       8.7500       0.4244       0.5136       0.6414       0.7744       1.1993       2.5009       3.3871       0.2529 1175033344
    8805.0       9.7776       0.6427       0.3132       1.9174     118.1818      61.6364       9.1355       8.9742       9.1445       8.9302      25.4397       8.7500       0.4352       0.5254       0.6597       0.8152       1.2252       2.4954       3.4054       0.2504 1175032832
    8804.5       9.7739       0.6276       0.3000       1.8708     110.5455      59.0909       9.2009       8.8925       9.0932       8.8945      23.8024       8.7500       0.4523       0.5381       0.6828       0.8769       1.2570       2.4839       3.5450       0.2637 1175032320
    8804.0       9.7878       0.6201       0.2886       1.8344     104.7273      57.0909       9.1575       8.8918       9.0804       8.8826      20.9299       8.7500       0.5116       0.5993       0.7672       0.9910       1.3455       2.4779       3.7255       0.2818 1175031808
    8803.5       9.8207       0.6262       0.2758       1.7974     100.0000      55.6364       9.0302       8.8808       9.0804       8.8826      22.0338       8.7500       0.5946       0.6810       0.8836       1.2858       1.7362       2.4883       3.8855       0.2619 1175031296
    8803.0       9.8668       0.6479       0.2586       1.7525      95.2727      54.3636       9.0392       8.8918       9.0676       8.8826      23.5832       8.7500       0.7423       0.8206       1.1094       1.5106       2.5894       2.5334       3.9142       0.2108 1175030784
    8802.5       9.9144       0.6730       0.2665       1.7724      93.4545      52.7273       9.0826       8.8691       9.0676       8.8826      24.7348       8.7500       0.9722       0.9948       1.4066       2.0946       4.0577       2.6025       3.9136       0.1701 1175030272
    8802.0       9.9745       0.6922       0.2798       1.8085      92.7273      51.2727       9.0915       8.8567       9.0418       8.8945      21.8206       8.7500       1.4448       1.3953       2.1156       3.3553       9.6185       2.6726       4.0159       0.1368 1175029760
    8801.5      10.0050       0.6838       0.2908       1.8412      92.7273      50.3636       9.0785       8.8684       9.0547       8.8945      18.5480       8.7500       2.0569       1.8763       2.9847       5.3855      31.5422       2.7135       4.2488       0.0918 1175029248
    8801.0       9.9995       0.6541       0.3435       2.0482      92.7273      45.2727       9.0915       8.8567       9.0418       8.9421      13.0251       8.7500       3.2742       2.6647       4.4857       8.0734      53.5490       2.7266       4.5772       0.0375 1175028736
    8800.5       9.9717       0.6408       0.3244       1.9615      92.7273      47.2727       9.0785       8.8567       9.0291       8.9777      14.6628       8.7500       6.5382       5.1172      10.3243      27.8040      69.3222       2.7215       4.8908       0.0021 1175028224
    8800.0       9.9410       0.6337       0.3053       1.8889      92.7273      49.0909       9.0782       8.8567       9.0291       9.0369      16.0206       8.7500      13.8739       8.1414      16.6264      35.3258     191.9646       2.7226       5.1246      -0.0047 1175027712
    8799.5       9.9608       0.6225       0.2950       1.8545      92.7273      50.0000       9.0785       8.8567       9.0548       9.0607      19.1284       8.7500      35.6866      14.9428      31.7438      78.5621     761.0530       2.7250       5.2382       0.0017 1175027200
