~VERSION INFORMATION
VERS.           2.0   :CWLS Log ASCII Standard - VERSION 2.0
WRAP.           NO    :One Line per depth step
PROD.  Schlumberger   :LAS Producer
PROG.  DLIS to ASCII 2.2                               :LAS Program name and version
CREA.        2008/02/27 08:04                          :LAS Creation date {YYYY/MM/DD hh:mm}
SOURCE.     Bakken_PNS_Final_Data.dlis  :DLIS File Name
FILE-ID.     Interpretation Chain - gf_user            :File Identification Number
#--------------------------------------------------
~WELL INFORMATION
#MNEM.UNIT      DATA             DESCRIPTION
#---- ------ --------------   -----------------------------
STRT .F        10539.0       :START DEPTH     
STOP .F         7660.0       :STOP DEPTH     
STEP .F           -0.5       :STEP     
NULL .          -999.25      :NULL VALUE
COMP .               :COMPANY
WELL .        Bakken            :WELL
FLD  .                                         :FIELD
LOC  .                                                 :LOCATION
CNTY .                                       :COUNTY
STAT .                                        :STATE
CTRY .        USA                                      :COUNTRY
API  .                                                 :API NUMBER
UWI  .                    :UNIQUE WELL ID
DATE .                                                 :LOG DATE
SRVC .        Schlumberger                             :SERVICE COMPANY
LATI .DEG     48.129                                   :LATITUDE
LONG .DEG     -102.505                                 :LONGITUDE
GDAT .                                                 :GeoDetic Datum
#-----------------------------------------------------------------------------
~PARAMETER INFORMATION
#MNEM.UNIT    VALUE                      DESCRIPTION
#---- -----   --------------------       ------------------------
RUN  .                                   :RUN NUMBER
PDAT .        GROUND LEVEL               :Permanent Datum
EPD  .F         2111.000000              :Elevation of Permanent Datum above Mean Sea Level
EPD  .F         2111.000000              :Elevation of tool zero above Mean Sea Level
LMF  .          KELLY BUSHING            :Logging Measured From (Name of Logging Elevation Reference)
APD  .F          18.000000               :Elevation of Depth Reference (LMF) above Permanent Datum
#-----------------------------------------------------------------------------
~CURVE INFORMATION
#MNEM.UNIT   API CODE                                  DESCRIPTION
#---- -----  --------                                  -----------------------
DEPT .F                                                :DEPTH (BOREHOLE) {F10.1}
MAXXENE_OVERALL.                                       :Overall estimate of maximum cross energy {F13.4}
MINXENE_OVERALL.                                       :Overall estimate of minimum cross energy {F13.4}
PR   .                                                 :Poisson's Ratio {F13.4}
VPVS .                                                 :Compressional to Shear Velocity Ratio {F13.4}
DTSM .US/F                                             :Delta-T Shear {F13.4}
DTCO .US/F                                             :Delta-T Compressional {F13.4}
HD2_PPC2.IN                                            :PPC2 Hole Diameter 2 {F13.4}
HD1_PPC2.IN                                            :PPC2 Hole Diameter 1 {F13.4}
HD2_PPC1.IN                                            :PPC1 Hole Diameter 2 {F13.4}
HD1_PPC1.IN                                            :PPC1 Hole Diameter 1 {F13.4}
GR_EDTC.GAPI                                           :Gamma Ray {F13.4}
BS   .IN                                               :Bit Size {F13.4}
AT90 .OHMM                                             :Array Induction Two Foot Resistivity A90 {F13.4}
AT60 .OHMM                                             :Array Induction Two Foot Resistivity A60 {F13.4}
AT30 .OHMM                                             :Array Induction Two Foot Resistivity A30 {F13.4}
AT20 .OHMM                                             :Array Induction Two Foot Resistivity A20 {F13.4}
AT10 .OHMM                                             :Array Induction Two Foot Resistivity A10 {F13.4}
RHOZ .G/C3                                             :HRDD Standard Resolution Formation Density {F13.4}
PEFZ .                                                 :HRDD Standard Resolution Formation Photoelectric Factor {F13.4}
NPOR .CFCF                                             :Enhanced Thermal Neutron Porosity in Selected Lithology {F13.4}
TDEP ..1IN                                             : {I11}
#-----------------------------------------------------------------------------
# 
#     DEPT    MAXXENE_OVER MINXENE_OVER     PR           VPVS         DTSM         DTCO       HD2_PPC2     HD1_PPC2     HD2_PPC1     HD1_PPC1     GR_EDTC        BS           AT90         AT60         AT30         AT20         AT10         RHOZ         PEFZ         NPOR         TDEP
#             ALL          ALL
~A  
# ...
    7856.5       9.7076       0.2042       0.2886       1.8344     100.7273      54.9091       9.0826       9.1144       9.0837       9.0973      20.0666       8.7500      83.9110      84.3980      78.2151      68.2812      49.7704       2.6992       5.2649       0.0581 1173718016
    7856.0       9.7081       0.2291       0.2842       1.8212     100.0000      54.9091       9.0957       9.0910       9.0933       9.0973      19.6663       8.7500     182.1703     188.4069     195.9616     155.0701      83.7995       2.6271       5.1727       0.0332 1173716992
    7855.5       9.7105       0.2554       0.2842       1.8212     100.0000      54.9091       9.0915       9.1022       9.0965       9.0855      17.2186       8.7500     184.6750     232.6821     209.1090     433.0802     127.2763       2.5772       5.1102       0.0287 1173715968
    7855.0       9.7062       0.2730       0.2862       1.8272     100.0000      54.7273       9.0957       9.0910       9.0933       9.0960      18.0812       8.7500     365.1307     304.7617     332.3405     695.7977     133.8383       2.5666       5.0790       0.0264 1173714944
    7854.5       9.7120       0.2889       0.2858       1.8261      99.2727      54.3636       9.1090       9.1027       9.1093       9.1210      17.0492       8.7500     280.4491     507.0844     568.4340     704.0510     159.4508       2.5713       5.0513       0.0278 1173713920
    7854.0       9.7288       0.3029       0.2899       1.8384      99.2727      54.0000       9.1090       9.0910       9.0965       9.1446      14.6630       8.7500     314.9512     539.8320     696.6085     432.0934     150.8108       2.5725       5.0563       0.0322 1173712896
    7853.5       9.7501       0.3141       0.2978       1.8635      99.2727      53.2727       9.1220       9.1144       9.0965       9.1683      12.2478       8.7500     290.1867     523.0225     624.7696     328.4740     158.0372       2.5708       5.0632       0.0237 1173711872
    7853.0       9.7735       0.3220       0.2955       1.8562      98.5455      53.0909       9.1090       9.1260       9.1190       9.1671      12.0455       8.7500     374.4700     682.1622     717.7935     354.8082     142.9394       2.5714       5.0580       0.0227 1173710848
    7852.5       9.7849       0.3294       0.2912       1.8425      97.8182      53.0909       9.1090       9.1144       9.0965       9.1683      11.0141       8.7500     491.8952     793.9568     894.0110     412.5246     137.4592       2.5781       5.0546       0.0171 1173709824
    7852.0       9.8105       0.3330       0.2952       1.8552      97.8182      52.7273       9.1090       9.1260       9.0965       9.1683      11.7042       8.7500     621.6454     910.8233     945.2027     466.5435     136.7781       2.5842       5.0295       0.0119 1173708800
    7851.5       9.8331       0.3333       0.2952       1.8552      97.8182      52.7273       9.0957       9.1260       9.1078       9.1683      10.6957       8.7500    1706.1377    1806.5544    1830.9863     568.5317     134.8823       2.5863       5.0386       0.0088 1173707776
    7851.0       9.8657       0.3319       0.2952       1.8552      97.8182      52.7273       9.0999       9.1381       9.0933       9.1671      11.2133       8.7500    1219.9244    1606.8771    1237.8026     563.4830     126.3433       2.5875       5.0327       0.0088 1173706752
    7850.5       9.8847       0.3283       0.2931       1.8483      97.4545      52.7273       9.0999       9.1381       9.0965       9.1683      11.8161       8.7500     467.1659     456.9792     361.0808     339.8571     110.2310       2.5853       5.0833       0.0132 1173705728
    7850.0       9.9032       0.3235       0.2931       1.8483      97.4545      52.7273       9.0999       9.1148       9.0805       9.1553      15.7839       8.7500     255.7110     254.4377     214.9010     219.0564      88.3756       2.5836       5.1089       0.0182 1173704704
    7849.5       9.9279       0.3181       0.2931       1.8483      97.4545      52.7273       9.0957       9.1144       9.0837       9.1683      16.9914       8.7500     170.8643     171.5898     161.6180     193.0424      68.0099       2.5831       5.1035       0.0189 1173703680
    7849.0       9.9318       0.3118       0.2910       1.8419      97.4545      52.9091       9.0785       9.0327       9.0693       9.0855      19.1162       8.7500     192.3629     197.4416     138.7467     115.0943      57.3214       2.5896       5.0663       0.0124 1173702656
    7848.5       9.9356       0.3054       0.2854       1.8249      98.5455      54.0000       9.0957       8.9977       9.0708       9.0618      16.7011       8.7500      74.8132      77.6204      64.6571      65.4352      41.4806       2.6058       5.0029       0.0004 1173701632
    7848.0       9.9460       0.2993       0.2858       1.8261      99.2727      54.3636       9.0957       8.9977       9.0708       9.0381      17.5636       8.7500      60.5847      51.7116      48.4389      51.9097      35.1067       2.6197       4.9023       0.0148 1173700608
    7847.5       9.9517       0.2882       0.2902       1.8395     100.0000      54.3636       9.0826       8.9977       9.0676       9.0131      14.4587       8.7500      44.9885      37.1712      37.5800      34.5346      28.5329       2.6281       4.7483       0.0502 1173699584
    7847.0       9.9557       0.2702       0.2983       1.8653     100.7273      54.0000       9.0826       8.9977       9.0675       9.0249      14.8037       8.7500      42.6141      31.1803      29.0928      25.3239      22.1101       2.6294       4.6079       0.0490 1173698560
    7846.5       9.9577       0.2523       0.2983       1.8653     100.7273      54.0000       9.1264       9.0449       9.0804       9.0499      11.3535       8.7500      53.1292      37.6282      35.9460      30.3266      25.7336       2.6267       4.5593       0.0299 1173697536
    7846.0       9.9518       0.2158       0.2945       1.8528     100.7273      54.3636       9.1222       9.0794       9.0964       9.0736       9.6607       8.7500      55.7913      42.8055      44.7708      36.0406      32.6082       2.6233       4.5630       0.0472 1173696512
    7845.5       9.9446       0.1864       0.2906       1.8405     100.7273      54.7273       9.1394       9.1032       9.1189       9.1078       9.4236       8.7500      60.1882      52.2039      51.5487      41.5578      33.0374       2.6006       4.6718       0.0436 1173695488
    7845.0       9.9415       0.1628       0.2906       1.8405     100.7273      54.7273       9.1485       9.1377       9.1220       9.1327       9.9411       8.7500      68.6790      66.0695      60.5895      50.0394      36.4717       2.5797       4.7891       0.0258 1173694464
    7844.5       9.9413       0.1477       0.2862       1.8272     100.0000      54.7273       9.1353       9.1726       9.1349       9.1919      11.8388       8.7500      96.8648     100.9075      90.0715      57.8808      44.3069       2.5592       4.9227       0.0159 1173693440
    7844.0       9.9352       0.1356       0.2862       1.8272     100.0000      54.7273       9.1396       9.1614       9.1446       9.2617      10.3507       8.7500     124.0358     151.9783     128.2301      73.0247      56.8304       2.5567       5.0398       0.0117 1173692416
    7843.5       9.9361       0.1256       0.2862       1.8272     100.0000      54.7273       9.1222       9.2308       9.1317       9.2852       9.2047       8.7500     152.4304     258.1624     202.1059     107.0111      68.3735       2.5526       5.1106       0.0100 1173691392
    7843.0       9.9338       0.1211       0.2862       1.8272     100.0000      54.7273       9.1222       9.3005       9.1349       9.3453       8.3421       8.7500     154.6864     659.5623     622.4380     203.9110     112.2891       2.5491       5.1411       0.0060 1173690368
    7842.5       9.9223       0.1237       0.2902       1.8395     100.0000      54.3636       9.1264       9.3124       9.1332       9.3443       8.3398       8.7500     256.9367    1950.0000    1794.9955     339.7869     141.7707       2.5404       5.0764       0.0063 1173689344
