~VERSION INFORMATION
VERS.           2.0   :CWLS Log ASCII Standard - VERSION 2.0
WRAP.           NO    :One Line per depth step
PROD.  Schlumberger   :LAS Producer
PROG.  DLIS to ASCII 15C0-309                          :LAS Program name and version
CREA.        2008/02/20 22:50                          :LAS Creation date {YYYY/MM/DD hh:mm}
DLIS_CREA.  2008-Feb-20	21:27			       :DLIS Creation date and time {YYYY-MMM-DD hh:mm}
SOURCE.     MAIN_AIT_TLD_MCFL_CNL_046PUP.DLIS          :DLIS File Name
FILE-ID.     AIT_TLD_MCFL_CNL_046PUP                   :File Identification Number
#--------------------------------------------------
~WELL INFORMATION
#MNEM.UNIT      DATA             DESCRIPTION
#---- ------ --------------   -----------------------------
STRT .F      7700.0          :START DEPTH     
STOP .F      10520.0         :STOP DEPTH     
STEP .F       0.5            :STEP     
NULL .          -999.25      :NULL VALUE
COMP .        FIDELITY EXPLORATION & PRODUCTION CO.      :COMPANY
WELL .        DEADWOOD CANYON RANCH 43-28H             :WELL
FLD  .        WILDCAT                                  :FIELD
LOC  .        NE SE                                    :LOCATION
CNTY .        MOUNTRAIL                                :COUNTY
STAT .        N. DAKOTA                                :STATE
CTRY .                                                 :COUNTRY
API  .        33-061-00581                             :API NUMBER
UWI  .        3306100581                               :UNIQUE WELL ID
DATE .        20-Feb-2008                              :LOG DATE {DD-MMM-YYYY}
SRVC .        Schlumberger                             :SERVICE COMPANY
LATI .DEG                                              :LATITUDE
LONG .DEG                                              :LONGITUDE
GDAT .                                                 :GeoDetic Datum
SECT .        28                                       :Section
RANG .        92W                                      :Range
TOWN .        154N                                     :Township
#-----------------------------------------------------------------------------
~PARAMETER INFORMATION
#MNEM.UNIT    VALUE                      DESCRIPTION
#---- -----   --------------------       ------------------------
RUN  .          ONE                      :RUN NUMBER
PDAT .        GROUND LEVEL               :Permanent Datum
EPD  .F         2111.000000              :Elevation of Permanent Datum above Mean Sea Level
LMF  .          KELLY BUSHING            :Logging Measured From (Name of Logging Elevation Reference)
APD  .F          18.000000               :Elevation of Depth Reference (LMF) above Permanent Datum
#-----------------------------------------------------------------------------
~CURVE INFORMATION
#MNEM.UNIT   API CODE                                  DESCRIPTION
#---- -----  --------                                  -----------------------
DEPT .F                                                :DEPTH (BOREHOLE) {F10.1}
AF20 .OHMM                                             :Array Induction Four Foot Resistivity A20 {F13.4}
AF30 .OHMM                                             :Array Induction Four Foot Resistivity A30 {F13.4}
AF60 .OHMM                                             :Array Induction Four Foot Resistivity A60 {F13.4}
AF90 .OHMM                                             :Array Induction Four Foot Resistivity A90 {F13.4}
AT20 .OHMM                                             :Array Induction Two Foot Resistivity A20 {F13.4}
AT30 .OHMM                                             :Array Induction Two Foot Resistivity A30 {F13.4}
AT60 .OHMM                                             :Array Induction Two Foot Resistivity A60 {F13.4}
AT90 .OHMM                                             :Array Induction Two Foot Resistivity A90 {F13.4}
DPHZ .CFCF                                             :HRDD Standard Resolution Density Porosity {F13.4}
GR_EDTC.GAPI                                           :Gamma Ray {F13.4}
HCAL .IN                                               :HRCC Cal. Caliper {F13.4}
HDRA .G/C3                                             :HRDD Density Correction {F13.4}
NPOR .CFCF                                             :Enhanced Thermal Neutron Porosity {F13.4}
PEFZ .                                                 :HRDD Standard Resolution Formation Photoelectric Factor {F13.4}
PXND_HILT.CFCF                                         :HILT Porosity CrossPlot {F13.4}
RHOZ .G/C3                                             :HRDD Standard Resolution Formation Density {F13.4}
TENS .LBF                                              :Cable Tension {F13.4}
#-----------------------------------------------------------------------------
# 
#     DEPT        AF20         AF30         AF60         AF90         AT20         AT30         AT60         AT90         DPHZ       GR_EDTC        HCAL         HDRA         NPOR         PEFZ      PXND_HILT       RHOZ         TENS
#
~A  
# ...
    9380.0      57.8982      60.9422      59.6038      55.6265      78.7690      77.4312      75.2413      69.1656       0.0084      22.9682       8.3305       0.0023       0.0092       4.6941       0.0180       2.6957    3972.0000
    9380.5      50.4513      52.8904      51.6222      48.5726      51.1233      51.7623      51.0830      47.3204       0.0046      28.8727       8.3582       0.0020       0.0288       4.5829       0.0227       2.7022    4048.0000
    9381.0      44.3852      46.1089      45.0746      42.9763      37.5646      38.8710      38.3317      36.3741       0.0043      31.8302       8.3895       0.0007       0.0362       4.4902       0.0297       2.7027    4000.0000
    9381.5      41.3236      42.4188      41.3331      39.6307      34.2172      34.2569      33.4677      31.5940       0.0076      29.4478       8.4023      -0.0025       0.0465       4.4755       0.0366       2.6970    4025.0000
    9382.0      41.0436      41.7939      40.5157      38.6781      38.6704      38.6276      38.2529      35.5555       0.0117      30.8356       8.4079      -0.0056       0.0431       4.5148       0.0388       2.6900    4052.0000
    9382.5      42.9462      43.6381      42.2389      40.5323      41.2396      42.9688      40.8385      38.1939       0.0140      36.6216       8.4852      -0.0068       0.0348       4.5618       0.0364       2.6861    4012.0000
    9383.0      46.6788      47.1368      45.3978      43.3970      45.7195      45.8119      44.8677      42.3784       0.0071      37.0687       8.4336      -0.0035       0.0416       4.5425       0.0327       2.6979    4023.0000
    9383.5      49.1390      50.6771      48.2653      46.1534      52.8638      53.8492      45.3141      42.8426       0.0009      28.8788       8.4355      -0.0003       0.0323       4.5523       0.0259       2.7084    4082.0000
    9384.0      52.1276      53.6473      51.5866      49.6817      63.1492      65.5909      61.2711      59.1671      -0.0006      20.7598       8.4410       0.0004       0.0019       4.5856       0.0173       2.7110    4008.0000
    9384.5      54.6784      56.5188      55.1183      52.3455      54.8632      55.7209      54.8326      53.6849       0.0015      23.1369       8.4631      -0.0006       0.0124       4.6073       0.0180       2.7074    4026.0000
    9385.0      57.2981      59.6218      58.9175      55.7854      50.9663      52.4145      51.8330      53.3625       0.0066      26.7107       8.4244      -0.0022       0.0329       4.6239       0.0233       2.6987    4030.0000
    9385.5      60.6432      63.7387      63.3844      59.1308      57.4295      60.5343      63.3396      62.0185       0.0080      27.7026       8.4244      -0.0020       0.0289       4.6236       0.0261       2.6963    4042.0000
    9386.0      64.9143      68.6013      68.9458      63.5400      66.5979      69.9768      68.5752      66.0270       0.0080      23.8354       8.3968      -0.0013       0.0260       4.6515       0.0251       2.6964    4062.0000
    9386.5      70.4842      75.3898      75.2001      69.3394      76.8167      82.2364      83.3077      79.4273       0.0038      21.4468       8.4023       0.0004       0.0279       4.6769       0.0226       2.7035    4037.0000
    9387.0      76.2276      82.0635      81.7807      74.5297      83.0676      89.1285      90.0859      80.3506       0.0019      19.5097       8.3361       0.0009       0.0179       4.7468       0.0198       2.7067    4085.0000
    9387.5      81.3861      87.6920      86.4721      78.9619      87.0422      89.7037      86.5721      78.7382       0.0015      19.2117       8.3453       0.0007       0.0132       4.8268       0.0170       2.7075    4045.0000
    9388.0      85.4586      91.7902      89.8823      82.7492      89.5243      93.2681      91.6327      85.4450       0.0031      17.4955       8.3305       0.0001       0.0159       4.8850       0.0177       2.7047    4031.0000
    9388.5      87.4834      93.3748      91.5650      84.9363      95.7484      98.3480      95.9533      91.3246       0.0027      16.3034       8.3305       0.0004       0.0200       4.8624       0.0187       2.7054    4036.0000
    9389.0      86.6357      92.5916      90.4816      84.6655      95.5864      98.0798      94.6508      91.9323       0.0033      17.2151       8.3195       0.0010       0.0183       4.8318       0.0200       2.7043    4105.0000
    9389.5      86.6362      92.5711      90.4744      85.3092      88.1486      92.1361      87.9837      88.8108       0.0034      21.6239       8.3305       0.0019       0.0256       4.8287       0.0226       2.7042    4064.0000
    9390.0      85.7616      91.6632      89.0564      84.6638      78.8064      82.5632      80.4268      81.2822       0.0009      24.6041       8.3250       0.0038       0.0284       4.8916       0.0243       2.7084    4100.0000
    9390.5      86.6170      92.6133      90.2306      86.3633      85.5646      89.0382      86.0864      87.0899      -0.0019      24.9161       8.3637       0.0048       0.0280       4.9175       0.0253       2.7133    4061.0000
    9391.0      89.1885      94.9880      92.6023      89.0483      90.8134      92.2585      88.3327      91.3774      -0.0052      22.3830       8.3582       0.0053       0.0292       4.8810       0.0218       2.7188    4050.0000
    9391.5      92.7590      98.3048      95.6714      92.6857      95.9576      98.3706      94.7143      95.9166      -0.0034      18.9558       8.4042       0.0037       0.0168       4.8118       0.0187       2.7159    4070.0000
    9392.0      96.7647     102.2962      99.2131      96.5501      98.2853     104.2313     101.3045      99.8063      -0.0027      17.8636       8.4134       0.0027       0.0091       4.7649       0.0146       2.7147    4055.0000
    9392.5      99.0247     105.0485     101.6470      99.4476     109.6500     110.9883     106.5642     101.4623      -0.0040      17.5613       8.4410       0.0023       0.0163       4.7578       0.0141       2.7168    4066.0000
    9393.0      97.4360     104.0747     101.4550      99.1608     110.0851     107.3534     111.5458      93.5903      -0.0047      17.5613       8.4521       0.0016       0.0127       4.8000       0.0108       2.7180    4060.0000
    9393.5      90.5318      97.1423      93.6853      92.8967     107.3304     111.3961     107.7098      88.2803      -0.0028      15.3799       8.5183       0.0004       0.0045       4.8775       0.0088       2.7147    4085.0000
    9394.0      78.4428      83.7407      79.5386      78.4884     113.5696     115.0123     107.7633      90.2937       0.0004      13.3385       8.4244      -0.0003       0.0083       4.9214       0.0086       2.7094    4070.0000
    9394.5      63.2198      66.5639      63.3893      61.7912     105.4453     110.4240      98.6387      87.2188       0.0001      11.2523       8.4023       0.0008       0.0107       4.8869       0.0111       2.7098    4045.0000
    9395.0      48.0632      49.9312      48.6818      47.5329      63.5247      70.4237      64.4826      63.8515      -0.0013      10.6177       8.3968       0.0025       0.0091       4.8264       0.0148       2.7123    4042.0000
    9395.5      38.4268      39.7775      38.4058      37.6783      38.4950      40.1807      36.5094      35.4559       0.0031       9.8400       8.3821       0.0026       0.0276       4.8463       0.0215       2.7047    4014.0000
    9396.0      31.7986      32.3299      31.7516      31.2966      27.6152      27.6432      26.9210      25.8624       0.0137       9.2440       8.3582       0.0008       0.0310       4.9330       0.0255       2.6866    4028.0000
    9396.5      28.0941      28.3577      28.1654      27.6954      23.0966      23.2114      24.5065      24.0802       0.0199       9.0956       8.3802       0.0005       0.0241       5.0095       0.0255       2.6760    4045.0000
    9397.0      27.6455      27.8913      27.4154      27.0260      23.7004      23.6379      23.2973      23.0390       0.0147       7.8958       8.3600       0.0035       0.0251       5.0756       0.0247       2.6849    4025.0000
