~VERSION INFORMATION
VERS.           2.0   :CWLS Log ASCII Standard - VERSION 2.0
WRAP.           NO    :One Line per depth step
PROD.  Schlumberger   :LAS Producer
PROG.  DLIS to ASCII 2.2                               :LAS Program name and version
CREA.        2008/02/27 08:04                          :LAS Creation date {YYYY/MM/DD hh:mm}
SOURCE.     Bakken_PNS_Final_Data.dlis  :DLIS File Name
FILE-ID.     Interpretation Chain - gf_user            :File Identification Number
#--------------------------------------------------
~WELL INFORMATION
#MNEM.UNIT      DATA             DESCRIPTION
#---- ------ --------------   -----------------------------
STRT .F        10539.0       :START DEPTH     
STOP .F         7660.0       :STOP DEPTH     
STEP .F           -0.5       :STEP     
NULL .          -999.25      :NULL VALUE
COMP .               :COMPANY
WELL .        Bakken            :WELL
FLD  .                                         :FIELD
LOC  .                                                 :LOCATION
CNTY .                                       :COUNTY
STAT .                                        :STATE
CTRY .        USA                                      :COUNTRY
API  .                                                 :API NUMBER
UWI  .                    :UNIQUE WELL ID
DATE .                                                 :LOG DATE
SRVC .        Schlumberger                             :SERVICE COMPANY
LATI .DEG     48.129                                   :LATITUDE
LONG .DEG     -102.505                                 :LONGITUDE
GDAT .                                                 :GeoDetic Datum
#-----------------------------------------------------------------------------
~PARAMETER INFORMATION
#MNEM.UNIT    VALUE                      DESCRIPTION
#---- -----   --------------------       ------------------------
RUN  .                                   :RUN NUMBER
PDAT .        GROUND LEVEL               :Permanent Datum
EPD  .F         2111.000000              :Elevation of Permanent Datum above Mean Sea Level
EPD  .F         2111.000000              :Elevation of tool zero above Mean Sea Level
LMF  .          KELLY BUSHING            :Logging Measured From (Name of Logging Elevation Reference)
APD  .F          18.000000               :Elevation of Depth Reference (LMF) above Permanent Datum
#-----------------------------------------------------------------------------
~CURVE INFORMATION
#MNEM.UNIT   API CODE                                  DESCRIPTION
#---- -----  --------                                  -----------------------
DEPT .F                                                :DEPTH (BOREHOLE) {F10.1}
MAXXENE_OVERALL.                                       :Overall estimate of maximum cross energy {F13.4}
MINXENE_OVERALL.                                       :Overall estimate of minimum cross energy {F13.4}
PR   .                                                 :Poisson's Ratio {F13.4}
VPVS .                                                 :Compressional to Shear Velocity Ratio {F13.4}
DTSM .US/F                                             :Delta-T Shear {F13.4}
DTCO .US/F                                             :Delta-T Compressional {F13.4}
HD2_PPC2.IN                                            :PPC2 Hole Diameter 2 {F13.4}
HD1_PPC2.IN                                            :PPC2 Hole Diameter 1 {F13.4}
HD2_PPC1.IN                                            :PPC1 Hole Diameter 2 {F13.4}
HD1_PPC1.IN                                            :PPC1 Hole Diameter 1 {F13.4}
GR_EDTC.GAPI                                           :Gamma Ray {F13.4}
BS   .IN                                               :Bit Size {F13.4}
AT90 .OHMM                                             :Array Induction Two Foot Resistivity A90 {F13.4}
AT60 .OHMM                                             :Array Induction Two Foot Resistivity A60 {F13.4}
AT30 .OHMM                                             :Array Induction Two Foot Resistivity A30 {F13.4}
AT20 .OHMM                                             :Array Induction Two Foot Resistivity A20 {F13.4}
AT10 .OHMM                                             :Array Induction Two Foot Resistivity A10 {F13.4}
RHOZ .G/C3                                             :HRDD Standard Resolution Formation Density {F13.4}
PEFZ .                                                 :HRDD Standard Resolution Formation Photoelectric Factor {F13.4}
NPOR .CFCF                                             :Enhanced Thermal Neutron Porosity in Selected Lithology {F13.4}
TDEP ..1IN                                             : {I11}
#-----------------------------------------------------------------------------
# 
#     DEPT    MAXXENE_OVER MINXENE_OVER     PR           VPVS         DTSM         DTCO       HD2_PPC2     HD1_PPC2     HD2_PPC1     HD1_PPC1     GR_EDTC        BS           AT90         AT60         AT30         AT20         AT10         RHOZ         PEFZ         NPOR         TDEP
#             ALL          ALL
~A  
# ...
    8248.0      10.1864       0.6265       0.2989       1.8671     102.1818      54.7273       9.1618       9.0910       9.1189       9.1910      16.3067       8.7500      26.3104      35.5018     115.4092      77.0278      37.3584       2.5459       5.1235       0.0009 1174462464
    8247.5      10.1851       0.6361       0.2738       1.7918     103.2727      57.6364       9.1881       9.0677       9.1189       9.1436      21.3138       8.7500      32.9326      48.6316     175.9901      94.9214      48.5954       2.5572       5.0722       0.0017 1174461952
    8247.0      10.1641       0.6352       0.2570       1.7485     106.1818      60.7273       9.1577       9.0793       9.0932       9.1436      22.9128       8.7500      45.8063      75.7469     234.0412     119.4318      52.3552       2.5512       5.0202       0.0156 1174461440
    8246.5      10.1195       0.6253       0.2447       1.7201     107.2727      62.3636       9.1881       9.1376       9.0804       9.1436      24.8937       8.7500      66.0567     139.7497     298.8397     153.8038      59.7503       2.5183       5.0022       0.0619 1174460928
    8246.0      10.1486       0.6251       0.2691       1.7791     105.4545      59.2727       9.1618       9.1726       9.0933       9.2145      21.6404       8.7500     105.8477     261.7137     528.6843     160.3700      71.1923       2.4877       4.9825       0.0846 1174460416
    8245.5      10.1725       0.6303       0.2955       1.8562     103.2727      55.6364       9.1355       9.1842       9.0676       9.2618      19.6963       8.7500     163.2504     541.5013     739.4550     221.0268      95.9221       2.4692       5.0153       0.0678 1174459904
    8245.0      10.1967       0.6426       0.3006       1.8729     101.8182      54.3636       9.1355       9.1958       9.0547       9.2737      16.7580       8.7500     368.9348    1421.0360    1389.3402     374.5727     113.9637       2.4834       5.0874       0.0425 1174459392
    8244.5      10.2608       0.6530       0.3058       1.8908     100.7273      53.2727       9.1527       9.1962       9.0676       9.2737      12.2095       8.7500    1488.0311    1950.0000    1950.0000     512.9990     126.6954       2.5162       5.1664       0.0153 1174458880
    8244.0      10.3206       0.6557       0.2978       1.8635      99.2727      53.2727       9.0959       9.1958       9.0676       9.2145       7.9636       8.7500    1950.0000    1950.0000    1950.0000     604.7995     126.6761       2.5510       5.2487       0.0048 1174458368
    8243.5      10.3355       0.6529       0.2935       1.8498      98.5455      53.2727       9.1090       9.1493       9.0676       9.2145       6.0660       8.7500    1837.8882    1950.0000    1950.0000     582.5566     116.2844       2.5599       5.2864       0.0076 1174457856
    8243.0      10.3527       0.6410       0.2892       1.8362      97.8182      53.2727       9.1090       9.1260       9.0676       9.1909       7.3139       8.7500    1816.8352    1950.0000    1882.2964     492.6190     103.3484       2.5498       5.3181       0.0077 1174457344
    8242.5      10.3564       0.6333       0.2892       1.8362      97.8182      53.2727       9.0959       9.1143       9.0419       9.0844       9.1434       8.7500    1950.0000    1950.0000    1712.7406     409.4122      93.3200       2.5418       5.3438       0.0020 1174456832
    8242.0      10.3352       0.6303       0.2912       1.8425      97.8182      53.0909       9.0959       9.1493       9.0547       9.2027       9.9958       8.7500    1950.0000    1950.0000    1414.3333     360.6567      87.6594       2.5463       5.3447       0.0073 1174456320
    8241.5      10.3367       0.6246       0.2994       1.8690      98.5455      52.7273       9.1485       9.1027       9.0804       9.2027       9.4768       8.7500    1950.0000    1950.0000    1116.8245     339.4226      85.3693       2.5545       5.3038       0.0092 1174455808
    8241.0      10.3097       0.6191       0.3012       1.8750      98.1818      52.3636       9.1921       9.0915       9.0804       9.1672       9.3055       8.7500    1950.0000    1950.0000     869.3500     329.3541      82.3008       2.5613       5.2054       0.0042 1174455296
    8240.5      10.3186       0.6073       0.2971       1.8611      97.4545      52.3636       9.2011       9.1143       9.1317       9.1672       8.0311       8.7500    1950.0000    1950.0000     684.5076     297.6480      80.9251       2.5637       5.1437       0.0079 1174454784
    8240.0      10.3317       0.5978       0.3010       1.8741      97.4545      52.0000       9.2143       9.0677       9.1446       9.0963       7.3431       8.7500    1950.0000    1950.0000     500.8813     310.5397      71.4950       2.5707       5.1006       0.0132 1174454272
    8239.5      10.3441       0.5818       0.3046       1.8865      96.7273      51.2727       9.2536       9.0327       9.1574       9.1200       8.7198       8.7500    1950.0000    1950.0000     442.3961     371.6415      64.3357       2.5781       5.1002       0.0063 1174453760
    8239.0      10.3619       0.5753       0.2982       1.8648      95.2727      51.0909       9.2496       9.0322       9.1719       9.0975       9.4480       8.7500    1950.0000    1950.0000     667.6711     347.7792      65.9543       2.5977       5.0903       0.0072 1174453248
    8238.5      10.3594       0.5686       0.2979       1.8638      94.5455      50.7273       9.2799       9.0093       9.1702       9.0963      10.5010       8.7500    1950.0000    1950.0000     719.0184     483.8404      67.6780       2.6141       5.0845       0.0138 1174452736
    8238.0      10.3464       0.5717       0.3019       1.8773      94.5455      50.3636       9.2801       8.9977       9.1702       9.0844       9.9853       8.7500    1950.0000    1950.0000     672.4949     401.4612      76.9908       2.6290       5.0847       0.0105 1174452224
    8237.5      10.3615       0.5722       0.3019       1.8773      94.5455      50.3636       9.3061       8.9977       9.1702       9.0963      11.0593       8.7500    1950.0000    1950.0000     713.7221     379.7023      80.7825       2.6380       5.0735       0.0078 1174451712
    8237.0      10.4005       0.5786       0.2979       1.8638      94.5455      50.7273       9.2496       9.0322       9.1702       9.0963      10.8757       8.7500    1950.0000    1950.0000     706.5547     350.4218      89.9978       2.6531       5.1381       0.0155 1174451200
    8236.5      10.4119       0.5733       0.2938       1.8505      94.5455      51.0909       9.2669       9.0327       9.1702       9.1082      11.3981       8.7500    1950.0000    1950.0000     430.4005     411.6831      95.9002       2.6581       5.1639       0.0154 1174450688
    8236.0      10.4058       0.5813       0.2961       1.8582      95.2727      51.2727       9.2143       9.0327       9.1189       9.1436      11.7400       8.7500    1950.0000    1950.0000     755.0081     406.1728     107.1365       2.6574       5.1960       0.0137 1174450176
    8235.5      10.3664       0.5818       0.2961       1.8582      95.2727      51.2727       9.1750       9.0444       9.1061       9.1554      11.7400       8.7500    1950.0000    1950.0000     738.1439     479.7715     119.9223       2.6465       5.1498       0.0240 1174449664
    8235.0      10.3192       0.5944       0.2879       1.8322      95.2727      52.0000       9.1709       9.0672       9.0804       9.1554      12.9442       8.7500    1934.3032    1950.0000     410.2647     312.3858     116.4367       2.6359       5.1504       0.0217 1174449152
    8234.5      10.2794       0.6037       0.2836       1.8194      95.2727      52.3636       9.1618       9.0910       9.0804       9.1553      14.4413       8.7500    1827.9010    1931.9404     527.9668     375.3594     112.8424       2.6274       5.1256       0.0162 1174448640
    8234.0      10.2832       0.6189       0.2994       1.8690      98.5455      52.7273       9.1222       9.0910       9.0804       9.1672      15.8125       8.7500    1650.6095    1838.2430     663.6912     351.8814     124.7490       2.6194       5.1023       0.0213 1174448128
