~VERSION INFORMATION
VERS.           2.0   :CWLS Log ASCII Standard - VERSION 2.0
WRAP.           NO    :One Line per depth step
PROD.  Schlumberger   :LAS Producer
PROG.  DLIS to ASCII 2.2                               :LAS Program name and version
CREA.        2008/02/27 08:04                          :LAS Creation date {YYYY/MM/DD hh:mm}
SOURCE.     Bakken_PNS_Final_Data.dlis  :DLIS File Name
FILE-ID.     Interpretation Chain - gf_user            :File Identification Number
#--------------------------------------------------
~WELL INFORMATION
#MNEM.UNIT      DATA             DESCRIPTION
#---- ------ --------------   -----------------------------
STRT .F        10539.0       :START DEPTH     
STOP .F         7660.0       :STOP DEPTH     
STEP .F           -0.5       :STEP     
NULL .          -999.25      :NULL VALUE
COMP .               :COMPANY
WELL .        Bakken            :WELL
FLD  .                                         :FIELD
LOC  .                                                 :LOCATION
CNTY .                                       :COUNTY
STAT .                                        :STATE
CTRY .        USA                                      :COUNTRY
API  .                                                 :API NUMBER
UWI  .                    :UNIQUE WELL ID
DATE .                                                 :LOG DATE
SRVC .        Schlumberger                             :SERVICE COMPANY
LATI .DEG     48.129                                   :LATITUDE
LONG .DEG     -102.505                                 :LONGITUDE
GDAT .                                                 :GeoDetic Datum
#-----------------------------------------------------------------------------
~PARAMETER INFORMATION
#MNEM.UNIT    VALUE                      DESCRIPTION
#---- -----   --------------------       ------------------------
RUN  .                                   :RUN NUMBER
PDAT .        GROUND LEVEL               :Permanent Datum
EPD  .F         2111.000000              :Elevation of Permanent Datum above Mean Sea Level
EPD  .F         2111.000000              :Elevation of tool zero above Mean Sea Level
LMF  .          KELLY BUSHING            :Logging Measured From (Name of Logging Elevation Reference)
APD  .F          18.000000               :Elevation of Depth Reference (LMF) above Permanent Datum
#-----------------------------------------------------------------------------
~CURVE INFORMATION
#MNEM.UNIT   API CODE                                  DESCRIPTION
#---- -----  --------                                  -----------------------
DEPT .F                                                :DEPTH (BOREHOLE) {F10.1}
MAXXENE_OVERALL.                                       :Overall estimate of maximum cross energy {F13.4}
MINXENE_OVERALL.                                       :Overall estimate of minimum cross energy {F13.4}
PR   .                                                 :Poisson's Ratio {F13.4}
VPVS .                                                 :Compressional to Shear Velocity Ratio {F13.4}
DTSM .US/F                                             :Delta-T Shear {F13.4}
DTCO .US/F                                             :Delta-T Compressional {F13.4}
HD2_PPC2.IN                                            :PPC2 Hole Diameter 2 {F13.4}
HD1_PPC2.IN                                            :PPC2 Hole Diameter 1 {F13.4}
HD2_PPC1.IN                                            :PPC1 Hole Diameter 2 {F13.4}
HD1_PPC1.IN                                            :PPC1 Hole Diameter 1 {F13.4}
GR_EDTC.GAPI                                           :Gamma Ray {F13.4}
BS   .IN                                               :Bit Size {F13.4}
AT90 .OHMM                                             :Array Induction Two Foot Resistivity A90 {F13.4}
AT60 .OHMM                                             :Array Induction Two Foot Resistivity A60 {F13.4}
AT30 .OHMM                                             :Array Induction Two Foot Resistivity A30 {F13.4}
AT20 .OHMM                                             :Array Induction Two Foot Resistivity A20 {F13.4}
AT10 .OHMM                                             :Array Induction Two Foot Resistivity A10 {F13.4}
RHOZ .G/C3                                             :HRDD Standard Resolution Formation Density {F13.4}
PEFZ .                                                 :HRDD Standard Resolution Formation Photoelectric Factor {F13.4}
NPOR .CFCF                                             :Enhanced Thermal Neutron Porosity in Selected Lithology {F13.4}
TDEP ..1IN                                             : {I11}
#-----------------------------------------------------------------------------
# 
#     DEPT    MAXXENE_OVER MINXENE_OVER     PR           VPVS         DTSM         DTCO       HD2_PPC2     HD1_PPC2     HD2_PPC1     HD1_PPC1     GR_EDTC        BS           AT90         AT60         AT30         AT20         AT10         RHOZ         PEFZ         NPOR         TDEP
#             ALL          ALL
~A  
# ...
    9582.0       8.4306       1.4153       0.2716       1.7857     100.0000      56.0000       9.1006       8.8912       9.0644       8.9168      32.8783       8.7500      59.0189      63.2185      63.2011      60.4149      57.9821       2.6944       4.7303       0.0442 1175828480
    9581.5       8.4396       1.4067       0.2716       1.7857     100.0000      56.0000       9.0915       8.8918       9.0644       8.9168      31.4258       8.7500      58.0187      63.7467      61.9475      58.0577      55.9477       2.6923       4.7314       0.0436 1175827968
    9581.0       8.4502       1.3941       0.2754       1.7961      99.2727      55.2727       9.0873       8.8794       9.0644       8.9168      30.2300       8.7500      56.4763      61.1190      60.5151      56.8445      54.4567       2.6936       4.7290       0.0480 1175827456
    9580.5       8.4638       1.3812       0.2796       1.8079      99.2727      54.9091       9.0915       8.8684       9.0772       8.9168      29.1453       8.7500      56.5017      60.5835      60.0768      55.6406      52.9241       2.7016       4.7154       0.0466 1175826944
    9580.0       8.4771       1.3683       0.2789       1.8060      98.1818      54.3636       9.0873       8.8794       9.0644       8.9168      26.7746       8.7500      58.5131      61.5632      62.3552      58.7917      56.7697       2.7061       4.7112       0.0411 1175826432
    9579.5       8.4871       1.3588       0.2832       1.8182      98.1818      54.0000       9.0782       8.8801       9.0515       8.9168      24.0395       8.7500      64.4416      69.6340      69.4329      64.7441      63.6457       2.7046       4.7296       0.0351 1175825920
    9579.0       8.4985       1.3508       0.2892       1.8362      97.8182      53.2727       9.1004       8.8794       9.0515       8.9168      26.0345       8.7500      69.0108      74.6662      74.8390      69.5194      68.4842       2.7044       4.7471       0.0298 1175825408
    9578.5       8.5095       1.3433       0.2808       1.8114      97.8182      54.0000       9.1048       8.8684       9.0644       8.9287      28.5833       8.7500      70.6106      75.5519      76.0170      72.4517      71.7236       2.7110       4.7450       0.0235 1175824896
    9578.0       8.5157       1.3368       0.2770       1.8007      98.5455      54.7273       9.0873       8.8794       9.0644       8.9168      33.3219       8.7500      68.5652      76.7638      77.6104      73.5723      72.0824       2.7173       4.7214       0.0181 1175824384
    9577.5       8.5243       1.3300       0.2672       1.7742     100.0000      56.3636       9.0915       8.8801       9.0515       8.9168      32.7108       8.7500      62.0274      64.2316      65.5811      64.6408      63.1709       2.7090       4.7213       0.0331 1175823872
    9577.0       8.5302       1.3311       0.2628       1.7628     100.0000      56.7273       9.1046       8.8801       9.0644       8.9287      37.0802       8.7500      55.6519      55.7824      57.2665      57.0021      53.0415       2.6984       4.7046       0.0485 1175823360
    9576.5       8.5316       1.3269       0.2656       1.7700     100.7273      56.9091       9.0915       8.8801       9.0644       8.9287      37.4393       8.7500      51.6919      50.2624      51.3111      49.7553      45.9671       2.6997       4.6197       0.0518 1175822848
    9576.0       8.5369       1.3234       0.2611       1.7587     100.7273      57.2727       9.0871       8.9029       9.0644       8.9406      39.3302       8.7500      42.8269      42.1877      44.1913      44.3703      40.6622       2.7053       4.5124       0.0516 1175822336
    9575.5       8.5397       1.3178       0.2678       1.7756     100.7273      56.7273       9.0782       8.9035       9.0644       8.9525      36.7019       8.7500      34.4945      34.6618      36.1001      36.9657      36.7756       2.7130       4.3915       0.0544 1175821824
    9575.0       8.5387       1.3189       0.2628       1.7628     100.0000      56.7273       9.0740       8.9029       9.0515       8.9525      37.7942       8.7500      36.2096      36.6035      36.9538      35.9560      36.4524       2.7188       4.3511       0.0547 1175821312
    9574.5       8.5284       1.3228       0.2800       1.8092     100.0000      55.2727       9.0829       8.9139       9.0515       8.9525      38.5171       8.7500      40.6239      42.2696      41.2846      40.3145      39.2645       2.7205       4.3633       0.0458 1175820800
    9574.0       8.5211       1.3245       0.2846       1.8224     100.7273      55.2727       9.0782       8.8918       9.0515       8.9643      41.8737       8.7500      43.8856      45.2195      45.1732      44.9982      43.1648       2.7165       4.4384       0.0393 1175820288
    9573.5       8.5147       1.3247       0.2805       1.8105     100.7273      55.6364       9.0871       8.8912       9.0515       8.9525      44.2404       8.7500      47.3309      48.6783      48.3176      48.3142      47.2402       2.7052       4.4985       0.0398 1175819776
    9573.0       8.5111       1.3272       0.2611       1.7587     100.7273      57.2727       9.1046       8.8918       9.0644       8.9525      46.4570       8.7500      44.8157      47.4062      46.7735      46.2549      44.3843       2.7051       4.4866       0.0402 1175819264
    9572.5       8.5051       1.3333       0.2617       1.7603     101.4545      57.6364       9.0913       8.8918       9.0515       8.9287      43.7261       8.7500      40.4861      42.1623      41.8842      40.6988      40.4725       2.7081       4.4338       0.0482 1175818752
    9572.0       8.5018       1.3430       0.2705       1.7827     101.4545      56.9091       9.0915       8.8918       9.0515       8.9287      39.5436       8.7500      33.7070      35.0982      34.9421      34.3882      35.5378       2.7167       4.3655       0.0636 1175818240
    9571.5       8.4941       1.3533       0.2836       1.8194     102.5455      56.3636       9.0780       8.8684       9.0644       8.9168      44.4273       8.7500      28.8632      30.0669      29.4908      29.6760      30.1140       2.7206       4.3655       0.0648 1175817728
    9571.0       8.4950       1.3635       0.2768       1.8000     101.4545      56.3636       9.0873       8.8794       9.0515       8.9168      47.1582       8.7500      34.7372      36.5702      36.4466      36.5948      35.0388       2.7275       4.3756       0.0409 1175817216
    9570.5       8.4997       1.3645       0.2656       1.7700     100.7273      56.9091       9.0871       8.8677       9.0515       8.9168      47.8816       8.7500      41.0652      44.0763      45.3619      46.0881      42.4014       2.7235       4.4231       0.0410 1175816704
    9570.0       8.5184       1.3681       0.2611       1.7587     100.7273      57.2727       9.0740       8.8794       9.0772       8.9168      37.8310       8.7500      36.3912      39.1074      38.9712      39.1300      36.8891       2.7234       4.4088       0.0659 1175816192
    9569.5       8.5328       1.3574       0.2721       1.7871     100.7273      56.3636       9.1004       8.8560       9.0515       8.9168      36.0104       8.7500      31.8508      34.1029      33.5015      33.1704      31.3516       2.7193       4.4295       0.0590 1175815680
    9569.0       8.5489       1.3480       0.2758       1.7974     100.0000      55.6364       9.1004       8.8794       9.0515       8.9049      33.6321       8.7500      33.1416      36.0002      35.6696      35.6585      33.4578       2.7226       4.4538       0.0485 1175815168
    9568.5       8.5657       1.3333       0.2800       1.8092     100.0000      55.2727       9.0913       8.8684       9.0772       8.9168      35.8541       8.7500      38.8707      40.5197      41.8654      41.2264      39.4156       2.7219       4.5205       0.0437 1175814656
    9568.0       8.5914       1.3151       0.2842       1.8212     100.0000      54.9091       9.0871       8.8912       9.0515       8.9168      35.4900       8.7500      42.4898      42.4274      46.1729      48.1232      43.8235       2.7243       4.5671       0.0446 1175814144
