~VERSION INFORMATION
VERS.           2.0   :CWLS Log ASCII Standard - VERSION 2.0
WRAP.           NO    :One Line per depth step
PROD.  Schlumberger   :LAS Producer
PROG.  DLIS to ASCII 2.2                               :LAS Program name and version
CREA.        2008/02/27 08:04                          :LAS Creation date {YYYY/MM/DD hh:mm}
SOURCE.     Bakken_PNS_Final_Data.dlis  :DLIS File Name
FILE-ID.     Interpretation Chain - gf_user            :File Identification Number
#--------------------------------------------------
~WELL INFORMATION
#MNEM.UNIT      DATA             DESCRIPTION
#---- ------ --------------   -----------------------------
STRT .F        10539.0       :START DEPTH     
STOP .F         7660.0       :STOP DEPTH     
STEP .F           -0.5       :STEP     
NULL .          -999.25      :NULL VALUE
COMP .               :COMPANY
WELL .        Bakken            :WELL
FLD  .                                         :FIELD
LOC  .                                                 :LOCATION
CNTY .                                       :COUNTY
STAT .                                        :STATE
CTRY .        USA                                      :COUNTRY
API  .                                                 :API NUMBER
UWI  .                    :UNIQUE WELL ID
DATE .                                                 :LOG DATE
SRVC .        Schlumberger                             :SERVICE COMPANY
LATI .DEG     48.129                                   :LATITUDE
LONG .DEG     -102.505                                 :LONGITUDE
GDAT .                                                 :GeoDetic Datum
#-----------------------------------------------------------------------------
~PARAMETER INFORMATION
#MNEM.UNIT    VALUE                      DESCRIPTION
#---- -----   --------------------       ------------------------
RUN  .                                   :RUN NUMBER
PDAT .        GROUND LEVEL               :Permanent Datum
EPD  .F         2111.000000              :Elevation of Permanent Datum above Mean Sea Level
EPD  .F         2111.000000              :Elevation of tool zero above Mean Sea Level
LMF  .          KELLY BUSHING            :Logging Measured From (Name of Logging Elevation Reference)
APD  .F          18.000000               :Elevation of Depth Reference (LMF) above Permanent Datum
#-----------------------------------------------------------------------------
~CURVE INFORMATION
#MNEM.UNIT   API CODE                                  DESCRIPTION
#---- -----  --------                                  -----------------------
DEPT .F                                                :DEPTH (BOREHOLE) {F10.1}
MAXXENE_OVERALL.                                       :Overall estimate of maximum cross energy {F13.4}
MINXENE_OVERALL.                                       :Overall estimate of minimum cross energy {F13.4}
PR   .                                                 :Poisson's Ratio {F13.4}
VPVS .                                                 :Compressional to Shear Velocity Ratio {F13.4}
DTSM .US/F                                             :Delta-T Shear {F13.4}
DTCO .US/F                                             :Delta-T Compressional {F13.4}
HD2_PPC2.IN                                            :PPC2 Hole Diameter 2 {F13.4}
HD1_PPC2.IN                                            :PPC2 Hole Diameter 1 {F13.4}
HD2_PPC1.IN                                            :PPC1 Hole Diameter 2 {F13.4}
HD1_PPC1.IN                                            :PPC1 Hole Diameter 1 {F13.4}
GR_EDTC.GAPI                                           :Gamma Ray {F13.4}
BS   .IN                                               :Bit Size {F13.4}
AT90 .OHMM                                             :Array Induction Two Foot Resistivity A90 {F13.4}
AT60 .OHMM                                             :Array Induction Two Foot Resistivity A60 {F13.4}
AT30 .OHMM                                             :Array Induction Two Foot Resistivity A30 {F13.4}
AT20 .OHMM                                             :Array Induction Two Foot Resistivity A20 {F13.4}
AT10 .OHMM                                             :Array Induction Two Foot Resistivity A10 {F13.4}
RHOZ .G/C3                                             :HRDD Standard Resolution Formation Density {F13.4}
PEFZ .                                                 :HRDD Standard Resolution Formation Photoelectric Factor {F13.4}
NPOR .CFCF                                             :Enhanced Thermal Neutron Porosity in Selected Lithology {F13.4}
TDEP ..1IN                                             : {I11}
#-----------------------------------------------------------------------------
# 
#     DEPT    MAXXENE_OVER MINXENE_OVER     PR           VPVS         DTSM         DTCO       HD2_PPC2     HD1_PPC2     HD2_PPC1     HD1_PPC1     GR_EDTC        BS           AT90         AT60         AT30         AT20         AT10         RHOZ         PEFZ         NPOR         TDEP
#             ALL          ALL
~A  
# ...
    8625.0      11.6764       0.2445       0.2696       1.7806     103.2727      58.0000       9.1177       8.9738       9.0804       8.9300      15.4069       8.7500       4.5473       5.0210       6.8878       7.4009      19.9751       2.8174       4.4333       0.0471 1174848512
    8624.5      11.5835       0.2369       0.2239       1.6766     101.8182      60.7273       9.0915       9.0088       9.0804       8.9894      16.5013       8.7500       2.6527       2.7388       3.8983       3.7361       5.4652       2.8199       4.2540       0.0471 1174848000
    8624.0      11.5140       0.2345       0.2425       1.7152     100.7273      58.7273       9.1004       9.0784       9.0548       9.0250      12.8612       8.7500       2.1877       2.2584       2.6896       2.8503       3.3901       2.7742       4.2297       0.1103 1174847488
    8623.5      11.5170       0.2370       0.2553       1.7444      99.2727      56.9091       9.1483       9.0211       9.1061       9.1081      10.9247       8.7500       1.7225       1.8059       1.9503       2.2106       2.3539       2.7156       4.4083       0.1488 1174846976
    8623.0      11.5064       0.2444       0.2646       1.7674      96.7273      54.7273       9.1311       9.0088       9.0932       9.0607       8.7400       8.7500       1.9869       1.9893       2.4010       2.5633       2.8030       2.7197       4.8337       0.1702 1174846464
    8622.5      11.5221       0.2564       0.2621       1.7611      93.8182      53.2727       9.1442       8.9738       9.0932       9.0489       9.6492       8.7500       2.7824       2.6356       3.6505       3.9776       4.4430       2.7819       5.2787       0.1070 1174845952
    8622.0      11.5173       0.2686       0.2544       1.7424      93.4545      53.6364       9.1705       8.9270       9.1060       9.0014      11.4734       8.7500       4.2794       4.0085       5.8138       7.0987      11.0976       2.8548       5.5318       0.0202 1174845440
    8621.5      11.5162       0.2855       0.2199       1.6688      93.4545      56.0000       9.2099       8.9036       9.1445       8.9657      12.4882       8.7500       8.2513       7.5129      14.2744      15.6843      23.8392       2.8980       5.4640       0.0017 1174844928
    8621.0      11.5304       0.3152       0.3171       1.9323      93.4545      48.3636       9.2099       8.8918       9.1703       8.9539      13.0344       8.7500      13.5235      10.3857      24.0658      28.1457      35.5456       2.9061       5.2724       0.0139 1174844416
    8620.5      11.6145       0.3659       0.2890       1.8357      93.4545      50.9091       9.2097       8.9036       9.1703       8.9539      11.5743       8.7500      17.4554      12.0824      22.3144      28.2082      50.5491       2.9067       5.2210       0.0260 1174843904
    8620.0      11.7089       0.4267       0.3035       1.8828      93.4545      49.6364       9.1744       8.8925       9.1703       8.9539       9.1039       8.7500      25.8911      16.4080      27.8064      39.8646      83.6948       2.9188       5.4577       0.0304 1174843392
    8619.5      11.8476       0.4858       0.2954       1.8556      93.4545      50.3636       9.1573       8.8684       9.1446       8.9421       8.9219       8.7500      39.0311      24.1248      44.5870      74.9611     211.7321       2.9326       5.7084       0.0189 1174842880
    8619.0      11.3950       0.5401       0.3033       1.8819      92.7273      49.2727       9.1614       8.9042       9.1189       8.9420      10.9245       8.7500      76.5421      41.8282      87.0756     152.4567     572.8486       2.9433       5.7285       0.0007 1174842368
    8618.5      11.2133       0.5681       0.2908       1.8412      92.7273      50.3636       9.1614       8.9042       9.1189       8.9539      10.5595       8.7500     245.8162      67.0310     131.0268     715.6104    1705.8081       2.9375       5.4927       0.0012 1174841856
    8618.0      11.3131       0.5666       0.2911       1.8423      93.4545      50.7273       9.1179       8.8801       9.1061       8.9420       9.2851       8.7500     619.7200     113.6761     211.5906    1529.2301    1613.4966       2.9319       5.2015       0.0047 1174841344
    8617.5      11.4036       0.5577       0.2860       1.8267      92.0000      50.3636       9.1179       8.8919       9.1061       8.9300       6.1916       8.7500    1589.6899     189.4579     323.7133     711.2619     613.6064       2.9244       5.0288       0.0066 1174840832
    8617.0      11.3434       0.5523       0.3128       1.9160      91.2727      47.6364       9.1088       8.9042       9.1061       8.9300       6.9198       8.7500    1950.0000     294.1738     342.8690     579.9271     369.5750       2.9265       4.9707       0.0100 1174840320
    8616.5      11.2846       0.5540       0.3171       1.9323      93.4545      48.3636       9.0957       8.9159       9.0804       8.9300       6.1909       8.7500    1950.0000     444.4494     472.2520     372.0619     232.3872       2.9339       4.9912       0.0052 1174839808
    8616.0      11.2303       0.5599       0.3154       1.9259      94.5455      49.0909       9.1004       8.9614       9.0676       8.9539       7.2829       8.7500    1950.0000     761.9557    1099.7191     497.9671     323.0935       2.9404       5.0441       0.0045 1174839296
    8615.5      11.2526       0.5798       0.2979       1.8638      94.5455      50.7273       9.1218       8.9744       9.0676       9.0132       8.5573       8.7500     194.3332     524.6867     202.1249     235.6071     525.1122       2.9445       5.0705      -0.0029 1174838784
    8615.0      11.2759       0.5876       0.2748       1.7945      95.2727      53.0909       9.1179       8.9854       9.0932       9.0132      10.3787       8.7500      71.5911     128.5494      77.3873     136.9889     189.5038       2.9455       5.1112      -0.0082 1174838272
    8614.5      11.2604       0.5938       0.2770       1.8007      98.5455      54.7273       9.1705       8.9621       9.0932       9.0132      12.2000       8.7500      49.7372      49.1144      50.8957      51.5913      55.7431       2.9418       5.1174      -0.0066 1174837760
    8614.0      11.3157       0.5972       0.2672       1.7742     100.0000      56.3636       9.2362       8.9387       9.1317       9.0014      12.6895       8.7500      23.3134      24.0142      24.6127      22.6096      31.6158       2.9084       5.1689       0.0058 1174837248
    8613.5      11.3575       0.5985       0.2705       1.7827     101.4545      56.9091       9.2665       8.9042       9.1958       9.0132      12.1434       8.7500      16.2695      16.6673      16.2892      17.0467      17.8971       2.8634       5.1524       0.0563 1174836736
    8613.0      11.4309       0.5962       0.2656       1.7700     100.7273      56.9091       9.2625       8.9153       9.1958       9.0014      13.2386       8.7500      13.2701      12.4477      13.6410      13.3091      14.1580       2.8293       5.0954       0.0752 1174836224
    8612.5      11.4739       0.5894       0.2553       1.7444      99.2727      56.9091       9.2362       8.8918       9.2087       8.9657      12.9295       8.7500      12.1728      11.8911      13.1518      12.2254      12.2980       2.8266       4.9830       0.0493 1174835712
    8612.0      11.4947       0.5793       0.2562       1.7468      97.8182      56.0000       9.1614       8.8691       9.1703       8.9421      13.2936       8.7500       7.8681       7.6882       8.2672       8.1966       9.1276       2.8276       4.9410       0.0553 1174835200
    8611.5      11.5456       0.5720       0.2973       1.8621      98.1818      52.7273       9.1573       8.8684       9.1575       8.9421      10.9234       8.7500       6.1257       6.0462       6.2564       6.0297       6.6416       2.8360       5.0167       0.0720 1174834688
    8611.0      11.5710       0.5654       0.3179       1.9355      98.1818      50.7273       9.1531       8.8912       9.1318       8.9302      11.8354       8.7500       7.7238       7.6491       8.4129       7.8857       8.5656       2.8621       5.2156       0.0752 1174834176
