~VERSION INFORMATION
VERS.           2.0   :CWLS Log ASCII Standard - VERSION 2.0
WRAP.           NO    :One Line per depth step
PROD.  Schlumberger   :LAS Producer
PROG.  DLIS to ASCII 15C0-309                          :LAS Program name and version
CREA.        2008/02/20 22:50                          :LAS Creation date {YYYY/MM/DD hh:mm}
DLIS_CREA.  2008-Feb-20	21:27			       :DLIS Creation date and time {YYYY-MMM-DD hh:mm}
SOURCE.     MAIN_AIT_TLD_MCFL_CNL_046PUP.DLIS          :DLIS File Name
FILE-ID.     AIT_TLD_MCFL_CNL_046PUP                   :File Identification Number
#--------------------------------------------------
~WELL INFORMATION
#MNEM.UNIT      DATA             DESCRIPTION
#---- ------ --------------   -----------------------------
STRT .F      7700.0          :START DEPTH     
STOP .F      10520.0         :STOP DEPTH     
STEP .F       0.5            :STEP     
NULL .          -999.25      :NULL VALUE
COMP .        FIDELITY EXPLORATION & PRODUCTION CO.      :COMPANY
WELL .        DEADWOOD CANYON RANCH 43-28H             :WELL
FLD  .        WILDCAT                                  :FIELD
LOC  .        NE SE                                    :LOCATION
CNTY .        MOUNTRAIL                                :COUNTY
STAT .        N. DAKOTA                                :STATE
CTRY .                                                 :COUNTRY
API  .        33-061-00581                             :API NUMBER
UWI  .        3306100581                               :UNIQUE WELL ID
DATE .        20-Feb-2008                              :LOG DATE {DD-MMM-YYYY}
SRVC .        Schlumberger                             :SERVICE COMPANY
LATI .DEG                                              :LATITUDE
LONG .DEG                                              :LONGITUDE
GDAT .                                                 :GeoDetic Datum
SECT .        28                                       :Section
RANG .        92W                                      :Range
TOWN .        154N                                     :Township
#-----------------------------------------------------------------------------
~PARAMETER INFORMATION
#MNEM.UNIT    VALUE                      DESCRIPTION
#---- -----   --------------------       ------------------------
RUN  .          ONE                      :RUN NUMBER
PDAT .        GROUND LEVEL               :Permanent Datum
EPD  .F         2111.000000              :Elevation of Permanent Datum above Mean Sea Level
LMF  .          KELLY BUSHING            :Logging Measured From (Name of Logging Elevation Reference)
APD  .F          18.000000               :Elevation of Depth Reference (LMF) above Permanent Datum
#-----------------------------------------------------------------------------
~CURVE INFORMATION
#MNEM.UNIT   API CODE                                  DESCRIPTION
#---- -----  --------                                  -----------------------
DEPT .F                                                :DEPTH (BOREHOLE) {F10.1}
AF20 .OHMM                                             :Array Induction Four Foot Resistivity A20 {F13.4}
AF30 .OHMM                                             :Array Induction Four Foot Resistivity A30 {F13.4}
AF60 .OHMM                                             :Array Induction Four Foot Resistivity A60 {F13.4}
AF90 .OHMM                                             :Array Induction Four Foot Resistivity A90 {F13.4}
AT20 .OHMM                                             :Array Induction Two Foot Resistivity A20 {F13.4}
AT30 .OHMM                                             :Array Induction Two Foot Resistivity A30 {F13.4}
AT60 .OHMM                                             :Array Induction Two Foot Resistivity A60 {F13.4}
AT90 .OHMM                                             :Array Induction Two Foot Resistivity A90 {F13.4}
DPHZ .CFCF                                             :HRDD Standard Resolution Density Porosity {F13.4}
GR_EDTC.GAPI                                           :Gamma Ray {F13.4}
HCAL .IN                                               :HRCC Cal. Caliper {F13.4}
HDRA .G/C3                                             :HRDD Density Correction {F13.4}
NPOR .CFCF                                             :Enhanced Thermal Neutron Porosity {F13.4}
PEFZ .                                                 :HRDD Standard Resolution Formation Photoelectric Factor {F13.4}
PXND_HILT.CFCF                                         :HILT Porosity CrossPlot {F13.4}
RHOZ .G/C3                                             :HRDD Standard Resolution Formation Density {F13.4}
TENS .LBF                                              :Cable Tension {F13.4}
#-----------------------------------------------------------------------------
# 
#     DEPT        AF20         AF30         AF60         AF90         AT20         AT30         AT60         AT90         DPHZ       GR_EDTC        HCAL         HDRA         NPOR         PEFZ      PXND_HILT       RHOZ         TENS
#
~A  
# ...
    8820.0      28.6770      32.1592      32.9999      41.5574      29.0143      31.5455      31.5461      35.9930       0.0083      15.4481       8.3600       0.0016       0.0302       5.2088       0.0251       2.6958    3902.0000
    8820.5      31.1553      34.4284      34.2432      43.5277      30.4188      33.6398      32.2450      37.6067       0.0092      13.6443       8.3453       0.0003       0.0249       5.1814       0.0233       2.6943    3849.0000
    8821.0      35.0826      38.4399      37.5335      46.2539      33.6811      36.1783      33.6517      40.2036       0.0093      13.4398       8.3453      -0.0007       0.0223       5.1781       0.0196       2.6940    3873.0000
    8821.5      40.9618      44.5103      44.1662      50.4252      38.3416      40.9132      36.0936      43.7708       0.0053      13.6037       8.3526       0.0009       0.0182       5.1824       0.0150       2.7009    3874.0000
    8822.0      49.9205      53.6424      55.1024      56.9375      50.1368      51.2331      48.8355      62.7249       0.0041      12.9444       8.3858       0.0023       0.0085       5.2028       0.0107       2.7029    3886.0000
    8822.5      63.9438      67.9229      72.7561      66.6384      66.8802      69.8998      68.2013      95.1948       0.0007      15.4022       8.4336       0.0041       0.0022       5.2012       0.0064       2.7088    3867.0000
    8823.0      86.1130      87.5439      92.0773      81.6101     115.5395     110.5317      99.8420     132.1759       0.0036      22.1287       8.5073       0.0026       0.0010       5.2414       0.0039       2.7038    3885.0000
    8823.5     111.0343     104.8876     101.1210      90.4896     187.8195     165.5523     120.9149     174.9898       0.0008      30.6394       8.5662       0.0025       0.0036       5.2269       0.0034       2.7086    3886.0000
    8824.0     118.1982     105.3733      92.7488      83.1456     197.6874     185.7858     143.3388     180.1134      -0.0009      35.8914       8.5809       0.0022       0.0048       5.2055       0.0046       2.7115    3847.0000
    8824.5     103.6940      89.8790      70.7804      67.5684     171.2108     135.8742      99.5079     125.4831      -0.0066      31.4589       8.5662       0.0038       0.0059       5.1481       0.0060       2.7213    3829.0000
    8825.0      80.2079      68.6388      49.4889      50.0696     121.6935      97.7852      59.9999      84.2593      -0.0037      24.2590       8.5294       0.0028       0.0072       5.1558       0.0087       2.7164    3824.0000
    8825.5      59.7378      50.1036      35.5797      36.7767      69.7939      57.3913      38.4479      57.4615      -0.0052      17.0441       8.4557       0.0040       0.0108       5.1610       0.0092       2.7189    3841.0000
    8826.0      44.5770      37.1361      25.6212      27.5594      44.0660      35.5513      25.1795      32.1151       0.0014      14.0947       8.4263       0.0031       0.0079       5.1705       0.0128       2.7076    3824.0000
    8826.5      34.7963      29.1354      20.1797      21.5905      36.5580      29.2528      19.6168      23.9073       0.0069      12.2924       8.4263       0.0038       0.0137       5.1671       0.0150       2.6981    3793.0000
    8827.0      28.5047      23.9888      16.8101      17.6400      31.8086      25.9346      16.9499      19.0477       0.0209      10.8144       8.4115       0.0020       0.0255       5.1784       0.0218       2.6742    3834.0000
    8827.5      24.0379      20.4183      14.4439      14.8227      24.8660      20.2142      13.8354      14.7458       0.0291      10.1589       8.3895       0.0024       0.0282       5.1618       0.0273       2.6603    3883.0000
    8828.0      20.8953      17.9273      12.8203      12.8868      20.3420      16.4480      11.6778      11.7511       0.0333       8.3582       8.3747       0.0036       0.0340       5.1638       0.0331       2.6530    3893.0000
    8828.5      18.4853      15.8756      11.5964      11.4125      18.8386      15.7846      11.1369      10.8661       0.0362       6.8130       8.3600       0.0049       0.0355       5.1755       0.0365       2.6481    3880.0000
    8829.0      16.5268      14.4465      10.6344      10.2512      17.4504      14.7469      10.2222       9.7881       0.0339       5.6660       8.3674       0.0108       0.0381       5.2797       0.0411       2.6520    3881.0000
    8829.5      14.9315      13.1626       9.9020       9.4203      16.3957      14.2112       9.8504       9.1532       0.0359       6.1560       8.3600       0.0132       0.0483       5.3333       0.0439       2.6487    3883.0000
    8830.0      13.3772      11.9395       9.3145       8.8567      14.3595      12.3314       9.2533       8.3802       0.0385       7.8673       8.3747       0.0124       0.0561       5.3345       0.0495       2.6442    3891.0000
    8830.5      12.0230      10.8786       8.7200       8.3460      11.8583      10.6367       8.4160       7.5452       0.0446       8.6866       8.3526       0.0056       0.0499       5.2611       0.0493       2.6338    3878.0000
    8831.0      11.1999      10.2640       8.3696       8.0632       9.6817       9.0043       7.4564       6.9047       0.0454       9.8068       8.4263       0.0009       0.0454       5.2190       0.0466       2.6324    3896.0000
    8831.5      10.9836      10.1608       8.4212       8.0786       9.0527       8.4702       7.1159       6.7204       0.0406      12.4304       8.5073      -0.0005       0.0455       5.2265       0.0407       2.6406    3883.0000
    8832.0      11.4201      10.6129       8.8265       8.5921      10.4667       9.8679       8.3042       7.6925       0.0335      15.3842       8.5883      -0.0005       0.0388       5.2378       0.0334       2.6527    3887.0000
    8832.5      12.2322      11.4735       9.4312       9.3324      12.7847      11.8930       9.4676       9.1574       0.0248      16.7911       8.6178       0.0010       0.0196       5.2154       0.0252       2.6676    3884.0000
    8833.0      13.1131      12.2315       9.9396      10.0394      15.1650      14.0414      10.9091      10.8412       0.0170      16.7825       8.6030       0.0039       0.0132       5.1946       0.0209       2.6809    3873.0000
    8833.5      13.8002      12.9531      10.4611      10.7890      14.9844      14.2941      10.8338      11.3452       0.0134      14.9788       8.6030       0.0070       0.0198       5.1917       0.0220       2.6872    3891.0000
    8834.0      14.3233      13.4604      10.8779      11.3885      13.6829      13.0974      10.3752      11.0666       0.0123      14.9133       8.5736       0.0095       0.0264       5.2045       0.0245       2.6889    3896.0000
    8834.5      14.9465      14.0460      11.3645      12.1286      13.2552      12.6012      10.2098      10.9920       0.0154      15.0770       8.5294       0.0081       0.0267       5.1444       0.0267       2.6837    3880.0000
    8835.0      15.9487      14.9643      12.0271      13.0150      14.7220      13.7038      10.9279      12.5601       0.0193      16.9107       8.5147       0.0047       0.0299       5.0789       0.0271       2.6770    3902.0000
    8835.5      17.3099      16.1811      12.9611      13.9211      18.2384      16.9618      13.0225      14.3222       0.0217      17.8900       8.4631       0.0017       0.0288       5.0065       0.0254       2.6730    3893.0000
    8836.0      18.9959      17.7639      14.0250      15.1267      21.7303      20.3082      15.0645      16.7790       0.0206      16.4231       8.3895       0.0018       0.0206       5.0082       0.0237       2.6748    3886.0000
    8836.5      20.5244      19.1154      14.9576      16.0020      21.9906      20.5673      15.5391      16.1703       0.0162      15.7293       8.3600       0.0042       0.0242       5.0815       0.0220       2.6824    3883.0000
    8837.0      21.4722      19.8707      15.5514      16.6033      22.4806      20.7995      15.7307      16.6839       0.0153      12.4544       8.3526       0.0044       0.0216       5.1558       0.0217       2.6838    3902.0000
