~VERSION INFORMATION
VERS.           2.0   :CWLS Log ASCII Standard - VERSION 2.0
WRAP.           NO    :One Line per depth step
PROD.  Schlumberger   :LAS Producer
PROG.  DLIS to ASCII 15C0-309                          :LAS Program name and version
CREA.        2008/02/20 22:50                          :LAS Creation date {YYYY/MM/DD hh:mm}
DLIS_CREA.  2008-Feb-20	21:27			       :DLIS Creation date and time {YYYY-MMM-DD hh:mm}
SOURCE.     MAIN_AIT_TLD_MCFL_CNL_046PUP.DLIS          :DLIS File Name
FILE-ID.     AIT_TLD_MCFL_CNL_046PUP                   :File Identification Number
#--------------------------------------------------
~WELL INFORMATION
#MNEM.UNIT      DATA             DESCRIPTION
#---- ------ --------------   -----------------------------
STRT .F      7700.0          :START DEPTH     
STOP .F      10520.0         :STOP DEPTH     
STEP .F       0.5            :STEP     
NULL .          -999.25      :NULL VALUE
COMP .        FIDELITY EXPLORATION & PRODUCTION CO.      :COMPANY
WELL .        DEADWOOD CANYON RANCH 43-28H             :WELL
FLD  .        WILDCAT                                  :FIELD
LOC  .        NE SE                                    :LOCATION
CNTY .        MOUNTRAIL                                :COUNTY
STAT .        N. DAKOTA                                :STATE
CTRY .                                                 :COUNTRY
API  .        33-061-00581                             :API NUMBER
UWI  .        3306100581                               :UNIQUE WELL ID
DATE .        20-Feb-2008                              :LOG DATE {DD-MMM-YYYY}
SRVC .        Schlumberger                             :SERVICE COMPANY
LATI .DEG                                              :LATITUDE
LONG .DEG                                              :LONGITUDE
GDAT .                                                 :GeoDetic Datum
SECT .        28                                       :Section
RANG .        92W                                      :Range
TOWN .        154N                                     :Township
#-----------------------------------------------------------------------------
~PARAMETER INFORMATION
#MNEM.UNIT    VALUE                      DESCRIPTION
#---- -----   --------------------       ------------------------
RUN  .          ONE                      :RUN NUMBER
PDAT .        GROUND LEVEL               :Permanent Datum
EPD  .F         2111.000000              :Elevation of Permanent Datum above Mean Sea Level
LMF  .          KELLY BUSHING            :Logging Measured From (Name of Logging Elevation Reference)
APD  .F          18.000000               :Elevation of Depth Reference (LMF) above Permanent Datum
#-----------------------------------------------------------------------------
~CURVE INFORMATION
#MNEM.UNIT   API CODE                                  DESCRIPTION
#---- -----  --------                                  -----------------------
DEPT .F                                                :DEPTH (BOREHOLE) {F10.1}
AF20 .OHMM                                             :Array Induction Four Foot Resistivity A20 {F13.4}
AF30 .OHMM                                             :Array Induction Four Foot Resistivity A30 {F13.4}
AF60 .OHMM                                             :Array Induction Four Foot Resistivity A60 {F13.4}
AF90 .OHMM                                             :Array Induction Four Foot Resistivity A90 {F13.4}
AT20 .OHMM                                             :Array Induction Two Foot Resistivity A20 {F13.4}
AT30 .OHMM                                             :Array Induction Two Foot Resistivity A30 {F13.4}
AT60 .OHMM                                             :Array Induction Two Foot Resistivity A60 {F13.4}
AT90 .OHMM                                             :Array Induction Two Foot Resistivity A90 {F13.4}
DPHZ .CFCF                                             :HRDD Standard Resolution Density Porosity {F13.4}
GR_EDTC.GAPI                                           :Gamma Ray {F13.4}
HCAL .IN                                               :HRCC Cal. Caliper {F13.4}
HDRA .G/C3                                             :HRDD Density Correction {F13.4}
NPOR .CFCF                                             :Enhanced Thermal Neutron Porosity {F13.4}
PEFZ .                                                 :HRDD Standard Resolution Formation Photoelectric Factor {F13.4}
PXND_HILT.CFCF                                         :HILT Porosity CrossPlot {F13.4}
RHOZ .G/C3                                             :HRDD Standard Resolution Formation Density {F13.4}
TENS .LBF                                              :Cable Tension {F13.4}
#-----------------------------------------------------------------------------
# 
#     DEPT        AF20         AF30         AF60         AF90         AT20         AT30         AT60         AT90         DPHZ       GR_EDTC        HCAL         HDRA         NPOR         PEFZ      PXND_HILT       RHOZ         TENS
#
~A  
# ...
    9572.5      39.0352      40.0469      40.1091      37.9611      40.6988      41.8842      42.1623      40.4861       0.0011      43.4760       8.4023      -0.0006       0.0482       4.4338       0.0457       2.7081    4165.0000
    9573.0      41.0250      42.1678      42.3167      40.0467      46.2549      46.7735      47.4062      44.8157       0.0029      38.4259       8.4189      -0.0009       0.0402       4.4866       0.0421       2.7051    4112.0000
    9573.5      41.9687      43.0972      43.1412      41.2957      48.3142      48.3176      48.6783      47.3309       0.0028      37.7097       8.4134      -0.0007       0.0398       4.4985       0.0404       2.7052    4051.0000
    9574.0      41.6176      42.7962      42.7537      41.1667      44.9982      45.1732      45.2195      43.8856      -0.0038      37.7304       8.4134       0.0018       0.0393       4.4384       0.0418       2.7165    4140.0000
    9574.5      41.2849      42.3866      42.7041      41.5280      40.3145      41.2846      42.2696      40.6239      -0.0061      40.2505       8.4300       0.0023       0.0458       4.3633       0.0428       2.7205    4129.0000
    9575.0      40.5485      41.6391      41.1997      40.4272      35.9560      36.9538      36.6035      36.2096      -0.0051      41.7147       8.4189       0.0018       0.0547       4.3511       0.0470       2.7188    4086.0000
    9575.5      41.7652      42.8826      42.4419      41.5248      36.9657      36.1001      34.6618      34.4945      -0.0018      41.7068       8.4079       0.0005       0.0544       4.3915       0.0475       2.7130    4133.0000
    9576.0      44.7157      45.8919      45.2302      44.2735      44.3703      44.1913      42.1877      42.8269       0.0027      40.3284       8.3913      -0.0008       0.0516       4.5124       0.0472       2.7053    4118.0000
    9576.5      49.2350      50.3284      49.3330      48.2158      49.7553      51.3111      50.2624      51.6919       0.0060      39.5674       8.3692      -0.0019       0.0518       4.6197       0.0456       2.6997    4106.0000
    9577.0      53.8234      55.7090      54.5055      52.9721      57.0021      57.2665      55.7824      55.6519       0.0068      34.9001       8.3968      -0.0023       0.0485       4.7046       0.0413       2.6984    4109.0000
    9577.5      59.6080      62.0311      60.8544      58.1153      64.6408      65.5811      64.2316      62.0274       0.0006      30.2402       8.4023      -0.0004       0.0331       4.7213       0.0324       2.7090    4049.0000
    9578.0      63.4583      66.6583      65.6125      61.8026      73.5723      77.6104      76.7638      68.5652      -0.0043      25.9666       8.3637       0.0012       0.0181       4.7214       0.0254       2.7173    4142.0000
    9578.5      65.0921      69.1427      68.3754      63.5507      72.4517      76.0170      75.5519      70.6106      -0.0006      26.4812       8.3526       0.0002       0.0235       4.7450       0.0245       2.7110    4089.0000
    9579.0      64.4867      69.2372      68.7799      63.2526      69.5194      74.8390      74.6662      69.0108       0.0033      28.2354       8.3747      -0.0004       0.0298       4.7471       0.0295       2.7044    4042.0000
    9579.5      62.4524      67.5623      67.3209      60.8266      64.7441      69.4329      69.6340      64.4416       0.0031      29.0937       8.3692       0.0004       0.0351       4.7296       0.0333       2.7046    4083.0000
    9580.0      60.1722      65.1159      65.0621      59.0520      58.7917      62.3552      61.5632      58.5131       0.0023      28.8415       8.3637       0.0008       0.0411       4.7112       0.0385       2.7061    4081.0000
    9580.5      58.4177      63.2933      63.2220      57.4225      55.6406      60.0768      60.5835      56.5017       0.0049      30.0496       8.3582      -0.0003       0.0466       4.7154       0.0415       2.7016    4055.0000
    9581.0      57.7588      62.2066      62.2596      56.4441      56.8445      60.5151      61.1190      56.4763       0.0096      32.0911       8.3747      -0.0017       0.0480       4.7290       0.0427       2.6936    4069.0000
    9581.5      58.2744      62.3228      62.9243      57.0581      58.0577      61.9475      63.7467      58.0187       0.0104      35.6213       8.4189      -0.0013       0.0436       4.7314       0.0416       2.6923    4066.0000
    9582.0      59.2801      63.0314      63.4739      58.3358      60.4149      63.2011      63.2185      59.0189       0.0091      34.9590       8.3747      -0.0003       0.0442       4.7303       0.0404       2.6944    4067.0000
    9582.5      60.0489      63.4854      63.1284      58.5206      61.5410      63.2664      63.3701      59.0258       0.0065      33.3200       8.3968       0.0005       0.0382       4.7164       0.0388       2.6989    4052.0000
    9583.0      61.7840      64.5280      63.6463      59.5669      61.5024      62.5149      64.1795      58.0820       0.0065      32.1786       8.4079       0.0003       0.0357       4.7279       0.0392       2.6989    4021.0000
    9583.5      62.1730      64.6082      63.1416      59.5536      65.4919      66.5148      64.7486      61.8856       0.0028      32.0170       8.4079       0.0010       0.0501       4.7225       0.0401       2.7052    4045.0000
    9584.0      61.6279      63.6370      61.2700      58.6095      68.2144      70.1339      62.5497      63.9527      -0.0016      30.6971       8.4189       0.0018       0.0375       4.7316       0.0367       2.7127    4076.0000
    9584.5      60.2193      61.9131      59.5989      57.6899      65.6633      67.1301      62.2623      62.6265      -0.0046      31.0889       8.4189       0.0018       0.0266       4.6926       0.0324       2.7179    4039.0000
    9585.0      58.5230      59.7186      57.6452      55.9250      58.5600      58.4792      55.9151      55.6617      -0.0019      33.2165       8.4079       0.0005       0.0344       4.6564       0.0337       2.7133    4026.0000
    9585.5      57.1584      58.1657      55.9395      54.8768      50.7516      50.3308      47.4748      47.3595       0.0012      36.6729       8.4189      -0.0007       0.0452       4.5962       0.0383       2.7079    4056.0000
    9586.0      57.1889      58.4590      56.2433      55.3207      52.1658      51.2928      48.7747      48.1678       0.0029      35.5313       8.4042      -0.0013       0.0495       4.6122       0.0420       2.7050    4073.0000
    9586.5      59.1524      61.1629      58.7718      57.1410      60.6929      60.7297      57.3379      55.9974       0.0022      30.9441       8.4079      -0.0016       0.0425       4.6640       0.0403       2.7063    4018.0000
    9587.0      62.7059      65.3012      62.8112      60.6313      63.9395      68.4347      65.0595      62.0473      -0.0015      29.8162       8.3913      -0.0008       0.0353       4.6844       0.0356       2.7126    4069.0000
    9587.5      65.3960      69.1230      66.3145      63.1357      64.6584      67.9631      66.2752      62.4776      -0.0024      30.7763       8.3968      -0.0001       0.0392       4.6772       0.0362       2.7142    4111.0000
    9588.0      69.5387      74.6201      71.9326      67.6133      67.9135      71.4454      68.4818      64.5748      -0.0037      32.3477       8.3637       0.0015       0.0438       4.6601       0.0358       2.7162    4076.0000
    9588.5      71.6917      77.3787      76.0800      70.5751      80.7053      88.3466      84.8513      78.2318      -0.0043      29.4996       8.3747       0.0032       0.0312       4.7647       0.0346       2.7173    4080.0000
    9589.0      72.1625      78.6146      77.9698      71.5437      82.3698      87.1362      86.0780      78.7737      -0.0092      25.5092       8.3692       0.0052       0.0247       4.8180       0.0291       2.7257    4146.0000
    9589.5      71.7281      78.7837      78.8020      71.8354      72.1079      80.3570      81.7500      74.1559      -0.0106      24.0739       8.3692       0.0056       0.0277       4.8088       0.0274       2.7281    4072.0000
