~VERSION INFORMATION
VERS.           2.0   :CWLS Log ASCII Standard - VERSION 2.0
WRAP.           NO    :One Line per depth step
PROD.  Schlumberger   :LAS Producer
PROG.  DLIS to ASCII 2.2                               :LAS Program name and version
CREA.        2008/02/27 08:04                          :LAS Creation date {YYYY/MM/DD hh:mm}
SOURCE.     Bakken_PNS_Final_Data.dlis  :DLIS File Name
FILE-ID.     Interpretation Chain - gf_user            :File Identification Number
#--------------------------------------------------
~WELL INFORMATION
#MNEM.UNIT      DATA             DESCRIPTION
#---- ------ --------------   -----------------------------
STRT .F        10539.0       :START DEPTH     
STOP .F         7660.0       :STOP DEPTH     
STEP .F           -0.5       :STEP     
NULL .          -999.25      :NULL VALUE
COMP .               :COMPANY
WELL .        Bakken            :WELL
FLD  .                                         :FIELD
LOC  .                                                 :LOCATION
CNTY .                                       :COUNTY
STAT .                                        :STATE
CTRY .        USA                                      :COUNTRY
API  .                                                 :API NUMBER
UWI  .                    :UNIQUE WELL ID
DATE .                                                 :LOG DATE
SRVC .        Schlumberger                             :SERVICE COMPANY
LATI .DEG     48.129                                   :LATITUDE
LONG .DEG     -102.505                                 :LONGITUDE
GDAT .                                                 :GeoDetic Datum
#-----------------------------------------------------------------------------
~PARAMETER INFORMATION
#MNEM.UNIT    VALUE                      DESCRIPTION
#---- -----   --------------------       ------------------------
RUN  .                                   :RUN NUMBER
PDAT .        GROUND LEVEL               :Permanent Datum
EPD  .F         2111.000000              :Elevation of Permanent Datum above Mean Sea Level
EPD  .F         2111.000000              :Elevation of tool zero above Mean Sea Level
LMF  .          KELLY BUSHING            :Logging Measured From (Name of Logging Elevation Reference)
APD  .F          18.000000               :Elevation of Depth Reference (LMF) above Permanent Datum
#-----------------------------------------------------------------------------
~CURVE INFORMATION
#MNEM.UNIT   API CODE                                  DESCRIPTION
#---- -----  --------                                  -----------------------
DEPT .F                                                :DEPTH (BOREHOLE) {F10.1}
MAXXENE_OVERALL.                                       :Overall estimate of maximum cross energy {F13.4}
MINXENE_OVERALL.                                       :Overall estimate of minimum cross energy {F13.4}
PR   .                                                 :Poisson's Ratio {F13.4}
VPVS .                                                 :Compressional to Shear Velocity Ratio {F13.4}
DTSM .US/F                                             :Delta-T Shear {F13.4}
DTCO .US/F                                             :Delta-T Compressional {F13.4}
HD2_PPC2.IN                                            :PPC2 Hole Diameter 2 {F13.4}
HD1_PPC2.IN                                            :PPC2 Hole Diameter 1 {F13.4}
HD2_PPC1.IN                                            :PPC1 Hole Diameter 2 {F13.4}
HD1_PPC1.IN                                            :PPC1 Hole Diameter 1 {F13.4}
GR_EDTC.GAPI                                           :Gamma Ray {F13.4}
BS   .IN                                               :Bit Size {F13.4}
AT90 .OHMM                                             :Array Induction Two Foot Resistivity A90 {F13.4}
AT60 .OHMM                                             :Array Induction Two Foot Resistivity A60 {F13.4}
AT30 .OHMM                                             :Array Induction Two Foot Resistivity A30 {F13.4}
AT20 .OHMM                                             :Array Induction Two Foot Resistivity A20 {F13.4}
AT10 .OHMM                                             :Array Induction Two Foot Resistivity A10 {F13.4}
RHOZ .G/C3                                             :HRDD Standard Resolution Formation Density {F13.4}
PEFZ .                                                 :HRDD Standard Resolution Formation Photoelectric Factor {F13.4}
NPOR .CFCF                                             :Enhanced Thermal Neutron Porosity in Selected Lithology {F13.4}
TDEP ..1IN                                             : {I11}
#-----------------------------------------------------------------------------
# 
#     DEPT    MAXXENE_OVER MINXENE_OVER     PR           VPVS         DTSM         DTCO       HD2_PPC2     HD1_PPC2     HD2_PPC1     HD1_PPC1     GR_EDTC        BS           AT90         AT60         AT30         AT20         AT10         RHOZ         PEFZ         NPOR         TDEP
#             ALL          ALL
~A  
# ...
   10162.0      10.0191       1.7183       0.2221       1.6731     188.0000     112.3636       9.0170       8.7734       9.0096       8.8320     701.5330       8.7500     175.6211     199.5512     207.5216     178.2395     130.5676       2.1530       3.2321       0.4172 1176422400
   10161.5      10.0017       1.7188       0.2054       1.6424     188.7273     114.9091       9.0215       8.7504       8.9967       8.8320     667.8857       8.7500     152.4560     180.9064     182.4646     157.6917     117.7876       2.1447       3.2828       0.4402 1176421888
   10161.0      10.3316       1.7625       0.2142       1.6582     190.5455     114.9091       9.0212       8.7621       8.9967       8.8320     648.6084       8.7500     133.3337     185.8045     160.7320     142.6071     105.1641       2.1464       3.2973       0.4577 1176421376
   10160.5      10.9582       1.8489       0.2215       1.6719     192.7273     115.2727       9.0039       8.7730       9.0000       8.8335     658.4433       8.7500     126.8184     176.5049     148.9514     133.0114      98.2683       2.1508       3.2756       0.3853 1176420864
   10160.0      11.0395       1.7918       0.2356       1.7003     196.0000     115.2727       9.0215       8.7738       9.0096       8.8320     669.3492       8.7500     151.7373     207.7330     172.9836     156.0681     107.7389       2.1464       3.2469       0.3763 1176420352
   10159.5      11.3791       1.8195       0.2394       1.7084     196.0000     114.7273       9.0346       8.7621       9.0096       8.8320     694.4929       8.7500     195.0133     234.7359     201.0061     175.6149     117.5741       2.1371       3.2685       0.4234 1176419840
   10159.0      11.6501       1.8701       0.2444       1.7193     196.0000     114.0000       9.0081       8.7738       8.9967       8.8320     723.4949       8.7500     185.9268     226.1727     205.4406     172.3401     123.5963       2.1234       3.3490       0.4295 1176419328
   10158.5      11.6767       1.8394       0.2423       1.7147     196.7273     114.7273       9.0124       8.7746       8.9839       8.8320     721.2023       8.7500     256.8087     204.5959     219.6590     171.1732     130.3770       2.1202       3.4518       0.4758 1176418816
   10158.0      11.6813       1.8040       0.2473       1.7259     201.4545     116.7273       9.0081       8.7621       9.0096       8.8320     705.0706       8.7500     162.3513     190.7486     188.3071     166.2079     136.5371       2.1149       3.5932       0.4966 1176418304
   10157.5      11.9106       1.8390       0.2542       1.7419     206.1818     118.3636       9.0215       8.7504       9.0225       8.8320     668.4988       8.7500     104.9041     125.0725     130.2852     132.8581     129.7971       2.1221       3.6704       0.5230 1176417792
   10157.0      12.2979       1.9199       0.2550       1.7439     208.0000     119.2727       9.0212       8.7621       9.0096       8.8320     590.8093       8.7500      82.0215      85.0110      85.7317      93.3632     110.4391       2.1311       3.7354       0.4725 1176417280
   10156.5      12.4973       1.9068       0.2407       1.7112     202.5455     118.3636       9.0170       8.7730       8.9967       8.8439     444.1608       8.7500      58.9670      56.4035      52.5478      61.8281      85.4827       2.1563       3.7932       0.5005 1176416768
   10156.0      12.4963       1.7813       0.2185       1.6661     190.5455     114.3636       9.0215       8.7621       9.0111       8.8320     267.7384       8.7500      40.6903      38.0287      38.1747      43.7153      49.3764       2.2142       3.9283       0.4741 1176416256
   10155.5      12.4722       1.7180       0.1844       1.6076     169.8182     105.6364       9.0212       8.7856       8.9967       8.8320     142.9047       8.7500      20.8606      20.9673      21.3498      23.4011      23.8730       2.3353       4.1247       0.3682 1176415744
   10155.0      12.4589       1.7091       0.2670       1.7738     142.5455      80.3636       9.0212       8.7856       8.9968       8.8320      84.7725       8.7500      10.5834      10.4379      10.7074      10.8359      11.2523       2.4701       4.3011       0.2088 1176415232
   10154.5      12.4338       1.7090       0.2977       1.8632     128.7273      69.0908       9.0255       8.7746       8.9967       8.8320      60.9762       8.7500       6.9581       7.2237       7.2019       7.0883       6.6779       2.5816       4.4448       0.1229 1176414720
   10154.0      12.3739       1.7204       0.2935       1.8496     118.5455      64.0908       9.0303       8.7848       8.9967       8.8439      52.8550       8.7500       6.3100       6.4124       6.5061       6.4758       6.3277       2.6360       4.5047       0.0683 1176414208
   10153.5      12.2119       1.6309       0.3071       1.8954     112.0000      59.0909       9.0215       8.7738       8.9967       8.8320      55.1133       8.7500       6.7770       7.1579       6.9835       7.0934       7.6010       2.6642       4.5637       0.0482 1176413696
   10153.0      12.1425       1.6286       0.2935       1.8495     107.2727      58.0000       9.0079       8.8090       9.0096       8.8439      63.9211       8.7500       7.9903       8.4940       8.5105       8.5786       8.9501       2.6655       4.5938       0.0507 1176413184
   10152.5      12.0055       1.6983       0.2752       1.7957     105.4545      58.7273       9.0436       8.7965       9.0096       8.8439      69.5314       8.7500       7.2891       7.7196       7.9365       8.3517       8.8553       2.6568       4.5154       0.0699 1176412672
   10152.0      11.4359       1.6724       0.2474       1.7262     105.4545      61.0909       9.0652       8.7863       9.0096       8.8439      73.1362       8.7500       6.1593       6.4456       6.4925       6.5581       6.8538       2.6512       4.3025       0.0828 1176412160
   10151.5      11.3404       1.7168       0.2242       1.6772     105.8182      63.0909       9.0740       8.8090       9.0225       8.8439      77.1425       8.7500       5.4537       5.6647       5.6429       5.6121       5.7678       2.6493       4.0759       0.0822 1176411648
   10151.0      11.2434       1.8031       0.2127       1.6554     106.5455      64.3636       9.0610       8.8208       9.0225       8.8797      80.3090       8.7500       5.0505       5.1888       5.2338       5.3231       5.4171       2.6447       3.9556       0.0903 1176411136
   10150.5      10.9108       1.7402       0.2137       1.6573     107.2727      64.7273       9.0742       8.8208       9.0515       8.8811      84.5583       8.7500       4.6354       4.7427       4.7875       4.9081       4.9651       2.6366       3.9222       0.0855 1176410624
   10150.0      10.3269       1.5627       0.2049       1.6415     106.5455      64.9091       9.0436       8.8318       9.0482       8.8797      79.8048       8.7500       4.2943       4.3617       4.4234       4.5275       4.6389       2.6345       3.9007       0.0848 1176410112
   10149.5      10.2392       1.6132       0.2075       1.6461     106.5455      64.7273       9.0610       8.8090       9.0353       8.8677      74.7153       8.7500       4.0011       4.0625       4.0892       4.1860       4.3527       2.6395       3.8892       0.0955 1176409600
   10149.0       9.8729       1.5416       0.2075       1.6461     106.5455      64.7273       9.0873       8.8677       9.0354       8.8439      70.6485       8.7500       3.7007       3.7282       3.7541       3.8356       3.9543       2.6376       3.8477       0.0937 1176409088
   10148.5       9.5490       1.5108       0.2127       1.6554     106.5455      64.3636       9.0740       8.8442       9.0998       8.8915      68.6650       8.7500       3.6511       3.6787       3.6755       3.7484       3.8028       2.6299       3.7913       0.0889 1176408576
   10148.0       9.4643       1.5629       0.2187       1.6667     107.2727      64.3636       9.0915       8.8215       9.0482       8.8797      74.3424       8.7500       3.6683       3.7288       3.7459       3.7895       3.8232       2.6265       3.7177       0.0934 1176408064
