~VERSION INFORMATION
VERS.           2.0   :CWLS Log ASCII Standard - VERSION 2.0
WRAP.           NO    :One Line per depth step
PROD.  Schlumberger   :LAS Producer
PROG.  DLIS to ASCII 15C0-309                          :LAS Program name and version
CREA.        2008/02/20 22:50                          :LAS Creation date {YYYY/MM/DD hh:mm}
DLIS_CREA.  2008-Feb-20	21:27			       :DLIS Creation date and time {YYYY-MMM-DD hh:mm}
SOURCE.     MAIN_AIT_TLD_MCFL_CNL_046PUP.DLIS          :DLIS File Name
FILE-ID.     AIT_TLD_MCFL_CNL_046PUP                   :File Identification Number
#--------------------------------------------------
~WELL INFORMATION
#MNEM.UNIT      DATA             DESCRIPTION
#---- ------ --------------   -----------------------------
STRT .F      7700.0          :START DEPTH     
STOP .F      10520.0         :STOP DEPTH     
STEP .F       0.5            :STEP     
NULL .          -999.25      :NULL VALUE
COMP .        FIDELITY EXPLORATION & PRODUCTION CO.      :COMPANY
WELL .        DEADWOOD CANYON RANCH 43-28H             :WELL
FLD  .        WILDCAT                                  :FIELD
LOC  .        NE SE                                    :LOCATION
CNTY .        MOUNTRAIL                                :COUNTY
STAT .        N. DAKOTA                                :STATE
CTRY .                                                 :COUNTRY
API  .        33-061-00581                             :API NUMBER
UWI  .        3306100581                               :UNIQUE WELL ID
DATE .        20-Feb-2008                              :LOG DATE {DD-MMM-YYYY}
SRVC .        Schlumberger                             :SERVICE COMPANY
LATI .DEG                                              :LATITUDE
LONG .DEG                                              :LONGITUDE
GDAT .                                                 :GeoDetic Datum
SECT .        28                                       :Section
RANG .        92W                                      :Range
TOWN .        154N                                     :Township
#-----------------------------------------------------------------------------
~PARAMETER INFORMATION
#MNEM.UNIT    VALUE                      DESCRIPTION
#---- -----   --------------------       ------------------------
RUN  .          ONE                      :RUN NUMBER
PDAT .        GROUND LEVEL               :Permanent Datum
EPD  .F         2111.000000              :Elevation of Permanent Datum above Mean Sea Level
LMF  .          KELLY BUSHING            :Logging Measured From (Name of Logging Elevation Reference)
APD  .F          18.000000               :Elevation of Depth Reference (LMF) above Permanent Datum
#-----------------------------------------------------------------------------
~CURVE INFORMATION
#MNEM.UNIT   API CODE                                  DESCRIPTION
#---- -----  --------                                  -----------------------
DEPT .F                                                :DEPTH (BOREHOLE) {F10.1}
AF20 .OHMM                                             :Array Induction Four Foot Resistivity A20 {F13.4}
AF30 .OHMM                                             :Array Induction Four Foot Resistivity A30 {F13.4}
AF60 .OHMM                                             :Array Induction Four Foot Resistivity A60 {F13.4}
AF90 .OHMM                                             :Array Induction Four Foot Resistivity A90 {F13.4}
AT20 .OHMM                                             :Array Induction Two Foot Resistivity A20 {F13.4}
AT30 .OHMM                                             :Array Induction Two Foot Resistivity A30 {F13.4}
AT60 .OHMM                                             :Array Induction Two Foot Resistivity A60 {F13.4}
AT90 .OHMM                                             :Array Induction Two Foot Resistivity A90 {F13.4}
DPHZ .CFCF                                             :HRDD Standard Resolution Density Porosity {F13.4}
GR_EDTC.GAPI                                           :Gamma Ray {F13.4}
HCAL .IN                                               :HRCC Cal. Caliper {F13.4}
HDRA .G/C3                                             :HRDD Density Correction {F13.4}
NPOR .CFCF                                             :Enhanced Thermal Neutron Porosity {F13.4}
PEFZ .                                                 :HRDD Standard Resolution Formation Photoelectric Factor {F13.4}
PXND_HILT.CFCF                                         :HILT Porosity CrossPlot {F13.4}
RHOZ .G/C3                                             :HRDD Standard Resolution Formation Density {F13.4}
TENS .LBF                                              :Cable Tension {F13.4}
#-----------------------------------------------------------------------------
# 
#     DEPT        AF20         AF30         AF60         AF90         AT20         AT30         AT60         AT90         DPHZ       GR_EDTC        HCAL         HDRA         NPOR         PEFZ      PXND_HILT       RHOZ         TENS
#
~A  
# ...
   10307.5       3.2645       3.2537       3.2349       3.1509       3.5333       3.5385       3.5342       3.4444       0.0233      74.4387       8.3615       0.0011       0.1069       4.2451       0.1047       2.6702    4302.0000
   10308.0       3.0471       3.0389       3.0229       2.9561       3.0106       2.9917       2.9574       2.9196       0.0274      80.2025       8.3703       0.0003       0.1345       4.2207       0.1135       2.6631    4262.0000
   10308.5       2.8206       2.8095       2.7986       2.7488       2.7488       2.7526       2.7330       2.7203       0.0309      88.6344       8.3526      -0.0002       0.1558       4.2483       0.1222       2.6572    4302.0000
   10309.0       2.6409       2.6305       2.6215       2.5876       2.5967       2.6000       2.6030       2.5967       0.0307      98.7263       8.3659       0.0004       0.1574       4.2819       0.1264       2.6575    4301.0000
   10309.5       2.5425       2.5308       2.5264       2.4980       2.3123       2.2906       2.2849       2.2847       0.0323     103.3464       8.3526      -0.0005       0.1545       4.3215       0.1277       2.6547    4320.0000
   10310.0       2.5296       2.5168       2.5153       2.4904       2.1912       2.1629       2.1527       2.1590       0.0325     105.4182       8.3600      -0.0021       0.1818       4.3141       0.1324       2.6544    4301.0000
   10310.5       2.5873       2.5718       2.5712       2.5511       2.5295       2.5051       2.4919       2.5058       0.0290      97.2239       8.3659      -0.0027       0.1601       4.2515       0.1255       2.6605    4271.0000
   10311.0       2.6827       2.6660       2.6688       2.6532       2.8782       2.8847       2.8579       2.8720       0.0213      88.4985       8.3526      -0.0012       0.1203       4.1470       0.1140       2.6736    4278.0000
   10311.5       2.7849       2.7660       2.7602       2.7450       2.9115       2.8845       2.8663       2.8806       0.0190      76.8657       8.3615      -0.0004       0.1208       4.1026       0.1081       2.6775    4278.0000
   10312.0       2.8486       2.8281       2.8240       2.8059       2.9069       2.8988       2.8678       2.8911       0.0251      75.4743       8.3453      -0.0024       0.1263       4.1425       0.1096       2.6671    4281.0000
   10312.5       2.9095       2.8982       2.8956       2.8697       2.8747       2.8730       2.8604       2.8491       0.0318      75.3752       8.3350      -0.0045       0.1308       4.1958       0.1153       2.6556    4284.0000
   10313.0       2.9601       2.9498       2.9360       2.9219       2.8091       2.7833       2.7373       2.7794       0.0314      81.4979       8.3526      -0.0043       0.1412       4.1952       0.1191       2.6562    4237.0000
   10313.5       3.0714       3.0669       3.0465       3.0329       2.9298       2.9495       2.9016       2.9402       0.0266      80.7471       8.3342      -0.0026       0.1508       4.1794       0.1212       2.6645    4320.0000
   10314.0       3.2179       3.2069       3.1739       3.1657       3.1842       3.1781       3.1110       3.1631       0.0209      79.3401       8.3526      -0.0012       0.1491       4.1720       0.1184       2.6743    4225.0000
   10314.5       3.3705       3.3788       3.3364       3.3305       3.5642       3.5172       3.4347       3.4741       0.0199      75.2759       8.3394      -0.0015       0.1417       4.2035       0.1123       2.6759    4274.0000
   10315.0       3.5132       3.5430       3.4907       3.4850       3.8838       3.9431       3.8576       3.8326       0.0204      72.5450       8.3416      -0.0022       0.1114       4.2242       0.1054       2.6751    4237.0000
   10315.5       3.6004       3.6471       3.5783       3.5937       3.6813       3.7454       3.6249       3.5550       0.0230      69.7100       8.3438      -0.0037       0.1171       4.2558       0.1042       2.6706    4302.0000
   10316.0       3.5823       3.6363       3.5755       3.5786       3.4720       3.5921       3.4687       3.4221       0.0246      66.0350       8.3453      -0.0055       0.1238       4.3078       0.1047       2.6679    4257.0000
   10316.5       3.4604       3.5210       3.4581       3.4522       3.6424       3.7569       3.5712       3.5246       0.0228      63.9351       8.3394      -0.0057       0.1137       4.3745       0.1040       2.6710    4265.0000
   10317.0       3.2429       3.3040       3.2392       3.2296       3.8122       3.8763       3.7078       3.5806       0.0203      65.2640       8.3482      -0.0047       0.1115       4.4145       0.1016       2.6752    4290.0000
   10317.5       2.9616       3.0215       2.9632       2.9505       3.2655       3.3779       3.2274       3.1304       0.0152      66.7107       8.3438      -0.0009       0.1110       4.3318       0.1018       2.6840    4274.0000
   10318.0       2.6710       2.7270       2.6816       2.6508       2.5545       2.6088       2.5527       2.5183       0.0163      72.1151       8.3394       0.0013       0.1319       4.2097       0.1097       2.6821    4252.0000
   10318.5       2.4274       2.4777       2.4483       2.4162       2.2587       2.2943       2.2575       2.2465       0.0211      78.1278       8.3394       0.0017       0.1653       4.1205       0.1230       2.6739    4317.0000
   10319.0       2.2405       2.2826       2.2652       2.2314       2.2435       2.2561       2.2194       2.2026       0.0282      88.6201       8.3438      -0.0000       0.1588       4.1412       0.1311       2.6617    4241.0000
   10319.5       2.0861       2.1222       2.1178       2.0885       2.1072       2.1557       2.1033       2.1532       0.0307      98.8087       8.3453      -0.0017       0.1672       4.1928       0.1355       2.6574    4291.0000
   10320.0       1.9614       1.9910       1.9914       1.9744       2.0105       2.0194       2.0130       2.0179       0.0282     103.5024       8.3482      -0.0015       0.1779       4.1936       0.1396       2.6618    4305.0000
   10320.5       1.8694       1.8950       1.9170       1.8863       1.8402       1.8742       1.8888       1.9160       0.0264     106.6410       8.3394      -0.0005       0.1786       4.1504       0.1482       2.6648    4272.0000
   10321.0       1.8241       1.8460       1.8814       1.8769       1.6389       1.6884       1.7158       1.7361       0.0268     110.6256       8.3350      -0.0004       0.2424       4.1656       0.1621       2.6642    4325.0000
   10321.5       1.8470       1.8648       1.9037       1.9222       1.5866       1.6034       1.6374       1.6488       0.0246     107.8928       8.3394      -0.0017       0.2722       4.3126       0.1659       2.6680    4290.0000
   10322.0       1.9436       1.9559       1.9861       2.0145       1.7851       1.7978       1.8458       1.9150       0.0127      95.0100       8.3394      -0.0016       0.2342       4.4894       0.1498       2.6882    4263.0000
   10322.5       2.0766       2.0815       2.0880       2.0935       2.2370       2.2281       2.2130       2.2837       0.0025      75.1656       8.3394      -0.0007       0.1584       4.6119       0.1268       2.7057    4271.0000
   10323.0       2.2117       2.2107       2.1899       2.2035       2.7763       2.8011       2.6782       2.9086       0.0005      63.6481       8.3342       0.0007       0.1092       4.5789       0.1082       2.7092    4281.0000
   10323.5       2.2645       2.2566       2.2197       2.2233       2.5862       2.5465       2.3854       2.4943       0.0072      63.2639       8.3217       0.0012       0.1121       4.4827       0.1089       2.6977    4315.0000
   10324.0       2.2587       2.2389       2.2060       2.2004       2.2034       2.1714       2.1596       2.1742       0.0148      71.9236       8.3305       0.0003       0.1516       4.4412       0.1178       2.6847    4312.0000
   10324.5       2.2546       2.2439       2.2247       2.2004       2.1132       2.1017       2.0737       2.0715       0.0115      79.8973       8.3217       0.0010       0.1764       4.4593       0.1249       2.6904    4291.0000
