~VERSION INFORMATION
VERS.           1.2   :CWLS Log ASCII Standard - VERSION 1.2
WRAP.           NO    :One Line per depth step
PROD.  Schlumberger   :LAS Producer
PROG.  DLIS to ASCII 10C0-306                          :LAS Program name and version
CREA.        2008/03/26 10:13                          :LAS Creation date {YYYY/MM/DD hh:mm}
SOURCE.     774092c5-b8df-4536-8e1f-80ab68e4b553       :DLIS File Name
#--------------------------------------------------
~WELL INFORMATION
#MNEM.UNIT      DATA             DESCRIPTION
#---- ------ --------------   -----------------------------
STRT .F      9858.5000       :START DEPTH     
STOP .F      10117.5000      :STOP DEPTH     
STEP .F       0.5000         :STEP       
NULL .          -999.25      :NULL VALUE
COMP .                 COMPANY:                   
WELL .                    WELL:                      
FLD  .                   FIELD:                            
LOC  .                LOCATION:                                     
CNTY .                  COUNTY:                            
STAT .                   STATE:                            
CTRY .                 COUNTRY:                                     
SRVC .         SERVICE COMPANY:  Schlumberger                       
API  .              API NUMBER:                         
DATE .                LOG DATE:  
UWI  .          UNIQUE WELL ID:                                     
#-----------------------------------------------------------------------------
~PARAMETER INFORMATION
#MNEM.UNIT    VALUE                      DESCRIPTION
#---- -----   --------------------       ------------------------
CN   .                  :Company Name
WN   .                   :Well Name
FN   .                            :Field Name
FL   .                                   :Field Location
FL1  .                                   :Field Location Line 1
COUN .                          :County or Rig Name
STAT .                          :State or Province
NATI .                                   :Nation
DATE .                        :Date as Month-Day-Year
APIN .                       :API Serial Number
SECT .                                 :Section
TOWN .                              :Township
RANG .                               :Range
DMF  .        KELLY BUSHING              :Drilling Measured From
LMF  .        KELLY BUSHING              :Log Measured From
PDAT .        GROUND LEVEL               :Permanent Datum
ENGI .                         :Engineer's Name
WITN .                    :Witness's Name
LATI .                                   :Latitude
LONG .                                   :Longitude
LUL  .        WILLISTON                  :Logging Unit Location
LUN  .                              :Logging Unit Number
RUN  .        ONE                        :Run Number
SON  .        12018689                   :Service Order Number
BHT  .DEGF     191.00000                 :Bottom Hole Temperature (used in calculations)
BS   .IN         8.75000                 :Bit Size
DFD  .LB/G       9.80000                 :Drilling Fluid Density
DFV  .S         58.00000                 :Drilling Fluid Viscosity
DFL  .C3         1.60000                 :Drilling Fluid Loss
RMFS .                                   :Resistivity of Mud Filtrate Sample
EKB  .                                   :Elevation of Kelly Bushing
EGL  .                                   :Elevation of Ground Level
BLI  .F       10124.00000                :Bottom Log Interval
BSAL .                                   :Borehole Salinity
FLEV .                                   :Fluid Level
MCST .                                   :Mud Cake Sample Temperature
MFST .                                   :Mud Filtrate Sample Temperature
MRT  .DEGF     191.00000                 :Maximum Recorded Temperature
MST  .                                   :Mud Sample Temperature
RMCS .                                   :Resistivity of Mud Cake Sample
RMS  .                                   :Resistivity of Mud Sample
RW   .OHMM       1.00000                 :Resistivity of Connate Water
TDD  .F       10124.00000                :Total Depth - Driller
TDL  .F       10116.00000                :Total Depth - Logger
TLI  .F       2124.00000                 :Top Log Interval
HIDE .                                   :Header Identifier
MATR .        LIME                       :Rock Matrix for Neutron Porosity Corrections
DFT  .        OIL BASE MUD               :Drilling Fluid Type
DFPH .                                   :Drilling Fluid PH
MCSS .                                   :Mud Cake Sample Source
MFSS .                                   :Mud Filtrate Sample Source
MSS  .        NONE                       :Mud Sample Source
OS1  .                                   :Other Services Line 1
OS2  .                                   :Other Services Line 2
OS3  .                                   :Other Services Line 3
OS4  .                                   :Other Services Line 4
OS5  .                                   :Other Services Line 5
R1   .                                   :Remark Line 1
R2   .        ALL LOGS RECORDED IN CENTRAL STANDARD TIME :Remark Line 2
R3   .        TOOL STRING RUN AS PER TOOL SKETCH :Remark Line 3
R4   .        TEMPERATURE RECORDED FROM HILT :Remark Line 4
R5   .                                   :Remark Line 5
R6   .        MATRIX  LIMESTONE          :Remark Line 6
R7   .        DENSITY  2.71 G/CC         :Remark Line 7
R8   .                                   :Remark Line 8
TCS  .        7 00                       :Time Circulation Stopped
TLAB .                                   :Time Logger At Bottom
EPD  .C3                                 :Elevation of Permanent Datum above Mean Sea Level
APD  .                                   :Elevation of Depth Reference (LMF) above Permanent Datum
#-----------------------------------------------------------------------------
~CURVE INFORMATION
#MNEM.UNIT   API CODE                                  DESCRIPTION
#---- -----  --------                                  -----------------------
DEPT .F                                                :DEPTH (BOREHOLE) {F12.4}
BFV  .CFCF                                             :Bound Fluid Volume {F11.4}
CBP1 .CFCF                                             :CMR Bin Porosity 1 {F11.4}
CBP2 .CFCF                                             :CMR Bin Porosity 2 {F11.4}
CBP3 .CFCF                                             :CMR Bin Porosity 3 {F11.4}
CBP4 .CFCF                                             :CMR Bin Porosity 4 {F11.4}
CBP5 .CFCF                                             :CMR Bin Porosity 5 {F11.4}
CBP6 .CFCF                                             :CMR Bin Porosity 6 {F11.4}
CBP7 .CFCF                                             :CMR Bin Porosity 7 {F11.4}
CBP8 .CFCF                                             :CMR Bin Porosity 8 {F11.4}
CDF  .LBF                                              :Calibrated Downhole Force {F11.4}
CMFF .CFCF                                             :CMR Free Fluid {F11.4}
CMFF_SIG.CFCF                                          :Standard Deviation of CMR Free Fluid {F11.4}
CMR_PHI_CONV.                                          :CMR Porosity Conversion factor {F11.4}
CMRP_3MS.CFCF                                          :CMR 3ms Porosity {F11.4}
CTEM .DEGF                                             :Cartridge Temperature {F11.4}
ECST .DEGF                                             :ECS Temperature {F11.4}
GR_EDTC.GAPI                                           :Gamma Ray {F11.4}
GTEM .DEGF                                             :Generalized Borehole Temperature {F11.4}
HCGR .GAPI                                             :HNGS Computed Gamma Ray {F11.4}
HFK  .CFCF                                             :HNGS Formation Potassium Concentration {F11.4}
HSGR .GAPI                                             :HNGS Standard Gamma Ray {F11.4}
HTHO .PPM                                              :HNGS Formation Thorium Concentration {F11.4}
HURA .PPM                                              :HNGS Formation Uranium Concentration {F11.4}
KSDR .MD                                               :Permeability from CMR - SDR Model {F11.4}
KTIM .MD                                               :Permeability from CMR - Timur Model {F11.4}
QCPMT.                                                 :Photomultiplier Tube Quality Control {F11.4}
T2LM .MS                                               :T2 Logarithmic Mean {F11.4}
T2LM_SIG.MS                                            :Standard Deviation of T2 Logarithmic Mean {F11.4}
TCMR .CFCF                                             :Total CMR Porosity {F11.4}
TENS .LBF                                              :Cable Tension {F11.4}
#-----------------------------------------------------------------------------
# 
#      DEPT        BFV        CBP1       CBP2       CBP3       CBP4       CBP5       CBP6       CBP7       CBP8       CDF        CMFF     CMFF_SIG  CMR_PHI_CO  CMRP_3MS     CTEM       ECST     GR_EDTC      GTEM       HCGR       HFK        HSGR       HTHO       HURA       KSDR       KTIM      QCPMT       T2LM     T2LM_SIG     TCMR       TENS
#                                                                                                                                                   NV
~A  
# ...
  10038.5000     0.0599     0.0143     0.0202     0.0146     0.0109     0.0000     0.0000     0.0002     0.0010  1030.2390     0.0012     0.0047     0.0006     0.0266   187.2943    77.5960    91.1656    43.3053    77.4619     0.0291    93.5129     7.7861     2.3572     0.0005     0.0001     0.0097     2.9018  -999.2500     0.0611  3941.0000
  10039.0000     0.0607     0.0201     0.0298     0.0060     0.0048     0.0015     0.0003     0.0036     0.0038  1039.8375     0.0092     0.0060     0.0006     0.0200   187.2943    77.5960    97.9252    43.3040    86.3051     0.0323   102.2383     8.7179     2.3647     0.0011     0.0055     0.0000     3.3884  -999.2500     0.0699  3951.0000
  10039.5000     0.0553     0.0197     0.0316     0.0040     0.0000     0.0037     0.0041     0.0009     0.0007  1030.2390     0.0095     0.0047     0.0006     0.0135   187.2943    77.5960   103.5096    43.3028    89.1240     0.0331   104.4132     9.1684     2.2133     0.0004     0.0052     0.0241     2.4681  -999.2500     0.0648  3920.0000
  10040.0000     0.0497     0.0133     0.0267     0.0094     0.0003     0.0066     0.0003     0.0000     0.0061  1034.8606     0.0131     0.0051     0.0006     0.0227   187.2943    77.5960    96.9451    43.3016    84.7836     0.0314    99.7813     8.7852     2.1697     0.0014     0.0107     0.0184     4.7099  -999.2500     0.0627  3917.0000
  10040.5000     0.0479     0.0099     0.0187     0.0172     0.0021     0.0070     0.0005     0.0000     0.0000  1034.8606     0.0074     0.0038     0.0006     0.0267   187.2943    78.2983    90.5683    43.3004    79.8998     0.0296    94.1228     8.2368     1.9724     0.0004     0.0023     0.0837     3.4435  -999.2500     0.0553  3892.0000
  10041.0000     0.0675     0.0124     0.0200     0.0260     0.0090     0.0014     0.0003     0.0011     0.0031  1034.8606     0.0059     0.0047     0.0006     0.0409   187.2943    77.8301    86.3225    43.2991    71.9174     0.0269    87.1051     7.2523     2.0594     0.0022     0.0022     0.0803     4.4040  -999.2500     0.0733  3892.0000
  10041.5000     0.0761     0.0159     0.0216     0.0291     0.0096     0.0000     0.0007     0.0012     0.0000  1049.4360     0.0019     0.0041     0.0006     0.0407   187.2943    77.5960    86.8349    43.2979    72.1421     0.0272    87.5561     7.1819     2.1457     0.0014     0.0002     0.0000     3.0624  -999.2500     0.0781  3876.0000
  10042.0000     0.0646     0.0147     0.0198     0.0202     0.0098     0.0000     0.0000     0.0000     0.0007  1044.8146     0.0007     0.0039     0.0006     0.0307   187.2943    77.5960    90.3542    43.2967    74.4518     0.0278    90.8904     7.5571     2.2748     0.0006     0.0000     0.3247     2.8256  -999.2500     0.0653  3938.0000
  10042.5000     0.0458     0.0057     0.0150     0.0202     0.0048     0.0023     0.0012     0.0001     0.0019  1044.8146     0.0054     0.0057     0.0006     0.0305   187.2943    77.5960    90.8537    43.2954    75.1490     0.0283    91.8479     7.5232     2.3434     0.0007     0.0010     0.0438     4.9610  -999.2500     0.0512  3905.0000
  10043.0000     0.0451     0.0001     0.0106     0.0296     0.0047     0.0000     0.0069     0.0014     0.0000  1039.8375     0.0084     0.0069     0.0006     0.0426   187.2943    77.5960    88.4257    43.2942    72.4601     0.0273    89.1923     7.2356     2.3656     0.0023     0.0028     0.0414     8.3888  -999.2500     0.0534  3927.0000
  10043.5000     0.0400     0.0002     0.0079     0.0240     0.0079     0.0036     0.0103     0.0000     0.0000  1039.8375     0.0139     0.0078     0.0006     0.0458   187.2943    77.5960    84.2737    43.2930    68.5856     0.0259    85.0016     6.8184     2.3529     0.0047     0.0102     0.1113    11.7790  -999.2500     0.0539  3921.0000
  10044.0000     0.0485     0.0097     0.0144     0.0127     0.0118     0.0171     0.0005     0.0000     0.0000  1039.8375     0.0176     0.0078     0.0006     0.0421   187.2943    77.5960    78.9455    43.2917    65.0887     0.0247    81.0302     6.3861     2.2337     0.0036     0.0253     0.1848     6.9013  -999.2500     0.0662  3942.0000
  10044.5000     0.0612     0.0126     0.0196     0.0106     0.0184     0.0128     0.0000     0.0000     0.0000  1044.8146     0.0128     0.0066     0.0006     0.0418   187.2943    77.5960    79.8617    43.2905    64.6136     0.0247    82.2443     6.2355     2.4808     0.0034     0.0130     0.7195     5.3090  -999.2500     0.0739  3939.0000
  10045.0000     0.0642     0.0087     0.0214     0.0142     0.0199     0.0078     0.0000     0.0000     0.0000  1044.8146     0.0078     0.0052     0.0006     0.0419   187.2943    78.4739    82.0347    43.2893    64.7324     0.0252    83.4391     5.9567     2.6356     0.0029     0.0040     0.3868     5.1702  -999.2500     0.0720  3972.0000
  10045.5000     0.0692     0.0061     0.0214     0.0196     0.0221     0.0023     0.0000     0.0000     0.0001  1073.9656     0.0024     0.0040     0.0006     0.0442   187.2943    77.8301    84.4597    43.2880    64.7609     0.0253    83.0466     5.9277     2.6108     0.0026     0.0003     0.4674     4.9862  -999.2500     0.0717  3884.0000
  10046.0000     0.0748     0.0116     0.0235     0.0204     0.0193     0.0033     0.0000     0.0000     0.0007  1030.2390     0.0039     0.0042     0.0006     0.0437   187.2943    77.5960    76.7141    43.2868    57.5985     0.0226    74.7821     5.2126     2.5515     0.0027     0.0011     0.3940     4.2162  -999.2500     0.0788  3966.0000
  10046.5000     0.0771     0.0159     0.0243     0.0230     0.0139     0.0062     0.0008     0.0000     0.0008  1039.8375     0.0078     0.0053     0.0006     0.0447   187.2943    78.0642    71.9852    43.2856    55.7789     0.0219    70.1953     5.0380     2.2099     0.0032     0.0054     0.2075     3.9067  -999.2500     0.0849  3964.0000
  10047.0000     0.0689     0.0081     0.0188     0.0304     0.0116     0.0016     0.0065     0.0000     0.0000  1034.8606     0.0081     0.0062     0.0006     0.0501   187.2943    78.0642    69.0607    43.2844    54.8055     0.0214    69.2219     5.0390     2.1638     0.0039     0.0049     0.3413     5.2680  -999.2500     0.0770  3954.0000
  10047.5000     0.0547     0.0004     0.0166     0.0257     0.0120     0.0033     0.0041     0.0009     0.0000  1034.8606     0.0083     0.0060     0.0006     0.0459   187.2943    77.5960    67.7197    43.2831    56.2434     0.0218    70.3721     5.2455     2.1588     0.0034     0.0036     0.1646     7.3155  -999.2500     0.0629  4016.0000
  10048.0000     0.0589     0.0037     0.0198     0.0220     0.0134     0.0055     0.0025     0.0000     0.0000  1039.8375     0.0080     0.0051     0.0006     0.0434   187.2943    78.2983    67.2382    43.2819    55.1562     0.0208    68.3281     5.4556     1.9638     0.0028     0.0037     0.7008     5.8663  -999.2500     0.0669  3941.0000
  10048.5000     0.0608     0.0067     0.0266     0.0179     0.0095     0.0097     0.0005     0.0000     0.0000  1039.8375     0.0102     0.0050     0.0006     0.0377   187.2943    81.1076    66.2392    43.2807    51.3349     0.0193    64.1192     5.1378     1.8884     0.0022     0.0072     0.0718     4.6561  -999.2500     0.0710  4018.0000
  10049.0000     0.0583     0.0112     0.0256     0.0126     0.0089     0.0099     0.0003     0.0000     0.0002  1044.8146     0.0104     0.0054     0.0006     0.0319   187.2943    81.1076    70.4851    43.2794    50.2171     0.0192    63.5389     4.8525     1.9219     0.0015     0.0071     0.0251     4.0714  -999.2500     0.0688  3960.0000
  10049.5000     0.0549     0.0151     0.0197     0.0112     0.0089     0.0071     0.0018     0.0000     0.0000  1039.8375     0.0090     0.0054     0.0006     0.0291   187.2943    81.1076    74.6995    43.2782    54.4543     0.0209    69.6596     5.1965     2.1549     0.0009     0.0044     0.0000     3.6505  -999.2500     0.0638  3949.0000
  10050.0000     0.0547     0.0188     0.0141     0.0096     0.0123     0.0058     0.0005     0.0003     0.0005  1034.8606     0.0071     0.0050     0.0006     0.0289   187.2943    80.4053    82.5977    43.2770    61.9238     0.0237    79.4408     5.9394     2.4567     0.0007     0.0024     0.2709     3.4642  -999.2500     0.0618  3997.0000
