~VERSION INFORMATION
VERS.           1.2   :CWLS Log ASCII Standard - VERSION 1.2
WRAP.           NO    :One Line per depth step
PROD.  Schlumberger   :LAS Producer
PROG.  DLIS to ASCII 10C0-306                          :LAS Program name and version
CREA.        2008/03/26 10:13                          :LAS Creation date {YYYY/MM/DD hh:mm}
SOURCE.     774092c5-b8df-4536-8e1f-80ab68e4b553       :DLIS File Name
#--------------------------------------------------
~WELL INFORMATION
#MNEM.UNIT      DATA             DESCRIPTION
#---- ------ --------------   -----------------------------
STRT .F      9858.5000       :START DEPTH     
STOP .F      10117.5000      :STOP DEPTH     
STEP .F       0.5000         :STEP       
NULL .          -999.25      :NULL VALUE
COMP .                 COMPANY:                   
WELL .                    WELL:                      
FLD  .                   FIELD:                            
LOC  .                LOCATION:                                     
CNTY .                  COUNTY:                            
STAT .                   STATE:                            
CTRY .                 COUNTRY:                                     
SRVC .         SERVICE COMPANY:  Schlumberger                       
API  .              API NUMBER:                         
DATE .                LOG DATE:  
UWI  .          UNIQUE WELL ID:                                     
#-----------------------------------------------------------------------------
~PARAMETER INFORMATION
#MNEM.UNIT    VALUE                      DESCRIPTION
#---- -----   --------------------       ------------------------
CN   .                  :Company Name
WN   .                   :Well Name
FN   .                            :Field Name
FL   .                                   :Field Location
FL1  .                                   :Field Location Line 1
COUN .                          :County or Rig Name
STAT .                          :State or Province
NATI .                                   :Nation
DATE .                        :Date as Month-Day-Year
APIN .                       :API Serial Number
SECT .                                 :Section
TOWN .                              :Township
RANG .                               :Range
DMF  .        KELLY BUSHING              :Drilling Measured From
LMF  .        KELLY BUSHING              :Log Measured From
PDAT .        GROUND LEVEL               :Permanent Datum
ENGI .                         :Engineer's Name
WITN .                    :Witness's Name
LATI .                                   :Latitude
LONG .                                   :Longitude
LUL  .        WILLISTON                  :Logging Unit Location
LUN  .                              :Logging Unit Number
RUN  .        ONE                        :Run Number
SON  .        12018689                   :Service Order Number
BHT  .DEGF     191.00000                 :Bottom Hole Temperature (used in calculations)
BS   .IN         8.75000                 :Bit Size
DFD  .LB/G       9.80000                 :Drilling Fluid Density
DFV  .S         58.00000                 :Drilling Fluid Viscosity
DFL  .C3         1.60000                 :Drilling Fluid Loss
RMFS .                                   :Resistivity of Mud Filtrate Sample
EKB  .                                   :Elevation of Kelly Bushing
EGL  .                                   :Elevation of Ground Level
BLI  .F       10124.00000                :Bottom Log Interval
BSAL .                                   :Borehole Salinity
FLEV .                                   :Fluid Level
MCST .                                   :Mud Cake Sample Temperature
MFST .                                   :Mud Filtrate Sample Temperature
MRT  .DEGF     191.00000                 :Maximum Recorded Temperature
MST  .                                   :Mud Sample Temperature
RMCS .                                   :Resistivity of Mud Cake Sample
RMS  .                                   :Resistivity of Mud Sample
RW   .OHMM       1.00000                 :Resistivity of Connate Water
TDD  .F       10124.00000                :Total Depth - Driller
TDL  .F       10116.00000                :Total Depth - Logger
TLI  .F       2124.00000                 :Top Log Interval
HIDE .                                   :Header Identifier
MATR .        LIME                       :Rock Matrix for Neutron Porosity Corrections
DFT  .        OIL BASE MUD               :Drilling Fluid Type
DFPH .                                   :Drilling Fluid PH
MCSS .                                   :Mud Cake Sample Source
MFSS .                                   :Mud Filtrate Sample Source
MSS  .        NONE                       :Mud Sample Source
OS1  .                                   :Other Services Line 1
OS2  .                                   :Other Services Line 2
OS3  .                                   :Other Services Line 3
OS4  .                                   :Other Services Line 4
OS5  .                                   :Other Services Line 5
R1   .                                   :Remark Line 1
R2   .        ALL LOGS RECORDED IN CENTRAL STANDARD TIME :Remark Line 2
R3   .        TOOL STRING RUN AS PER TOOL SKETCH :Remark Line 3
R4   .        TEMPERATURE RECORDED FROM HILT :Remark Line 4
R5   .                                   :Remark Line 5
R6   .        MATRIX  LIMESTONE          :Remark Line 6
R7   .        DENSITY  2.71 G/CC         :Remark Line 7
R8   .                                   :Remark Line 8
TCS  .        7 00                       :Time Circulation Stopped
TLAB .                                   :Time Logger At Bottom
EPD  .C3                                 :Elevation of Permanent Datum above Mean Sea Level
APD  .                                   :Elevation of Depth Reference (LMF) above Permanent Datum
#-----------------------------------------------------------------------------
~CURVE INFORMATION
#MNEM.UNIT   API CODE                                  DESCRIPTION
#---- -----  --------                                  -----------------------
DEPT .F                                                :DEPTH (BOREHOLE) {F12.4}
BFV  .CFCF                                             :Bound Fluid Volume {F11.4}
CBP1 .CFCF                                             :CMR Bin Porosity 1 {F11.4}
CBP2 .CFCF                                             :CMR Bin Porosity 2 {F11.4}
CBP3 .CFCF                                             :CMR Bin Porosity 3 {F11.4}
CBP4 .CFCF                                             :CMR Bin Porosity 4 {F11.4}
CBP5 .CFCF                                             :CMR Bin Porosity 5 {F11.4}
CBP6 .CFCF                                             :CMR Bin Porosity 6 {F11.4}
CBP7 .CFCF                                             :CMR Bin Porosity 7 {F11.4}
CBP8 .CFCF                                             :CMR Bin Porosity 8 {F11.4}
CDF  .LBF                                              :Calibrated Downhole Force {F11.4}
CMFF .CFCF                                             :CMR Free Fluid {F11.4}
CMFF_SIG.CFCF                                          :Standard Deviation of CMR Free Fluid {F11.4}
CMR_PHI_CONV.                                          :CMR Porosity Conversion factor {F11.4}
CMRP_3MS.CFCF                                          :CMR 3ms Porosity {F11.4}
CTEM .DEGF                                             :Cartridge Temperature {F11.4}
ECST .DEGF                                             :ECS Temperature {F11.4}
GR_EDTC.GAPI                                           :Gamma Ray {F11.4}
GTEM .DEGF                                             :Generalized Borehole Temperature {F11.4}
HCGR .GAPI                                             :HNGS Computed Gamma Ray {F11.4}
HFK  .CFCF                                             :HNGS Formation Potassium Concentration {F11.4}
HSGR .GAPI                                             :HNGS Standard Gamma Ray {F11.4}
HTHO .PPM                                              :HNGS Formation Thorium Concentration {F11.4}
HURA .PPM                                              :HNGS Formation Uranium Concentration {F11.4}
KSDR .MD                                               :Permeability from CMR - SDR Model {F11.4}
KTIM .MD                                               :Permeability from CMR - Timur Model {F11.4}
QCPMT.                                                 :Photomultiplier Tube Quality Control {F11.4}
T2LM .MS                                               :T2 Logarithmic Mean {F11.4}
T2LM_SIG.MS                                            :Standard Deviation of T2 Logarithmic Mean {F11.4}
TCMR .CFCF                                             :Total CMR Porosity {F11.4}
TENS .LBF                                              :Cable Tension {F11.4}
#-----------------------------------------------------------------------------
# 
#      DEPT        BFV        CBP1       CBP2       CBP3       CBP4       CBP5       CBP6       CBP7       CBP8       CDF        CMFF     CMFF_SIG  CMR_PHI_CO  CMRP_3MS     CTEM       ECST     GR_EDTC      GTEM       HCGR       HFK        HSGR       HTHO       HURA       KSDR       KTIM      QCPMT       T2LM     T2LM_SIG     TCMR       TENS
#                                                                                                                                                   NV
~A  
# ...
  10098.5000     0.0628     0.0220     0.0304     0.0104     0.0000     0.0036     0.0008     0.0000     0.0015  1039.8375     0.0059     0.0037     0.0006     0.0163   185.3178    76.8937   165.7343    43.1577    76.4050     0.0288    87.1213     7.6095     1.5702     0.0004     0.0020     0.1334     2.0318  -999.2500     0.0687  4093.0000
  10099.0000     0.0628     0.0220     0.0304     0.0104     0.0000     0.0036     0.0008     0.0000     0.0015  1020.2850     0.0059     0.0037     0.0006     0.0163   185.3178    77.5960   165.7343    43.1564    76.4050     0.0288    87.1213     7.6095     1.5702     0.0004     0.0020     0.4847     2.0318  -999.2500     0.0687  4047.0000
  10099.5000     0.0628     0.0220     0.0304     0.0104     0.0000     0.0036     0.0008     0.0000     0.0015  1054.4131     0.0059     0.0037     0.0006     0.0163   185.3178    76.6596   165.7343    43.1552    76.4050     0.0288    87.1213     7.6095     1.5702     0.0004     0.0020     0.1890     2.0318  -999.2500     0.0687  4076.0000
  10100.0000     0.0628     0.0220     0.0304     0.0104     0.0000     0.0036     0.0008     0.0000     0.0015  1030.2390     0.0059     0.0037     0.0006     0.0163   185.3178    77.3619   165.7343    43.1540    76.4050     0.0288    87.1213     7.6095     1.5702     0.0004     0.0020     0.0000     2.0318  -999.2500     0.0687  4079.0000
  10100.5000     0.0628     0.0220     0.0304     0.0104     0.0000     0.0036     0.0008     0.0000     0.0015  1020.2850     0.0059     0.0037     0.0006     0.0163   185.3178    76.8937   165.7343    43.1527    76.4050     0.0288    87.1213     7.6095     1.5702     0.0004     0.0020     0.0560     2.0318  -999.2500     0.0687  4057.0000
  10101.0000     0.0628     0.0220     0.0304     0.0104     0.0000     0.0036     0.0008     0.0000     0.0015  1034.8606     0.0059     0.0037     0.0006     0.0163   185.3178    77.5960   165.7343    43.1515    76.4050     0.0288    87.1213     7.6095     1.5702     0.0004     0.0020     0.1420     2.0318  -999.2500     0.0687  4099.0000
  10101.5000     0.0628     0.0220     0.0304     0.0104     0.0000     0.0036     0.0008     0.0000     0.0015  1034.8606     0.0059     0.0037     0.0006     0.0163   185.3178    77.5960   165.7343    43.1503    76.4050     0.0288    87.1213     7.6095     1.5702     0.0004     0.0020     0.0753     2.0318  -999.2500     0.0687  4017.0000
  10102.0000     0.0628     0.0220     0.0304     0.0104     0.0000     0.0036     0.0008     0.0000     0.0015  1025.2621     0.0059     0.0037     0.0006     0.0163   185.3178    76.6596   165.7343    43.1491    76.4050     0.0288    87.1213     7.6095     1.5702     0.0004     0.0020     0.0854     2.0318  -999.2500     0.0687  4103.0000
  10102.5000     0.0628     0.0220     0.0304     0.0104     0.0000     0.0036     0.0008     0.0000     0.0015  1049.4360     0.0059     0.0037     0.0006     0.0163   185.3178    77.5960   165.7343    43.1478    76.4050     0.0288    87.1213     7.6095     1.5702     0.0004     0.0020     0.1866     2.0318  -999.2500     0.0687  4070.0000
  10103.0000     0.0628     0.0220     0.0304     0.0104     0.0000     0.0036     0.0008     0.0000     0.0015  1044.8146     0.0059     0.0037     0.0006     0.0163   185.3178    77.5960   165.7343    43.1466    76.4050     0.0288    87.1213     7.6095     1.5702     0.0004     0.0020     0.2252     2.0318  -999.2500     0.0687  4113.0000
  10103.5000     0.0628     0.0220     0.0304     0.0104     0.0000     0.0036     0.0008     0.0000     0.0015  1034.8606     0.0059     0.0037     0.0006     0.0163   185.3178    77.5960   165.7343    43.1454    76.4050     0.0288    87.1213     7.6095     1.5702     0.0004     0.0020     0.1600     2.0318  -999.2500     0.0687  4038.0000
  10104.0000     0.0628     0.0220     0.0304     0.0104     0.0000     0.0036     0.0008     0.0000     0.0015  1025.2621     0.0059     0.0037     0.0006     0.0163   185.3178    77.5960   165.7343    43.1441    76.4050     0.0288    87.1213     7.6095     1.5702     0.0004     0.0020     0.1115     2.0318  -999.2500     0.0687  4046.0000
  10104.5000     0.0628     0.0220     0.0304     0.0104     0.0000     0.0036     0.0008     0.0000     0.0015  1049.4360     0.0059     0.0037     0.0006     0.0163   185.3178    79.4689   165.7343    43.1429    76.4050     0.0288    87.1213     7.6095     1.5702     0.0004     0.0020     0.0167     2.0318  -999.2500     0.0687  4101.0000
  10105.0000     0.0628     0.0220     0.0304     0.0104     0.0000     0.0036     0.0008     0.0000     0.0015  1049.4360     0.0059     0.0037     0.0006     0.0163   185.3178    77.5960   165.7343    43.1417    76.4050     0.0288    87.1213     7.6095     1.5702     0.0004     0.0020     0.2590     2.0318  -999.2500     0.0687  4091.0000
  10105.5000     0.0628     0.0220     0.0304     0.0104     0.0000     0.0036     0.0008     0.0000     0.0015  1054.4131     0.0059     0.0037     0.0006     0.0163   185.3178    77.5960   165.7343    43.1404    76.4050     0.0288    87.1213     7.6095     1.5702     0.0004     0.0020     0.0306     2.0318  -999.2500     0.0687  3971.0000
  10106.0000     0.0628     0.0220     0.0304     0.0104     0.0000     0.0036     0.0008     0.0000     0.0015  1001.0880     0.0059     0.0037     0.0006     0.0163   185.3178    77.5960   165.7343    43.1392    76.4050     0.0288    87.1213     7.6095     1.5702     0.0004     0.0020     0.0214     2.0318  -999.2500     0.0687  3996.0000
  10106.5000     0.0628     0.0220     0.0304     0.0104     0.0000     0.0036     0.0008     0.0000     0.0015   952.3845     0.0059     0.0037     0.0006     0.0163   185.3178    80.4053   165.7343    43.1380    76.4050     0.0288    87.1213     7.6095     1.5702     0.0004     0.0020     0.0468     2.0318  -999.2500     0.0687  3904.0000
  10107.0000     0.0628     0.0220     0.0304     0.0104     0.0000     0.0036     0.0008     0.0000     0.0015   903.6810     0.0059     0.0037     0.0006     0.0163   185.3178    76.4255   165.7343    43.1368    76.4050     0.0288    87.1213     7.6095     1.5702     0.0004     0.0020     0.0000     2.0318  -999.2500     0.0687  3853.0000
  10107.5000     0.0628     0.0220     0.0304     0.0104     0.0000     0.0036     0.0008     0.0000     0.0015   854.9775     0.0059     0.0037     0.0006     0.0163   185.3178    77.5960   165.7343    43.1355    76.4050     0.0288    87.1213     7.6095     1.5702     0.0004     0.0020     0.0744     2.0318  -999.2500     0.0687  3743.0000
  10108.0000     0.0628     0.0220     0.0304     0.0104     0.0000     0.0036     0.0008     0.0000     0.0015   806.6295     0.0059     0.0037     0.0006     0.0163   185.3178    77.5960   165.7343    43.1343    76.4050     0.0288    87.1213     7.6095     1.5702     0.0004     0.0020     0.2149     2.0318  -999.2500     0.0687  3699.0000
  10108.5000     0.0628     0.0220     0.0304     0.0104     0.0000     0.0036     0.0008     0.0000     0.0015   752.9490     0.0059     0.0037     0.0006     0.0163   185.3178    76.1914   165.7343    43.1331    76.4050     0.0288    87.1213     7.6095     1.5702     0.0004     0.0020     0.5603     2.0318  -999.2500     0.0687  3625.0000
  10109.0000     0.0628     0.0220     0.0304     0.0104     0.0000     0.0036     0.0008     0.0000     0.0015   694.6470     0.0059     0.0037     0.0006     0.0163   185.3178    78.7665   165.7343    43.1318    76.4050     0.0288    87.1213     7.6095     1.5702     0.0004     0.0020     0.5450     2.0318  -999.2500     0.0687  3591.0000
  10109.5000     0.0628     0.0220     0.0304     0.0104     0.0000     0.0036     0.0008     0.0000     0.0015   650.9205     0.0059     0.0037     0.0006     0.0163   185.3178    78.0642   165.7343    43.1306    76.4050     0.0288    87.1213     7.6095     1.5702     0.0004     0.0020     0.6110     2.0318  -999.2500     0.0687  3537.0000
  10110.0000     0.0628     0.0220     0.0304     0.0104     0.0000     0.0036     0.0008     0.0000     0.0015   597.5955     0.0059     0.0037     0.0006     0.0163   185.3178    77.5960   165.7343    43.1294    76.4050     0.0288    87.1213     7.6095     1.5702     0.0004     0.0020     0.0000     2.0318  -999.2500     0.0687  3445.0000
