~VERSION INFORMATION
VERS.           1.2   :CWLS Log ASCII Standard - VERSION 1.2
WRAP.           NO    :One Line per depth step
PROD.  Schlumberger   :LAS Producer
PROG.  DLIS to ASCII 10C0-306                          :LAS Program name and version
CREA.        2008/03/26 10:13                          :LAS Creation date {YYYY/MM/DD hh:mm}
SOURCE.     774092c5-b8df-4536-8e1f-80ab68e4b553       :DLIS File Name
#--------------------------------------------------
~WELL INFORMATION
#MNEM.UNIT      DATA             DESCRIPTION
#---- ------ --------------   -----------------------------
STRT .F      9858.5000       :START DEPTH     
STOP .F      10117.5000      :STOP DEPTH     
STEP .F       0.5000         :STEP       
NULL .          -999.25      :NULL VALUE
COMP .                 COMPANY:                   
WELL .                    WELL:                      
FLD  .                   FIELD:                            
LOC  .                LOCATION:                                     
CNTY .                  COUNTY:                            
STAT .                   STATE:                            
CTRY .                 COUNTRY:                                     
SRVC .         SERVICE COMPANY:  Schlumberger                       
API  .              API NUMBER:                         
DATE .                LOG DATE:  
UWI  .          UNIQUE WELL ID:                                     
#-----------------------------------------------------------------------------
~PARAMETER INFORMATION
#MNEM.UNIT    VALUE                      DESCRIPTION
#---- -----   --------------------       ------------------------
CN   .                  :Company Name
WN   .                   :Well Name
FN   .                            :Field Name
FL   .                                   :Field Location
FL1  .                                   :Field Location Line 1
COUN .                          :County or Rig Name
STAT .                          :State or Province
NATI .                                   :Nation
DATE .                        :Date as Month-Day-Year
APIN .                       :API Serial Number
SECT .                                 :Section
TOWN .                              :Township
RANG .                               :Range
DMF  .        KELLY BUSHING              :Drilling Measured From
LMF  .        KELLY BUSHING              :Log Measured From
PDAT .        GROUND LEVEL               :Permanent Datum
ENGI .                         :Engineer's Name
WITN .                    :Witness's Name
LATI .                                   :Latitude
LONG .                                   :Longitude
LUL  .        WILLISTON                  :Logging Unit Location
LUN  .                              :Logging Unit Number
RUN  .        ONE                        :Run Number
SON  .        12018689                   :Service Order Number
BHT  .DEGF     191.00000                 :Bottom Hole Temperature (used in calculations)
BS   .IN         8.75000                 :Bit Size
DFD  .LB/G       9.80000                 :Drilling Fluid Density
DFV  .S         58.00000                 :Drilling Fluid Viscosity
DFL  .C3         1.60000                 :Drilling Fluid Loss
RMFS .                                   :Resistivity of Mud Filtrate Sample
EKB  .                                   :Elevation of Kelly Bushing
EGL  .                                   :Elevation of Ground Level
BLI  .F       10124.00000                :Bottom Log Interval
BSAL .                                   :Borehole Salinity
FLEV .                                   :Fluid Level
MCST .                                   :Mud Cake Sample Temperature
MFST .                                   :Mud Filtrate Sample Temperature
MRT  .DEGF     191.00000                 :Maximum Recorded Temperature
MST  .                                   :Mud Sample Temperature
RMCS .                                   :Resistivity of Mud Cake Sample
RMS  .                                   :Resistivity of Mud Sample
RW   .OHMM       1.00000                 :Resistivity of Connate Water
TDD  .F       10124.00000                :Total Depth - Driller
TDL  .F       10116.00000                :Total Depth - Logger
TLI  .F       2124.00000                 :Top Log Interval
HIDE .                                   :Header Identifier
MATR .        LIME                       :Rock Matrix for Neutron Porosity Corrections
DFT  .        OIL BASE MUD               :Drilling Fluid Type
DFPH .                                   :Drilling Fluid PH
MCSS .                                   :Mud Cake Sample Source
MFSS .                                   :Mud Filtrate Sample Source
MSS  .        NONE                       :Mud Sample Source
OS1  .                                   :Other Services Line 1
OS2  .                                   :Other Services Line 2
OS3  .                                   :Other Services Line 3
OS4  .                                   :Other Services Line 4
OS5  .                                   :Other Services Line 5
R1   .                                   :Remark Line 1
R2   .        ALL LOGS RECORDED IN CENTRAL STANDARD TIME :Remark Line 2
R3   .        TOOL STRING RUN AS PER TOOL SKETCH :Remark Line 3
R4   .        TEMPERATURE RECORDED FROM HILT :Remark Line 4
R5   .                                   :Remark Line 5
R6   .        MATRIX  LIMESTONE          :Remark Line 6
R7   .        DENSITY  2.71 G/CC         :Remark Line 7
R8   .                                   :Remark Line 8
TCS  .        7 00                       :Time Circulation Stopped
TLAB .                                   :Time Logger At Bottom
EPD  .C3                                 :Elevation of Permanent Datum above Mean Sea Level
APD  .                                   :Elevation of Depth Reference (LMF) above Permanent Datum
#-----------------------------------------------------------------------------
~CURVE INFORMATION
#MNEM.UNIT   API CODE                                  DESCRIPTION
#---- -----  --------                                  -----------------------
DEPT .F                                                :DEPTH (BOREHOLE) {F12.4}
BFV  .CFCF                                             :Bound Fluid Volume {F11.4}
CBP1 .CFCF                                             :CMR Bin Porosity 1 {F11.4}
CBP2 .CFCF                                             :CMR Bin Porosity 2 {F11.4}
CBP3 .CFCF                                             :CMR Bin Porosity 3 {F11.4}
CBP4 .CFCF                                             :CMR Bin Porosity 4 {F11.4}
CBP5 .CFCF                                             :CMR Bin Porosity 5 {F11.4}
CBP6 .CFCF                                             :CMR Bin Porosity 6 {F11.4}
CBP7 .CFCF                                             :CMR Bin Porosity 7 {F11.4}
CBP8 .CFCF                                             :CMR Bin Porosity 8 {F11.4}
CDF  .LBF                                              :Calibrated Downhole Force {F11.4}
CMFF .CFCF                                             :CMR Free Fluid {F11.4}
CMFF_SIG.CFCF                                          :Standard Deviation of CMR Free Fluid {F11.4}
CMR_PHI_CONV.                                          :CMR Porosity Conversion factor {F11.4}
CMRP_3MS.CFCF                                          :CMR 3ms Porosity {F11.4}
CTEM .DEGF                                             :Cartridge Temperature {F11.4}
ECST .DEGF                                             :ECS Temperature {F11.4}
GR_EDTC.GAPI                                           :Gamma Ray {F11.4}
GTEM .DEGF                                             :Generalized Borehole Temperature {F11.4}
HCGR .GAPI                                             :HNGS Computed Gamma Ray {F11.4}
HFK  .CFCF                                             :HNGS Formation Potassium Concentration {F11.4}
HSGR .GAPI                                             :HNGS Standard Gamma Ray {F11.4}
HTHO .PPM                                              :HNGS Formation Thorium Concentration {F11.4}
HURA .PPM                                              :HNGS Formation Uranium Concentration {F11.4}
KSDR .MD                                               :Permeability from CMR - SDR Model {F11.4}
KTIM .MD                                               :Permeability from CMR - Timur Model {F11.4}
QCPMT.                                                 :Photomultiplier Tube Quality Control {F11.4}
T2LM .MS                                               :T2 Logarithmic Mean {F11.4}
T2LM_SIG.MS                                            :Standard Deviation of T2 Logarithmic Mean {F11.4}
TCMR .CFCF                                             :Total CMR Porosity {F11.4}
TENS .LBF                                              :Cable Tension {F11.4}
#-----------------------------------------------------------------------------
# 
#      DEPT        BFV        CBP1       CBP2       CBP3       CBP4       CBP5       CBP6       CBP7       CBP8       CDF        CMFF     CMFF_SIG  CMR_PHI_CO  CMRP_3MS     CTEM       ECST     GR_EDTC      GTEM       HCGR       HFK        HSGR       HTHO       HURA       KSDR       KTIM      QCPMT       T2LM     T2LM_SIG     TCMR       TENS
#                                                                                                                                                   NV
~A  
# ...
  10074.5000     0.0450     0.0194     0.0172     0.0032     0.0052     0.0000     0.0000     0.0000     0.0040  1039.8375     0.0040     0.0059     0.0006     0.0124   185.3178    79.0007   165.7343    43.2167    68.4923     0.0254    81.6095     7.0377     2.0730     0.0002     0.0005     0.1068     2.5873  -999.2500     0.0490  3988.0000
  10075.0000     0.0485     0.0180     0.0186     0.0043     0.0076     0.0002     0.0000     0.0000     0.0016  1034.8606     0.0018     0.0041     0.0006     0.0137   185.3178    78.2983   165.7343    43.2155    70.4667     0.0265    83.9279     7.0538     2.1044     0.0001     0.0001     0.2434     2.2338  -999.2500     0.0504  3980.0000
  10075.5000     0.0504     0.0200     0.0212     0.0039     0.0053     0.0051     0.0001     0.0000     0.0009  1030.2390     0.0061     0.0046     0.0006     0.0153   185.3178    77.8301   165.7343    43.2142    73.0592     0.0274    85.4609     7.3478     1.9360     0.0002     0.0015     0.0000     2.3163  -999.2500     0.0565  3954.0000
  10076.0000     0.0512     0.0203     0.0174     0.0035     0.0099     0.0063     0.0000     0.0000     0.0000  1054.4131     0.0063     0.0037     0.0006     0.0197   185.3178    77.5960   165.7343    43.2130    74.9455     0.0280    87.1213     7.5803     1.9008     0.0003     0.0016     0.0000     2.5948  -999.2500     0.0575  4020.0000
  10076.5000     0.0490     0.0198     0.0127     0.0045     0.0120     0.0021     0.0013     0.0001     0.0000  1059.3900     0.0035     0.0036     0.0006     0.0200   185.3178    78.0642   165.7343    43.2118    74.7915     0.0283    87.1213     7.3705     1.8773     0.0002     0.0004     0.8275     2.6292  -999.2500     0.0525  4027.0000
  10077.0000     0.0446     0.0187     0.0109     0.0063     0.0087     0.0000     0.0000     0.0000     0.0016  1039.8375     0.0016     0.0034     0.0006     0.0166   185.3178    80.4053   165.7343    43.2106    75.2683     0.0285    87.1213     7.4153     1.8169     0.0001     0.0001     0.8315     2.3882  -999.2500     0.0462  3974.0000
  10077.5000     0.0360     0.0156     0.0115     0.0057     0.0033     0.0000     0.0000     0.0000     0.0018  1034.8606     0.0018     0.0031     0.0006     0.0107   185.3178    79.0006   165.7343    43.2093    75.2775     0.0285    87.1213     7.3975     1.7696     0.0000     0.0000     0.3817     2.0513  -999.2500     0.0378  4022.0000
  10078.0000     0.0322     0.0120     0.0129     0.0066     0.0007     0.0000     0.0009     0.0008     0.0000  1030.2390     0.0017     0.0028     0.0006     0.0089   185.3178    77.5960   165.7343    43.2081    76.4050     0.0288    87.1213     7.6095     1.5702     0.0000     0.0000     0.2223     1.8372  -999.2500     0.0339  3974.0000
  10078.5000     0.0310     0.0090     0.0144     0.0076     0.0000     0.0007     0.0023     0.0000     0.0000  1034.8606     0.0030     0.0029     0.0006     0.0105   185.3178    76.6596   165.7343    43.2069    76.4050     0.0288    87.1213     7.6095     1.5702     0.0000     0.0001     0.1580     2.2928  -999.2500     0.0340  3965.0000
  10079.0000     0.0339     0.0060     0.0186     0.0092     0.0000     0.0019     0.0004     0.0000     0.0000  1044.8146     0.0023     0.0038     0.0006     0.0115   185.3178    77.5960   165.7343    43.2056    76.4050     0.0288    87.1213     7.6095     1.5702     0.0000     0.0001     0.0999     2.3737  -999.2500     0.0361  4023.0000
  10079.5000     0.0368     0.0048     0.0159     0.0130     0.0032     0.0005     0.0000     0.0000     0.0015  1059.3900     0.0020     0.0035     0.0006     0.0182   185.3178    77.5960   165.7343    43.2044    76.4050     0.0288    87.1213     7.6095     1.5702     0.0001     0.0001     0.0177     3.6147  -999.2500     0.0388  3959.0000
  10080.0000     0.0470     0.0088     0.0155     0.0180     0.0048     0.0000     0.0000     0.0000     0.0024  1025.2621     0.0024     0.0044     0.0006     0.0252   185.3178    76.6596   165.7343    43.2032    76.4050     0.0288    87.1213     7.6095     1.5702     0.0003     0.0002     0.0000     3.6958  -999.2500     0.0494  3987.0000
  10080.5000     0.0585     0.0179     0.0178     0.0195     0.0033     0.0000     0.0000     0.0000     0.0036  1039.8375     0.0036     0.0050     0.0006     0.0264   185.3178    81.1076   165.7343    43.2020    76.4050     0.0288    87.1213     7.6095     1.5702     0.0005     0.0006     0.0000     2.9326  -999.2500     0.0620  4002.0000
  10081.0000     0.0600     0.0242     0.0207     0.0107     0.0043     0.0000     0.0000     0.0000     0.0015  1030.2390     0.0015     0.0035     0.0006     0.0165   185.3178    79.7030   165.7343    43.2007    76.4050     0.0288    87.1213     7.6095     1.5702     0.0002     0.0001     0.0316     1.7812  -999.2500     0.0615  3978.0000
  10081.5000     0.0527     0.0273     0.0220     0.0031     0.0003     0.0037     0.0000     0.0000     0.0000  1039.8375     0.0037     0.0038     0.0006     0.0071   185.3178    77.5960   165.7343    43.1995    76.4050     0.0288    87.1213     7.6095     1.5702     0.0001     0.0005     0.0425     1.2534  -999.2500     0.0564  4025.0000
  10082.0000     0.0447     0.0254     0.0179     0.0004     0.0010     0.0034     0.0000     0.0000     0.0000  1039.8375     0.0034     0.0038     0.0006     0.0049   185.3178    77.5960   165.7343    43.1983    76.4050     0.0288    87.1213     7.6095     1.5702     0.0000     0.0003     0.1090     1.1912  -999.2500     0.0482  3990.0000
  10082.5000     0.0402     0.0243     0.0158     0.0000     0.0002     0.0057     0.0000     0.0000     0.0000  1054.4131     0.0057     0.0039     0.0006     0.0059   185.3178    77.5960   165.7343    43.1970    76.4050     0.0288    87.1213     7.6095     1.5702     0.0000     0.0009     0.0437     1.3755  -999.2500     0.0460  3982.0000
  10083.0000     0.0340     0.0171     0.0162     0.0006     0.0001     0.0058     0.0005     0.0000     0.0000  1044.8146     0.0062     0.0030     0.0006     0.0069   185.3178    79.4689   165.7343    43.1958    76.4050     0.0288    87.1213     7.6095     1.5702     0.0000     0.0009     0.2483     1.8313  -999.2500     0.0402  3963.0000
  10083.5000     0.0406     0.0182     0.0203     0.0016     0.0006     0.0047     0.0024     0.0006     0.0000  1034.8606     0.0077     0.0042     0.0006     0.0099   185.3178    77.5960   165.7343    43.1946    76.4050     0.0288    87.1213     7.6095     1.5702     0.0001     0.0020     0.5833     2.1871  -999.2500     0.0483  3975.0000
  10084.0000     0.0529     0.0207     0.0254     0.0060     0.0007     0.0048     0.0000     0.0000     0.0024  1054.4131     0.0073     0.0045     0.0006     0.0140   185.3178    79.0007   165.7343    43.1933    76.4050     0.0288    87.1213     7.6095     1.5702     0.0003     0.0025     0.4126     2.2681  -999.2500     0.0601  3983.0000
  10084.5000     0.0571     0.0201     0.0282     0.0086     0.0003     0.0023     0.0000     0.0000     0.0012  1034.8606     0.0036     0.0032     0.0006     0.0124   185.3178    78.0642   165.7343    43.1921    76.4050     0.0288    87.1213     7.6095     1.5702     0.0002     0.0005     0.1246     1.7761  -999.2500     0.0607  3950.0000
  10085.0000     0.0593     0.0196     0.0319     0.0078     0.0000     0.0027     0.0000     0.0000     0.0016  1034.8606     0.0043     0.0034     0.0006     0.0121   185.3178    77.5960   165.7343    43.1909    76.4050     0.0288    87.1213     7.6095     1.5702     0.0002     0.0009     0.2199     1.8840  -999.2500     0.0636  3937.0000
  10085.5000     0.0635     0.0190     0.0355     0.0090     0.0000     0.0025     0.0016     0.0000     0.0009  1030.2390     0.0050     0.0036     0.0006     0.0140   185.3178    77.5960   165.7343    43.1896    76.4050     0.0288    87.1213     7.6095     1.5702     0.0003     0.0014     0.0169     1.9806  -999.2500     0.0685  3998.0000
  10086.0000     0.0651     0.0193     0.0347     0.0111     0.0000     0.0007     0.0043     0.0004     0.0000  1044.8146     0.0054     0.0039     0.0006     0.0165   185.3178    77.5960   165.7343    43.1884    76.4050     0.0288    87.1213     7.6095     1.5702     0.0004     0.0017     0.0058     2.0772  -999.2500     0.0705  3994.0000
