~VERSION INFORMATION
VERS.           1.2   :CWLS Log ASCII Standard - VERSION 1.2
WRAP.           NO    :One Line per depth step
PROD.  Schlumberger   :LAS Producer
PROG.  DLIS to ASCII 10C0-306                          :LAS Program name and version
CREA.        2008/03/26 10:13                          :LAS Creation date {YYYY/MM/DD hh:mm}
SOURCE.     774092c5-b8df-4536-8e1f-80ab68e4b553       :DLIS File Name
#--------------------------------------------------
~WELL INFORMATION
#MNEM.UNIT      DATA             DESCRIPTION
#---- ------ --------------   -----------------------------
STRT .F      9858.5000       :START DEPTH     
STOP .F      10117.5000      :STOP DEPTH     
STEP .F       0.5000         :STEP       
NULL .          -999.25      :NULL VALUE
COMP .                 COMPANY:                   
WELL .                    WELL:                      
FLD  .                   FIELD:                            
LOC  .                LOCATION:                                     
CNTY .                  COUNTY:                            
STAT .                   STATE:                            
CTRY .                 COUNTRY:                                     
SRVC .         SERVICE COMPANY:  Schlumberger                       
API  .              API NUMBER:                         
DATE .                LOG DATE:  
UWI  .          UNIQUE WELL ID:                                     
#-----------------------------------------------------------------------------
~PARAMETER INFORMATION
#MNEM.UNIT    VALUE                      DESCRIPTION
#---- -----   --------------------       ------------------------
CN   .                  :Company Name
WN   .                   :Well Name
FN   .                            :Field Name
FL   .                                   :Field Location
FL1  .                                   :Field Location Line 1
COUN .                          :County or Rig Name
STAT .                          :State or Province
NATI .                                   :Nation
DATE .                        :Date as Month-Day-Year
APIN .                       :API Serial Number
SECT .                                 :Section
TOWN .                              :Township
RANG .                               :Range
DMF  .        KELLY BUSHING              :Drilling Measured From
LMF  .        KELLY BUSHING              :Log Measured From
PDAT .        GROUND LEVEL               :Permanent Datum
ENGI .                         :Engineer's Name
WITN .                    :Witness's Name
LATI .                                   :Latitude
LONG .                                   :Longitude
LUL  .        WILLISTON                  :Logging Unit Location
LUN  .                              :Logging Unit Number
RUN  .        ONE                        :Run Number
SON  .        12018689                   :Service Order Number
BHT  .DEGF     191.00000                 :Bottom Hole Temperature (used in calculations)
BS   .IN         8.75000                 :Bit Size
DFD  .LB/G       9.80000                 :Drilling Fluid Density
DFV  .S         58.00000                 :Drilling Fluid Viscosity
DFL  .C3         1.60000                 :Drilling Fluid Loss
RMFS .                                   :Resistivity of Mud Filtrate Sample
EKB  .                                   :Elevation of Kelly Bushing
EGL  .                                   :Elevation of Ground Level
BLI  .F       10124.00000                :Bottom Log Interval
BSAL .                                   :Borehole Salinity
FLEV .                                   :Fluid Level
MCST .                                   :Mud Cake Sample Temperature
MFST .                                   :Mud Filtrate Sample Temperature
MRT  .DEGF     191.00000                 :Maximum Recorded Temperature
MST  .                                   :Mud Sample Temperature
RMCS .                                   :Resistivity of Mud Cake Sample
RMS  .                                   :Resistivity of Mud Sample
RW   .OHMM       1.00000                 :Resistivity of Connate Water
TDD  .F       10124.00000                :Total Depth - Driller
TDL  .F       10116.00000                :Total Depth - Logger
TLI  .F       2124.00000                 :Top Log Interval
HIDE .                                   :Header Identifier
MATR .        LIME                       :Rock Matrix for Neutron Porosity Corrections
DFT  .        OIL BASE MUD               :Drilling Fluid Type
DFPH .                                   :Drilling Fluid PH
MCSS .                                   :Mud Cake Sample Source
MFSS .                                   :Mud Filtrate Sample Source
MSS  .        NONE                       :Mud Sample Source
OS1  .                                   :Other Services Line 1
OS2  .                                   :Other Services Line 2
OS3  .                                   :Other Services Line 3
OS4  .                                   :Other Services Line 4
OS5  .                                   :Other Services Line 5
R1   .                                   :Remark Line 1
R2   .        ALL LOGS RECORDED IN CENTRAL STANDARD TIME :Remark Line 2
R3   .        TOOL STRING RUN AS PER TOOL SKETCH :Remark Line 3
R4   .        TEMPERATURE RECORDED FROM HILT :Remark Line 4
R5   .                                   :Remark Line 5
R6   .        MATRIX  LIMESTONE          :Remark Line 6
R7   .        DENSITY  2.71 G/CC         :Remark Line 7
R8   .                                   :Remark Line 8
TCS  .        7 00                       :Time Circulation Stopped
TLAB .                                   :Time Logger At Bottom
EPD  .C3                                 :Elevation of Permanent Datum above Mean Sea Level
APD  .                                   :Elevation of Depth Reference (LMF) above Permanent Datum
#-----------------------------------------------------------------------------
~CURVE INFORMATION
#MNEM.UNIT   API CODE                                  DESCRIPTION
#---- -----  --------                                  -----------------------
DEPT .F                                                :DEPTH (BOREHOLE) {F12.4}
BFV  .CFCF                                             :Bound Fluid Volume {F11.4}
CBP1 .CFCF                                             :CMR Bin Porosity 1 {F11.4}
CBP2 .CFCF                                             :CMR Bin Porosity 2 {F11.4}
CBP3 .CFCF                                             :CMR Bin Porosity 3 {F11.4}
CBP4 .CFCF                                             :CMR Bin Porosity 4 {F11.4}
CBP5 .CFCF                                             :CMR Bin Porosity 5 {F11.4}
CBP6 .CFCF                                             :CMR Bin Porosity 6 {F11.4}
CBP7 .CFCF                                             :CMR Bin Porosity 7 {F11.4}
CBP8 .CFCF                                             :CMR Bin Porosity 8 {F11.4}
CDF  .LBF                                              :Calibrated Downhole Force {F11.4}
CMFF .CFCF                                             :CMR Free Fluid {F11.4}
CMFF_SIG.CFCF                                          :Standard Deviation of CMR Free Fluid {F11.4}
CMR_PHI_CONV.                                          :CMR Porosity Conversion factor {F11.4}
CMRP_3MS.CFCF                                          :CMR 3ms Porosity {F11.4}
CTEM .DEGF                                             :Cartridge Temperature {F11.4}
ECST .DEGF                                             :ECS Temperature {F11.4}
GR_EDTC.GAPI                                           :Gamma Ray {F11.4}
GTEM .DEGF                                             :Generalized Borehole Temperature {F11.4}
HCGR .GAPI                                             :HNGS Computed Gamma Ray {F11.4}
HFK  .CFCF                                             :HNGS Formation Potassium Concentration {F11.4}
HSGR .GAPI                                             :HNGS Standard Gamma Ray {F11.4}
HTHO .PPM                                              :HNGS Formation Thorium Concentration {F11.4}
HURA .PPM                                              :HNGS Formation Uranium Concentration {F11.4}
KSDR .MD                                               :Permeability from CMR - SDR Model {F11.4}
KTIM .MD                                               :Permeability from CMR - Timur Model {F11.4}
QCPMT.                                                 :Photomultiplier Tube Quality Control {F11.4}
T2LM .MS                                               :T2 Logarithmic Mean {F11.4}
T2LM_SIG.MS                                            :Standard Deviation of T2 Logarithmic Mean {F11.4}
TCMR .CFCF                                             :Total CMR Porosity {F11.4}
TENS .LBF                                              :Cable Tension {F11.4}
#-----------------------------------------------------------------------------
# 
#      DEPT        BFV        CBP1       CBP2       CBP3       CBP4       CBP5       CBP6       CBP7       CBP8       CDF        CMFF     CMFF_SIG  CMR_PHI_CO  CMRP_3MS     CTEM       ECST     GR_EDTC      GTEM       HCGR       HFK        HSGR       HTHO       HURA       KSDR       KTIM      QCPMT       T2LM     T2LM_SIG     TCMR       TENS
#                                                                                                                                                   NV
~A  
# ...
   9930.5000     0.0275     0.0024     0.0064     0.0105     0.0082     0.0024     0.0135     0.0088     0.0000  1064.0116     0.0247     0.0064     0.0006     0.0433   191.2472    78.7665    72.4862    43.5709    61.2894     0.0189    74.7286     8.6002     1.9328     0.0257     0.0595     0.2237    29.5153  -999.2500     0.0521  3914.0000
   9931.0000     0.0201     0.0009     0.0052     0.0072     0.0069     0.0009     0.0118     0.0095     0.0001  1054.4131     0.0224     0.0063     0.0006     0.0364   191.2472    78.7665    74.4717    43.5697    61.0934     0.0191    76.2248     8.4048     2.1162     0.0225     0.0402     0.2678    41.5751  -999.2500     0.0425  3887.0000
   9931.5000     0.0159     0.0046     0.0024     0.0012     0.0077     0.0057     0.0101     0.0079     0.0007  1059.3900     0.0245     0.0060     0.0006     0.0334   191.2472    78.7665    74.3971    43.5685    57.6105     0.0183    73.4968     7.7498     2.2171     0.0196     0.0396     0.2935    43.0273  -999.2500     0.0403  3902.0000
   9932.0000     0.0091     0.0052     0.0000     0.0000     0.0039     0.0110     0.0118     0.0061     0.0005  1059.3900     0.0294     0.0073     0.0006     0.0334   191.2472    78.7665    70.0838    43.5673    51.6874     0.0163    70.5836     7.0477     2.5453     0.0252     0.0478     0.1525    53.3892  -999.2500     0.0385  3865.0000
   9932.5000     0.0147     0.0074     0.0002     0.0043     0.0027     0.0103     0.0142     0.0048     0.0000  1059.3900     0.0293     0.0083     0.0006     0.0364   191.2472    78.7665    70.8377    43.5660    42.6695     0.0135    68.0185     5.7684     3.3785     0.0161     0.0806     0.4229    32.6772  -999.2500     0.0440  3902.0000
   9933.0000     0.0202     0.0019     0.0076     0.0094     0.0013     0.0090     0.0115     0.0049     0.0015  1059.3900     0.0268     0.0082     0.0006     0.0375   191.2472    80.8735    76.5461    43.5648    34.0955     0.0112    72.1595     4.3883     4.9776     0.0173     0.0865     0.6338    29.7658  -999.2500     0.0470  3895.0000
   9933.5000     0.0295     0.0053     0.0154     0.0082     0.0005     0.0099     0.0086     0.0048     0.0032  1059.3900     0.0264     0.0079     0.0006     0.0351   191.2472    79.4689    85.9651    43.5636    29.3388     0.0097    78.5149     3.7270     6.3667     0.0112     0.0782     0.5450    16.9617  -999.2500     0.0559  3847.0000
   9934.0000     0.0528     0.0131     0.0205     0.0122     0.0071     0.0065     0.0069     0.0064     0.0023  1054.4131     0.0221     0.0092     0.0006     0.0414   191.2472    79.7030    97.7111    43.5623    30.7972     0.0103    96.8902     3.8644     8.4948     0.0097     0.0555     0.3733     8.7361  -999.2500     0.0750  3887.0000
   9934.5000     0.0748     0.0290     0.0230     0.0116     0.0112     0.0026     0.0067     0.0011     0.0000  1054.4131     0.0104     0.0071     0.0006     0.0332   191.2472    78.2983   146.3385    43.5611    45.0833     0.0152   160.7090     5.5219    14.8185     0.0020     0.0102     0.0378     3.0563  -999.2500     0.0852  3871.0000
   9935.0000     0.0711     0.0323     0.0241     0.0080     0.0066     0.0000     0.0000     0.0000     0.0000  1059.3900     0.0000     0.0043     0.0006     0.0146   191.2472    78.2983   268.7879    43.5599    72.2093     0.0245   298.6347     8.7780    29.0018     0.0002     0.0000     0.3157     1.3720  -999.2500     0.0711  3857.0000
   9935.5000     0.0693     0.0488     0.0204     0.0000     0.0000     0.0000     0.0000     0.0000     0.0000  1059.3900     0.0000     0.0085     0.0006     0.0000   191.2472    78.7665   430.6573    43.5587    95.4685     0.0322   455.8951    11.7581    45.9187     0.0000     0.0000     0.0069     0.7041  -999.2500     0.0693  3885.0000
   9936.0000     0.0675     0.0314     0.0213     0.0116     0.0031     0.0000     0.0000     0.0000     0.0000  1059.3900     0.0000     0.0080     0.0006     0.0148   191.2472    79.7030   554.1915    43.5574   104.2063     0.0357   559.1395    12.4716    58.0433     0.0001     0.0000     0.1140     1.2917  -999.2500     0.0676  3826.0000
   9936.5000     0.0436     0.0142     0.0139     0.0143     0.0013     0.0000     0.0000     0.0000     0.0195  1049.4360     0.0195     0.0112     0.0006     0.0351   191.2472    80.1712   606.5656    43.5562   100.2802     0.0342   585.0943    12.1255    61.9312     0.0186     0.0319     0.1370    17.1112  -999.2500     0.0632  3858.0000
   9937.0000     0.0410     0.0111     0.0143     0.0156     0.0000     0.0000     0.0000     0.0000     0.0292  1064.0116     0.0293     0.0120     0.0006     0.0449   191.2472    80.1712   625.6509    43.5550    94.4201     0.0317   601.2568    11.7012    64.8147     0.1464     0.1241     0.0549    38.7352  -999.2500     0.0703  3891.0000
   9937.5000     0.0457     0.0194     0.0154     0.0108     0.0000     0.0000     0.0000     0.0000     0.0232  1054.4131     0.0232     0.0124     0.0006     0.0340   191.2472    78.7665   678.7530    43.5537    96.8382     0.0326   654.2770    11.9582    71.4279     0.0255     0.0578     0.1645    16.8475  -999.2500     0.0688  3847.0000
   9938.0000     0.0431     0.0215     0.0180     0.0028     0.0007     0.0043     0.0000     0.0000     0.0026  1049.4360     0.0069     0.0063     0.0006     0.0104   191.2472    78.7665   727.5054    43.5525    96.9611     0.0326   699.2939    11.9736    77.0179     0.0001     0.0016     0.0000     2.1473  -999.2500     0.0499  3890.0000
   9938.5000     0.0495     0.0246     0.0231     0.0013     0.0006     0.0031     0.0000     0.0000     0.0027  1044.8146     0.0058     0.0052     0.0006     0.0077   191.2472    78.7665   737.4417    43.5513    94.0616     0.0314   704.9525    11.7373    78.1890     0.0001     0.0013     0.0000     1.8010  -999.2500     0.0554  3872.0000
   9939.0000     0.0523     0.0211     0.0259     0.0036     0.0017     0.0000     0.0000     0.0000     0.0026  1044.8146     0.0026     0.0037     0.0006     0.0079   191.2472    78.7665   707.1044    43.5500    84.7187     0.0285   664.0647    10.4519    74.1380     0.0001     0.0002     0.0434     1.7703  -999.2500     0.0549  3860.0000
   9939.5000     0.0523     0.0201     0.0261     0.0060     0.0000     0.0000     0.0000     0.0013     0.0012  1054.4131     0.0025     0.0035     0.0006     0.0086   191.2472    78.7665   649.2567    43.5488    75.2527     0.0252   606.3547     9.3351    68.0117     0.0001     0.0002     0.0808     1.6522  -999.2500     0.0548  3909.0000
   9940.0000     0.0491     0.0208     0.0228     0.0055     0.0000     0.0006     0.0026     0.0000     0.0000  1064.0116     0.0032     0.0030     0.0006     0.0087   191.2472    80.1712   604.0550    43.5476    68.1526     0.0227   565.6856     8.5743    63.6773     0.0001     0.0003     0.0000     1.5264  -999.2500     0.0523  3858.0000
   9940.5000     0.0486     0.0270     0.0201     0.0012     0.0003     0.0051     0.0000     0.0000     0.0000  1054.4131     0.0051     0.0034     0.0006     0.0066   191.2472    79.4689   579.4954    43.5463    65.8800     0.0219   554.0789     8.3092    62.3889     0.0001     0.0009     0.0000     1.3145  -999.2500     0.0537  3928.0000
   9941.0000     0.0466     0.0288     0.0170     0.0003     0.0005     0.0042     0.0000     0.0000     0.0000  1054.4131     0.0042     0.0034     0.0006     0.0050   191.2472    78.5324   583.7127    43.5451    68.5935     0.0234   572.1634     8.2722    64.3865     0.0000     0.0005     0.1716     1.1333  -999.2500     0.0508  3904.0000
   9941.5000     0.0457     0.0280     0.0171     0.0003     0.0002     0.0034     0.0000     0.0000     0.0000  1049.4360     0.0034     0.0033     0.0006     0.0039   191.2472    78.7665   624.1162    43.5439    72.3207     0.0240   607.6759     9.1459    68.5372     0.0000     0.0003     0.1746     1.0724  -999.2500     0.0491  3886.0000
   9942.0000     0.0480     0.0259     0.0213     0.0008     0.0000     0.0015     0.0005     0.0000     0.0001  1054.4131     0.0022     0.0033     0.0006     0.0030   191.2472    78.2983   684.0146    43.5427    78.0692     0.0256   655.6122    10.0288    74.1069     0.0000     0.0001     0.0000     1.0935  -999.2500     0.0501  3959.0000
