~VERSION INFORMATION
VERS.           1.2   :CWLS Log ASCII Standard - VERSION 1.2
WRAP.           NO    :One Line per depth step
PROD.  Schlumberger   :LAS Producer
PROG.  DLIS to ASCII 10C0-306                          :LAS Program name and version
CREA.        2008/03/26 10:13                          :LAS Creation date {YYYY/MM/DD hh:mm}
SOURCE.     774092c5-b8df-4536-8e1f-80ab68e4b553       :DLIS File Name
#--------------------------------------------------
~WELL INFORMATION
#MNEM.UNIT      DATA             DESCRIPTION
#---- ------ --------------   -----------------------------
STRT .F      9858.5000       :START DEPTH     
STOP .F      10117.5000      :STOP DEPTH     
STEP .F       0.5000         :STEP       
NULL .          -999.25      :NULL VALUE
COMP .                 COMPANY:                   
WELL .                    WELL:                      
FLD  .                   FIELD:                            
LOC  .                LOCATION:                                     
CNTY .                  COUNTY:                            
STAT .                   STATE:                            
CTRY .                 COUNTRY:                                     
SRVC .         SERVICE COMPANY:  Schlumberger                       
API  .              API NUMBER:                         
DATE .                LOG DATE:  
UWI  .          UNIQUE WELL ID:                                     
#-----------------------------------------------------------------------------
~PARAMETER INFORMATION
#MNEM.UNIT    VALUE                      DESCRIPTION
#---- -----   --------------------       ------------------------
CN   .                  :Company Name
WN   .                   :Well Name
FN   .                            :Field Name
FL   .                                   :Field Location
FL1  .                                   :Field Location Line 1
COUN .                          :County or Rig Name
STAT .                          :State or Province
NATI .                                   :Nation
DATE .                        :Date as Month-Day-Year
APIN .                       :API Serial Number
SECT .                                 :Section
TOWN .                              :Township
RANG .                               :Range
DMF  .        KELLY BUSHING              :Drilling Measured From
LMF  .        KELLY BUSHING              :Log Measured From
PDAT .        GROUND LEVEL               :Permanent Datum
ENGI .                         :Engineer's Name
WITN .                    :Witness's Name
LATI .                                   :Latitude
LONG .                                   :Longitude
LUL  .        WILLISTON                  :Logging Unit Location
LUN  .                              :Logging Unit Number
RUN  .        ONE                        :Run Number
SON  .        12018689                   :Service Order Number
BHT  .DEGF     191.00000                 :Bottom Hole Temperature (used in calculations)
BS   .IN         8.75000                 :Bit Size
DFD  .LB/G       9.80000                 :Drilling Fluid Density
DFV  .S         58.00000                 :Drilling Fluid Viscosity
DFL  .C3         1.60000                 :Drilling Fluid Loss
RMFS .                                   :Resistivity of Mud Filtrate Sample
EKB  .                                   :Elevation of Kelly Bushing
EGL  .                                   :Elevation of Ground Level
BLI  .F       10124.00000                :Bottom Log Interval
BSAL .                                   :Borehole Salinity
FLEV .                                   :Fluid Level
MCST .                                   :Mud Cake Sample Temperature
MFST .                                   :Mud Filtrate Sample Temperature
MRT  .DEGF     191.00000                 :Maximum Recorded Temperature
MST  .                                   :Mud Sample Temperature
RMCS .                                   :Resistivity of Mud Cake Sample
RMS  .                                   :Resistivity of Mud Sample
RW   .OHMM       1.00000                 :Resistivity of Connate Water
TDD  .F       10124.00000                :Total Depth - Driller
TDL  .F       10116.00000                :Total Depth - Logger
TLI  .F       2124.00000                 :Top Log Interval
HIDE .                                   :Header Identifier
MATR .        LIME                       :Rock Matrix for Neutron Porosity Corrections
DFT  .        OIL BASE MUD               :Drilling Fluid Type
DFPH .                                   :Drilling Fluid PH
MCSS .                                   :Mud Cake Sample Source
MFSS .                                   :Mud Filtrate Sample Source
MSS  .        NONE                       :Mud Sample Source
OS1  .                                   :Other Services Line 1
OS2  .                                   :Other Services Line 2
OS3  .                                   :Other Services Line 3
OS4  .                                   :Other Services Line 4
OS5  .                                   :Other Services Line 5
R1   .                                   :Remark Line 1
R2   .        ALL LOGS RECORDED IN CENTRAL STANDARD TIME :Remark Line 2
R3   .        TOOL STRING RUN AS PER TOOL SKETCH :Remark Line 3
R4   .        TEMPERATURE RECORDED FROM HILT :Remark Line 4
R5   .                                   :Remark Line 5
R6   .        MATRIX  LIMESTONE          :Remark Line 6
R7   .        DENSITY  2.71 G/CC         :Remark Line 7
R8   .                                   :Remark Line 8
TCS  .        7 00                       :Time Circulation Stopped
TLAB .                                   :Time Logger At Bottom
EPD  .C3                                 :Elevation of Permanent Datum above Mean Sea Level
APD  .                                   :Elevation of Depth Reference (LMF) above Permanent Datum
#-----------------------------------------------------------------------------
~CURVE INFORMATION
#MNEM.UNIT   API CODE                                  DESCRIPTION
#---- -----  --------                                  -----------------------
DEPT .F                                                :DEPTH (BOREHOLE) {F12.4}
BFV  .CFCF                                             :Bound Fluid Volume {F11.4}
CBP1 .CFCF                                             :CMR Bin Porosity 1 {F11.4}
CBP2 .CFCF                                             :CMR Bin Porosity 2 {F11.4}
CBP3 .CFCF                                             :CMR Bin Porosity 3 {F11.4}
CBP4 .CFCF                                             :CMR Bin Porosity 4 {F11.4}
CBP5 .CFCF                                             :CMR Bin Porosity 5 {F11.4}
CBP6 .CFCF                                             :CMR Bin Porosity 6 {F11.4}
CBP7 .CFCF                                             :CMR Bin Porosity 7 {F11.4}
CBP8 .CFCF                                             :CMR Bin Porosity 8 {F11.4}
CDF  .LBF                                              :Calibrated Downhole Force {F11.4}
CMFF .CFCF                                             :CMR Free Fluid {F11.4}
CMFF_SIG.CFCF                                          :Standard Deviation of CMR Free Fluid {F11.4}
CMR_PHI_CONV.                                          :CMR Porosity Conversion factor {F11.4}
CMRP_3MS.CFCF                                          :CMR 3ms Porosity {F11.4}
CTEM .DEGF                                             :Cartridge Temperature {F11.4}
ECST .DEGF                                             :ECS Temperature {F11.4}
GR_EDTC.GAPI                                           :Gamma Ray {F11.4}
GTEM .DEGF                                             :Generalized Borehole Temperature {F11.4}
HCGR .GAPI                                             :HNGS Computed Gamma Ray {F11.4}
HFK  .CFCF                                             :HNGS Formation Potassium Concentration {F11.4}
HSGR .GAPI                                             :HNGS Standard Gamma Ray {F11.4}
HTHO .PPM                                              :HNGS Formation Thorium Concentration {F11.4}
HURA .PPM                                              :HNGS Formation Uranium Concentration {F11.4}
KSDR .MD                                               :Permeability from CMR - SDR Model {F11.4}
KTIM .MD                                               :Permeability from CMR - Timur Model {F11.4}
QCPMT.                                                 :Photomultiplier Tube Quality Control {F11.4}
T2LM .MS                                               :T2 Logarithmic Mean {F11.4}
T2LM_SIG.MS                                            :Standard Deviation of T2 Logarithmic Mean {F11.4}
TCMR .CFCF                                             :Total CMR Porosity {F11.4}
TENS .LBF                                              :Cable Tension {F11.4}
#-----------------------------------------------------------------------------
# 
#      DEPT        BFV        CBP1       CBP2       CBP3       CBP4       CBP5       CBP6       CBP7       CBP8       CDF        CMFF     CMFF_SIG  CMR_PHI_CO  CMRP_3MS     CTEM       ECST     GR_EDTC      GTEM       HCGR       HFK        HSGR       HTHO       HURA       KSDR       KTIM      QCPMT       T2LM     T2LM_SIG     TCMR       TENS
#                                                                                                                                                   NV
~A  
# ...
   9906.5000     0.0318     0.0046     0.0000     0.0204     0.0068     0.0031     0.0162     0.0072     0.0010  1073.9656     0.0275     0.0053     0.0006     0.0547   193.2237    81.5758    63.9527    43.6300    48.2788     0.0169    64.0541     5.5598     2.2047     0.0378     0.0921     0.0354    27.6529  -999.2500     0.0593  3981.0000
   9907.0000     0.0310     0.0077     0.0010     0.0183     0.0040     0.0081     0.0113     0.0070     0.0028  1073.9656     0.0291     0.0051     0.0006     0.0514   193.2237    78.7665    64.1215    43.6288    47.8328     0.0165    63.3520     5.6597     2.1603     0.0296     0.1154     0.0000    23.8320  -999.2500     0.0601  3960.0000
   9907.5000     0.0303     0.0079     0.0074     0.0143     0.0007     0.0101     0.0103     0.0046     0.0032  1073.9656     0.0283     0.0052     0.0006     0.0433   193.2237    78.7665    65.5281    43.6275    48.0972     0.0164    65.8885     5.7988     2.4809     0.0164     0.1026     0.0105    18.6364  -999.2500     0.0586  3942.0000
   9908.0000     0.0305     0.0039     0.0127     0.0138     0.0001     0.0080     0.0163     0.0067     0.0014  1073.9656     0.0323     0.0053     0.0006     0.0462   193.2237    78.7665    69.5258    43.6263    49.9668     0.0169    67.1965     6.1424     2.3928     0.0318     0.1747     0.0000    22.6503  -999.2500     0.0628  3988.0000
   9908.5000     0.0332     0.0039     0.0138     0.0143     0.0012     0.0042     0.0259     0.0072     0.0000  1098.1395     0.0374     0.0053     0.0006     0.0529   193.2237    78.7665    74.4655    43.6251    55.2478     0.0179    72.8857     7.2429     2.5479     0.0626     0.3144     0.1619    25.0890  -999.2500     0.0706  3949.0000
   9909.0000     0.0360     0.0040     0.0101     0.0119     0.0101     0.0024     0.0266     0.0081     0.0000  1078.5870     0.0370     0.0054     0.0006     0.0590   193.2237    78.7665    78.8056    43.6238    62.2161     0.0199    79.5903     8.3088     2.5497     0.0994     0.3015     0.0785    29.5210  -999.2500     0.0731  3936.0000
   9909.5000     0.0342     0.0096     0.0103     0.0066     0.0078     0.0109     0.0180     0.0093     0.0002  1073.9656     0.0384     0.0074     0.0006     0.0527   193.2237    80.8735    80.4607    43.6226    63.1317     0.0205    82.0333     8.2453     2.7226     0.0599     0.3483     0.3568    23.2114  -999.2500     0.0726  3985.0000
   9910.0000     0.0284     0.0127     0.0112     0.0030     0.0014     0.0193     0.0142     0.0056     0.0048  1073.9656     0.0439     0.0113     0.0006     0.0484   193.2237    79.4689    77.8619    43.6214    59.6791     0.0195    78.5713     7.6958     2.6917     0.0604     0.6531     0.1909    23.5423  -999.2500     0.0723  3937.0000
   9910.5000     0.0241     0.0073     0.0127     0.0041     0.0001     0.0163     0.0138     0.0039     0.0066  1073.9656     0.0407     0.0114     0.0006     0.0448   193.2237    78.7665    73.6976    43.6202    56.0050     0.0183    73.5753     7.2096     2.4769     0.0644     0.5003     0.0337    30.2333  -999.2500     0.0648  3956.0000
   9911.0000     0.0237     0.0002     0.0126     0.0109     0.0000     0.0086     0.0152     0.0059     0.0049  1073.9656     0.0347     0.0078     0.0006     0.0455   193.2237    78.7665    70.2843    43.6189    54.8914     0.0179    72.0593     7.1138     2.4210     0.0655     0.2478     0.4684    37.5904  -999.2500     0.0583  3931.0000
   9911.5000     0.0339     0.0003     0.0184     0.0153     0.0000     0.0059     0.0158     0.0075     0.0034  1064.0116     0.0325     0.0056     0.0006     0.0478   193.2237    78.7665    67.5316    43.6177    54.8044     0.0178    70.2908     7.1363     2.1693     0.0447     0.1789     0.7853    23.9341  -999.2500     0.0665  3899.0000
   9912.0000     0.0247     0.0000     0.0062     0.0185     0.0000     0.0058     0.0209     0.0064     0.0000  1064.0116     0.0331     0.0056     0.0006     0.0516   193.2237    78.7665    66.6154    43.6165    53.8663     0.0174    69.0505     7.0716     2.1005     0.0525     0.2007     0.7988    34.3008  -999.2500     0.0578  3929.0000
   9912.5000     0.0274     0.0038     0.0103     0.0133     0.0000     0.0066     0.0233     0.0053     0.0000  1064.0116     0.0353     0.0068     0.0006     0.0485   193.2237    77.5960    68.2904    43.6152    52.4160     0.0174    68.2698     6.6236     2.2395     0.0412     0.2551     0.5752    25.8619  -999.2500     0.0626  3908.0000
   9913.0000     0.0170     0.0001     0.0048     0.0120     0.0000     0.0142     0.0176     0.0000     0.0000  1064.0116     0.0318     0.0068     0.0006     0.0438   193.2237    81.5758    69.8771    43.6140    53.2377     0.0182    68.4655     6.4307     2.1614     0.0230     0.1424     0.5357    31.9377  -999.2500     0.0487  3909.0000
   9913.5000     0.0164     0.0001     0.0029     0.0123     0.0012     0.0099     0.0159     0.0069     0.0020  1064.0116     0.0346     0.0067     0.0006     0.0481   193.2237    78.7665    68.4529    43.6128    55.8620     0.0190    69.9890     6.7799     2.0236     0.0857     0.2046     0.5674    56.0667  -999.2500     0.0511  3930.0000
   9914.0000     0.0224     0.0017     0.0101     0.0048     0.0059     0.0142     0.0000     0.0033     0.0298  1068.9885     0.0473     0.0066     0.0006     0.0580   193.2237    79.4689    68.2863    43.6115    54.6677     0.0190    69.1435     6.3952     2.0412     1.3424     1.0528     0.1247   119.1686  -999.2500     0.0697  3931.0000
   9914.5000     0.0237     0.0036     0.0123     0.0024     0.0055     0.0141     0.0000     0.0021     0.0385  1073.9656     0.0547     0.0063     0.0006     0.0626   193.0210    78.9616    69.1813    43.6103    55.1263     0.0190    70.5092     6.5451     2.1615     2.9394     2.0074     0.0826   139.3581  -999.2500     0.0784  3869.0000
   9915.0000     0.0341     0.0032     0.0189     0.0056     0.0064     0.0110     0.0067     0.0120     0.0110  1064.0116     0.0407     0.0061     0.0006     0.0527   192.5475    78.7665    73.1041    43.6091    55.5352     0.0191    69.7770     6.5991     2.0367     0.1865     0.4437     0.0371    38.6417  -999.2500     0.0747  3954.0000
   9915.5000     0.0293     0.0023     0.0186     0.0035     0.0049     0.0223     0.0058     0.0049     0.0056  1059.3900     0.0385     0.0079     0.0006     0.0470   192.2875    78.7665    72.9186    43.6078    57.1573     0.0192    70.9513     7.0972     2.0001     0.0571     0.3662     0.4226    25.9343  -999.2500     0.0679  3882.0000
   9916.0000     0.0136     0.0002     0.0093     0.0007     0.0033     0.0276     0.0021     0.0000     0.0079  1064.0116     0.0376     0.0124     0.0006     0.0417   192.1835    81.5758    72.6802    43.6066    55.7127     0.0185    69.7072     7.0399     2.0400     0.0626     0.2436     0.3795    47.6928  -999.2500     0.0512  3882.0000
   9916.5000     0.0166     0.0000     0.0115     0.0032     0.0018     0.0172     0.0076     0.0029     0.0051  1064.0116     0.0328     0.0164     0.0006     0.0378   191.7033    78.7665    69.1908    43.6054    56.1410     0.0187    70.2406     7.0131     2.0561     0.0378     0.1586     0.0000    39.9675  -999.2500     0.0493  3890.0000
   9917.0000     0.0317     0.0170     0.0069     0.0034     0.0043     0.0068     0.0132     0.0088     0.0008  1064.0116     0.0297     0.0160     0.0006     0.0375   191.3513    78.7665    71.3644    43.6042    56.0465     0.0186    70.6245     7.0671     2.1767     0.0126     0.1245     0.0531    14.8949  -999.2500     0.0614  3915.0000
   9917.5000     0.0395     0.0189     0.0056     0.0081     0.0069     0.0029     0.0137     0.0131     0.0041  1068.9885     0.0338     0.0108     0.0006     0.0488   191.2472    78.7665    72.3736    43.6029    57.1985     0.0192    71.7411     7.0806     2.2046     0.0434     0.2109     0.0969    19.3832  -999.2500     0.0733  3919.0000
   9918.0000     0.0422     0.0174     0.0065     0.0114     0.0068     0.0098     0.0069     0.0098     0.0095  1064.0116     0.0360     0.0087     0.0006     0.0542   191.2472    78.7665    74.2274    43.6017    57.7019     0.0193    70.6036     7.1767     1.8999     0.0649     0.2725     0.9072    20.8354  -999.2500     0.0782  3921.0000
