~VERSION INFORMATION
VERS.           1.2   :CWLS Log ASCII Standard - VERSION 1.2
WRAP.           NO    :One Line per depth step
PROD.  Schlumberger   :LAS Producer
PROG.  DLIS to ASCII 10C0-306                          :LAS Program name and version
CREA.        2008/03/26 10:13                          :LAS Creation date {YYYY/MM/DD hh:mm}
SOURCE.     774092c5-b8df-4536-8e1f-80ab68e4b553       :DLIS File Name
#--------------------------------------------------
~WELL INFORMATION
#MNEM.UNIT      DATA             DESCRIPTION
#---- ------ --------------   -----------------------------
STRT .F      9858.5000       :START DEPTH     
STOP .F      10117.5000      :STOP DEPTH     
STEP .F       0.5000         :STEP       
NULL .          -999.25      :NULL VALUE
COMP .                 COMPANY:                   
WELL .                    WELL:                      
FLD  .                   FIELD:                            
LOC  .                LOCATION:                                     
CNTY .                  COUNTY:                            
STAT .                   STATE:                            
CTRY .                 COUNTRY:                                     
SRVC .         SERVICE COMPANY:  Schlumberger                       
API  .              API NUMBER:                         
DATE .                LOG DATE:  
UWI  .          UNIQUE WELL ID:                                     
#-----------------------------------------------------------------------------
~PARAMETER INFORMATION
#MNEM.UNIT    VALUE                      DESCRIPTION
#---- -----   --------------------       ------------------------
CN   .                  :Company Name
WN   .                   :Well Name
FN   .                            :Field Name
FL   .                                   :Field Location
FL1  .                                   :Field Location Line 1
COUN .                          :County or Rig Name
STAT .                          :State or Province
NATI .                                   :Nation
DATE .                        :Date as Month-Day-Year
APIN .                       :API Serial Number
SECT .                                 :Section
TOWN .                              :Township
RANG .                               :Range
DMF  .        KELLY BUSHING              :Drilling Measured From
LMF  .        KELLY BUSHING              :Log Measured From
PDAT .        GROUND LEVEL               :Permanent Datum
ENGI .                         :Engineer's Name
WITN .                    :Witness's Name
LATI .                                   :Latitude
LONG .                                   :Longitude
LUL  .        WILLISTON                  :Logging Unit Location
LUN  .                              :Logging Unit Number
RUN  .        ONE                        :Run Number
SON  .        12018689                   :Service Order Number
BHT  .DEGF     191.00000                 :Bottom Hole Temperature (used in calculations)
BS   .IN         8.75000                 :Bit Size
DFD  .LB/G       9.80000                 :Drilling Fluid Density
DFV  .S         58.00000                 :Drilling Fluid Viscosity
DFL  .C3         1.60000                 :Drilling Fluid Loss
RMFS .                                   :Resistivity of Mud Filtrate Sample
EKB  .                                   :Elevation of Kelly Bushing
EGL  .                                   :Elevation of Ground Level
BLI  .F       10124.00000                :Bottom Log Interval
BSAL .                                   :Borehole Salinity
FLEV .                                   :Fluid Level
MCST .                                   :Mud Cake Sample Temperature
MFST .                                   :Mud Filtrate Sample Temperature
MRT  .DEGF     191.00000                 :Maximum Recorded Temperature
MST  .                                   :Mud Sample Temperature
RMCS .                                   :Resistivity of Mud Cake Sample
RMS  .                                   :Resistivity of Mud Sample
RW   .OHMM       1.00000                 :Resistivity of Connate Water
TDD  .F       10124.00000                :Total Depth - Driller
TDL  .F       10116.00000                :Total Depth - Logger
TLI  .F       2124.00000                 :Top Log Interval
HIDE .                                   :Header Identifier
MATR .        LIME                       :Rock Matrix for Neutron Porosity Corrections
DFT  .        OIL BASE MUD               :Drilling Fluid Type
DFPH .                                   :Drilling Fluid PH
MCSS .                                   :Mud Cake Sample Source
MFSS .                                   :Mud Filtrate Sample Source
MSS  .        NONE                       :Mud Sample Source
OS1  .                                   :Other Services Line 1
OS2  .                                   :Other Services Line 2
OS3  .                                   :Other Services Line 3
OS4  .                                   :Other Services Line 4
OS5  .                                   :Other Services Line 5
R1   .                                   :Remark Line 1
R2   .        ALL LOGS RECORDED IN CENTRAL STANDARD TIME :Remark Line 2
R3   .        TOOL STRING RUN AS PER TOOL SKETCH :Remark Line 3
R4   .        TEMPERATURE RECORDED FROM HILT :Remark Line 4
R5   .                                   :Remark Line 5
R6   .        MATRIX  LIMESTONE          :Remark Line 6
R7   .        DENSITY  2.71 G/CC         :Remark Line 7
R8   .                                   :Remark Line 8
TCS  .        7 00                       :Time Circulation Stopped
TLAB .                                   :Time Logger At Bottom
EPD  .C3                                 :Elevation of Permanent Datum above Mean Sea Level
APD  .                                   :Elevation of Depth Reference (LMF) above Permanent Datum
#-----------------------------------------------------------------------------
~CURVE INFORMATION
#MNEM.UNIT   API CODE                                  DESCRIPTION
#---- -----  --------                                  -----------------------
DEPT .F                                                :DEPTH (BOREHOLE) {F12.4}
BFV  .CFCF                                             :Bound Fluid Volume {F11.4}
CBP1 .CFCF                                             :CMR Bin Porosity 1 {F11.4}
CBP2 .CFCF                                             :CMR Bin Porosity 2 {F11.4}
CBP3 .CFCF                                             :CMR Bin Porosity 3 {F11.4}
CBP4 .CFCF                                             :CMR Bin Porosity 4 {F11.4}
CBP5 .CFCF                                             :CMR Bin Porosity 5 {F11.4}
CBP6 .CFCF                                             :CMR Bin Porosity 6 {F11.4}
CBP7 .CFCF                                             :CMR Bin Porosity 7 {F11.4}
CBP8 .CFCF                                             :CMR Bin Porosity 8 {F11.4}
CDF  .LBF                                              :Calibrated Downhole Force {F11.4}
CMFF .CFCF                                             :CMR Free Fluid {F11.4}
CMFF_SIG.CFCF                                          :Standard Deviation of CMR Free Fluid {F11.4}
CMR_PHI_CONV.                                          :CMR Porosity Conversion factor {F11.4}
CMRP_3MS.CFCF                                          :CMR 3ms Porosity {F11.4}
CTEM .DEGF                                             :Cartridge Temperature {F11.4}
ECST .DEGF                                             :ECS Temperature {F11.4}
GR_EDTC.GAPI                                           :Gamma Ray {F11.4}
GTEM .DEGF                                             :Generalized Borehole Temperature {F11.4}
HCGR .GAPI                                             :HNGS Computed Gamma Ray {F11.4}
HFK  .CFCF                                             :HNGS Formation Potassium Concentration {F11.4}
HSGR .GAPI                                             :HNGS Standard Gamma Ray {F11.4}
HTHO .PPM                                              :HNGS Formation Thorium Concentration {F11.4}
HURA .PPM                                              :HNGS Formation Uranium Concentration {F11.4}
KSDR .MD                                               :Permeability from CMR - SDR Model {F11.4}
KTIM .MD                                               :Permeability from CMR - Timur Model {F11.4}
QCPMT.                                                 :Photomultiplier Tube Quality Control {F11.4}
T2LM .MS                                               :T2 Logarithmic Mean {F11.4}
T2LM_SIG.MS                                            :Standard Deviation of T2 Logarithmic Mean {F11.4}
TCMR .CFCF                                             :Total CMR Porosity {F11.4}
TENS .LBF                                              :Cable Tension {F11.4}
#-----------------------------------------------------------------------------
# 
#      DEPT        BFV        CBP1       CBP2       CBP3       CBP4       CBP5       CBP6       CBP7       CBP8       CDF        CMFF     CMFF_SIG  CMR_PHI_CO  CMRP_3MS     CTEM       ECST     GR_EDTC      GTEM       HCGR       HFK        HSGR       HTHO       HURA       KSDR       KTIM      QCPMT       T2LM     T2LM_SIG     TCMR       TENS
#                                                                                                                                                   NV
~A  
# ...
  10062.5000     0.0647     0.0152     0.0221     0.0156     0.0118     0.0012     0.0057     0.0007     0.0000  1030.2390     0.0076     0.0084     0.0006     0.0350   185.3178    78.0642    87.8845    43.2462    63.3916     0.0227    78.3217     6.9910     2.1509     0.0017     0.0038     0.2914     3.9896  -999.2500     0.0723  3944.0000
  10063.0000     0.0719     0.0211     0.0279     0.0113     0.0116     0.0093     0.0048     0.0000     0.0000  1034.8606     0.0141     0.0098     0.0006     0.0370   185.3178    80.4053    86.8450    43.2450    64.6273     0.0232    79.4986     7.0834     2.0941     0.0031     0.0211     0.2189     3.7863  -999.2500     0.0860  3970.0000
  10063.5000     0.0733     0.0243     0.0203     0.0145     0.0142     0.0143     0.0014     0.0000     0.0000  1034.8606     0.0157     0.0087     0.0006     0.0445   185.3178    79.0006    89.4863    43.2438    68.1468     0.0244    82.0285     7.5625     1.9829     0.0040     0.0290     0.0705     3.9979  -999.2500     0.0890  3992.0000
  10064.0000     0.0574     0.0108     0.0070     0.0188     0.0208     0.0094     0.0000     0.0000     0.0000  1034.8606     0.0094     0.0070     0.0006     0.0490   185.3178    77.5960    90.7163    43.2425    68.4091     0.0246    82.0169     7.5082     1.8765     0.0033     0.0053     0.0771     6.4575  -999.2500     0.0668  3927.0000
  10064.5000     0.0509     0.0083     0.0000     0.0234     0.0192     0.0001     0.0024     0.0000     0.0000  1030.2390     0.0025     0.0102     0.0006     0.0451   185.3178    79.4689    92.2599    43.2413    67.7166     0.0249    81.3985     7.1287     1.8982     0.0013     0.0002     0.6065     6.2343  -999.2500     0.0533  3907.0000
  10065.0000     0.0393     0.0082     0.0041     0.0113     0.0157     0.0010     0.0000     0.0004     0.0010  1049.4360     0.0024     0.0058     0.0006     0.0294   185.3178    77.3034    93.0565    43.2401    65.4838     0.0241    79.2271     6.8343     1.8884     0.0004     0.0001     0.2680     5.9704  -999.2500     0.0417  3987.0000
  10065.5000     0.0474     0.0080     0.0086     0.0138     0.0171     0.0036     0.0000     0.0000     0.0008  1049.4360     0.0044     0.0049     0.0006     0.0353   185.3178    76.8937    91.2228    43.2388    64.3924     0.0239    78.4390     6.6188     1.8466     0.0010     0.0006     0.0848     5.8709  -999.2500     0.0518  3997.0000
  10066.0000     0.0645     0.0196     0.0125     0.0174     0.0150     0.0081     0.0015     0.0000     0.0000  1059.3900     0.0096     0.0056     0.0006     0.0420   185.3178    77.5960    91.4869    43.2376    63.5183     0.0241    78.6604     6.2452     2.0125     0.0020     0.0066     0.0164     4.0895  -999.2500     0.0741  3982.0000
  10066.5000     0.0899     0.0347     0.0171     0.0209     0.0171     0.0066     0.0052     0.0000     0.0000  1044.8146     0.0118     0.0070     0.0006     0.0498   185.3178    77.5960    91.2764    43.2364    63.1418     0.0241    79.9815     6.0866     2.1905     0.0045     0.0183     0.0000     3.2489  -999.2500     0.1016  4009.0000
  10067.0000     0.0898     0.0304     0.0204     0.0216     0.0174     0.0089     0.0005     0.0000     0.0000  1049.4360     0.0094     0.0067     0.0006     0.0484   185.3178    77.5960    91.4400    43.2352    62.6226     0.0247    79.8285     5.6062     2.2723     0.0038     0.0107     0.0000     3.1348  -999.2500     0.0992  3997.0000
  10067.5000     0.0664     0.0202     0.0166     0.0155     0.0141     0.0066     0.0000     0.0000     0.0000  1039.8375     0.0066     0.0052     0.0006     0.0362   185.3178    78.0642    91.5278    43.2339    63.2952     0.0246    79.7334     5.8432     2.2301     0.0012     0.0028     0.0000     3.3112  -999.2500     0.0730  3998.0000
  10068.0000     0.0446     0.0165     0.0111     0.0062     0.0108     0.0037     0.0000     0.0000     0.0000  1044.8146     0.0037     0.0052     0.0006     0.0207   185.3178    76.6596    89.4990    43.2327    61.6170     0.0240    77.9663     5.6641     2.2254     0.0002     0.0004     0.0000     2.8301  -999.2500     0.0483  3985.0000
  10068.5000     0.0256     0.0129     0.0100     0.0010     0.0017     0.0047     0.0015     0.0002     0.0005  1034.8606     0.0069     0.0043     0.0006     0.0096   185.3178    79.9371    93.0656    43.2315    61.4359     0.0242    78.3077     5.4874     2.3405     0.0000     0.0008     0.1200     2.8901  -999.2500     0.0325  3966.0000
  10069.0000     0.0260     0.0141     0.0114     0.0005     0.0000     0.0000     0.0026     0.0006     0.0000  1034.8606     0.0032     0.0034     0.0006     0.0037   185.3178    77.5960    94.5210    43.2302    62.8145     0.0247    79.8907     5.6764     2.4215     0.0000     0.0001     0.0479     1.6245  -999.2500     0.0292  3938.0000
  10069.5000     0.0322     0.0197     0.0125     0.0000     0.0000     0.0017     0.0007     0.0000     0.0000  1044.8146     0.0024     0.0054     0.0006     0.0024   185.3178    77.5960    98.4248    43.2290    64.3625     0.0250    81.2402     5.9968     2.4456     0.0000     0.0001     0.0595     1.1035  -999.2500     0.0345  4015.0000
  10070.0000     0.0407     0.0287     0.0120     0.0000     0.0000     0.0000     0.0000     0.0000     0.0000  1059.3900     0.0000     0.0088     0.0006     0.0000   185.3178    77.5960    96.4124    43.2278    64.0352     0.0246    81.7761     6.1038     2.5471     0.0000     0.0000     0.0000     0.7092  -999.2500     0.0407  3989.0000
  10070.5000     0.0489     0.0385     0.0103     0.0000     0.0000     0.0041     0.0000     0.0000     0.0000  1068.9885     0.0041     0.0090     0.0006     0.0041   185.3178    77.5960    94.0195    43.2266    63.6682     0.0243    80.2202     6.1685     2.4198     0.0000     0.0006     0.0000     0.8961  -999.2500     0.0530  3972.0000
  10071.0000     0.0477     0.0338     0.0138     0.0000     0.0000     0.0085     0.0000     0.0000     0.0000  1025.2621     0.0085     0.0060     0.0006     0.0085   185.3178    75.7231   116.4245    43.2253    64.7273     0.0242    80.4524     6.5366     2.4232     0.0001     0.0032     0.1457     1.3534  -999.2500     0.0562  3974.0000
  10071.5000     0.0462     0.0265     0.0184     0.0011     0.0002     0.0065     0.0013     0.0000     0.0003  1025.2621     0.0082     0.0041     0.0006     0.0095   185.3178    77.5960   140.7138    43.2241    64.9865     0.0243    79.9699     6.6055     2.3187     0.0001     0.0027     0.0730     1.7085  -999.2500     0.0544  3945.0000
  10072.0000     0.0348     0.0166     0.0152     0.0030     0.0001     0.0027     0.0001     0.0000     0.0008  1025.2621     0.0036     0.0049     0.0006     0.0067   185.3178    77.1278   165.7343    43.2229    67.5679     0.0251    81.9847     6.9252     2.3101     0.0000     0.0002     0.2396     1.6409  -999.2500     0.0384  3970.0000
  10072.5000     0.0300     0.0169     0.0131     0.0000     0.0000     0.0000     0.0000     0.0000     0.0025  1030.2390     0.0025     0.0092     0.0006     0.0025   185.3178    78.1813   165.7343    43.2216    66.5592     0.0245    80.6893     6.9843     2.3129     0.0000     0.0001     0.3037     1.6424  -999.2500     0.0325  3974.0000
  10073.0000     0.0359     0.0156     0.0203     0.0000     0.0000     0.0000     0.0000     0.0000     0.0043  1025.2621     0.0043     0.0156     0.0006     0.0043   185.3178    80.6394   165.7343    43.2204    67.0634     0.0247    80.6997     7.0363     2.2011     0.0001     0.0004     0.0000     2.3910  -999.2500     0.0402  3944.0000
  10073.5000     0.0422     0.0174     0.0248     0.0000     0.0000     0.0000     0.0000     0.0000     0.0074  1020.2850     0.0074     0.0167     0.0006     0.0074   185.3178    78.2983   165.7343    43.2192    65.8042     0.0243    79.0368     6.8642     2.1469     0.0003     0.0019     0.0000     3.4622  -999.2500     0.0496  3956.0000
  10074.0000     0.0459     0.0223     0.0215     0.0021     0.0000     0.0000     0.0000     0.0000     0.0059  1044.8146     0.0059     0.0086     0.0006     0.0080   185.3178    78.0642   165.7343    43.2179    68.2717     0.0251    80.7784     7.1742     2.0313     0.0002     0.0012     0.0415     2.4398  -999.2500     0.0517  4010.0000
