~VERSION INFORMATION
VERS.           1.2   :CWLS Log ASCII Standard - VERSION 1.2
WRAP.           NO    :One Line per depth step
PROD.  Schlumberger   :LAS Producer
PROG.  DLIS to ASCII 10C0-306                          :LAS Program name and version
CREA.        2008/03/26 10:13                          :LAS Creation date {YYYY/MM/DD hh:mm}
SOURCE.     774092c5-b8df-4536-8e1f-80ab68e4b553       :DLIS File Name
#--------------------------------------------------
~WELL INFORMATION
#MNEM.UNIT      DATA             DESCRIPTION
#---- ------ --------------   -----------------------------
STRT .F      9858.5000       :START DEPTH     
STOP .F      10117.5000      :STOP DEPTH     
STEP .F       0.5000         :STEP       
NULL .          -999.25      :NULL VALUE
COMP .                 COMPANY:                   
WELL .                    WELL:                      
FLD  .                   FIELD:                            
LOC  .                LOCATION:                                     
CNTY .                  COUNTY:                            
STAT .                   STATE:                            
CTRY .                 COUNTRY:                                     
SRVC .         SERVICE COMPANY:  Schlumberger                       
API  .              API NUMBER:                         
DATE .                LOG DATE:  
UWI  .          UNIQUE WELL ID:                                     
#-----------------------------------------------------------------------------
~PARAMETER INFORMATION
#MNEM.UNIT    VALUE                      DESCRIPTION
#---- -----   --------------------       ------------------------
CN   .                  :Company Name
WN   .                   :Well Name
FN   .                            :Field Name
FL   .                                   :Field Location
FL1  .                                   :Field Location Line 1
COUN .                          :County or Rig Name
STAT .                          :State or Province
NATI .                                   :Nation
DATE .                        :Date as Month-Day-Year
APIN .                       :API Serial Number
SECT .                                 :Section
TOWN .                              :Township
RANG .                               :Range
DMF  .        KELLY BUSHING              :Drilling Measured From
LMF  .        KELLY BUSHING              :Log Measured From
PDAT .        GROUND LEVEL               :Permanent Datum
ENGI .                         :Engineer's Name
WITN .                    :Witness's Name
LATI .                                   :Latitude
LONG .                                   :Longitude
LUL  .        WILLISTON                  :Logging Unit Location
LUN  .                              :Logging Unit Number
RUN  .        ONE                        :Run Number
SON  .        12018689                   :Service Order Number
BHT  .DEGF     191.00000                 :Bottom Hole Temperature (used in calculations)
BS   .IN         8.75000                 :Bit Size
DFD  .LB/G       9.80000                 :Drilling Fluid Density
DFV  .S         58.00000                 :Drilling Fluid Viscosity
DFL  .C3         1.60000                 :Drilling Fluid Loss
RMFS .                                   :Resistivity of Mud Filtrate Sample
EKB  .                                   :Elevation of Kelly Bushing
EGL  .                                   :Elevation of Ground Level
BLI  .F       10124.00000                :Bottom Log Interval
BSAL .                                   :Borehole Salinity
FLEV .                                   :Fluid Level
MCST .                                   :Mud Cake Sample Temperature
MFST .                                   :Mud Filtrate Sample Temperature
MRT  .DEGF     191.00000                 :Maximum Recorded Temperature
MST  .                                   :Mud Sample Temperature
RMCS .                                   :Resistivity of Mud Cake Sample
RMS  .                                   :Resistivity of Mud Sample
RW   .OHMM       1.00000                 :Resistivity of Connate Water
TDD  .F       10124.00000                :Total Depth - Driller
TDL  .F       10116.00000                :Total Depth - Logger
TLI  .F       2124.00000                 :Top Log Interval
HIDE .                                   :Header Identifier
MATR .        LIME                       :Rock Matrix for Neutron Porosity Corrections
DFT  .        OIL BASE MUD               :Drilling Fluid Type
DFPH .                                   :Drilling Fluid PH
MCSS .                                   :Mud Cake Sample Source
MFSS .                                   :Mud Filtrate Sample Source
MSS  .        NONE                       :Mud Sample Source
OS1  .                                   :Other Services Line 1
OS2  .                                   :Other Services Line 2
OS3  .                                   :Other Services Line 3
OS4  .                                   :Other Services Line 4
OS5  .                                   :Other Services Line 5
R1   .                                   :Remark Line 1
R2   .        ALL LOGS RECORDED IN CENTRAL STANDARD TIME :Remark Line 2
R3   .        TOOL STRING RUN AS PER TOOL SKETCH :Remark Line 3
R4   .        TEMPERATURE RECORDED FROM HILT :Remark Line 4
R5   .                                   :Remark Line 5
R6   .        MATRIX  LIMESTONE          :Remark Line 6
R7   .        DENSITY  2.71 G/CC         :Remark Line 7
R8   .                                   :Remark Line 8
TCS  .        7 00                       :Time Circulation Stopped
TLAB .                                   :Time Logger At Bottom
EPD  .C3                                 :Elevation of Permanent Datum above Mean Sea Level
APD  .                                   :Elevation of Depth Reference (LMF) above Permanent Datum
#-----------------------------------------------------------------------------
~CURVE INFORMATION
#MNEM.UNIT   API CODE                                  DESCRIPTION
#---- -----  --------                                  -----------------------
DEPT .F                                                :DEPTH (BOREHOLE) {F12.4}
BFV  .CFCF                                             :Bound Fluid Volume {F11.4}
CBP1 .CFCF                                             :CMR Bin Porosity 1 {F11.4}
CBP2 .CFCF                                             :CMR Bin Porosity 2 {F11.4}
CBP3 .CFCF                                             :CMR Bin Porosity 3 {F11.4}
CBP4 .CFCF                                             :CMR Bin Porosity 4 {F11.4}
CBP5 .CFCF                                             :CMR Bin Porosity 5 {F11.4}
CBP6 .CFCF                                             :CMR Bin Porosity 6 {F11.4}
CBP7 .CFCF                                             :CMR Bin Porosity 7 {F11.4}
CBP8 .CFCF                                             :CMR Bin Porosity 8 {F11.4}
CDF  .LBF                                              :Calibrated Downhole Force {F11.4}
CMFF .CFCF                                             :CMR Free Fluid {F11.4}
CMFF_SIG.CFCF                                          :Standard Deviation of CMR Free Fluid {F11.4}
CMR_PHI_CONV.                                          :CMR Porosity Conversion factor {F11.4}
CMRP_3MS.CFCF                                          :CMR 3ms Porosity {F11.4}
CTEM .DEGF                                             :Cartridge Temperature {F11.4}
ECST .DEGF                                             :ECS Temperature {F11.4}
GR_EDTC.GAPI                                           :Gamma Ray {F11.4}
GTEM .DEGF                                             :Generalized Borehole Temperature {F11.4}
HCGR .GAPI                                             :HNGS Computed Gamma Ray {F11.4}
HFK  .CFCF                                             :HNGS Formation Potassium Concentration {F11.4}
HSGR .GAPI                                             :HNGS Standard Gamma Ray {F11.4}
HTHO .PPM                                              :HNGS Formation Thorium Concentration {F11.4}
HURA .PPM                                              :HNGS Formation Uranium Concentration {F11.4}
KSDR .MD                                               :Permeability from CMR - SDR Model {F11.4}
KTIM .MD                                               :Permeability from CMR - Timur Model {F11.4}
QCPMT.                                                 :Photomultiplier Tube Quality Control {F11.4}
T2LM .MS                                               :T2 Logarithmic Mean {F11.4}
T2LM_SIG.MS                                            :Standard Deviation of T2 Logarithmic Mean {F11.4}
TCMR .CFCF                                             :Total CMR Porosity {F11.4}
TENS .LBF                                              :Cable Tension {F11.4}
#-----------------------------------------------------------------------------
# 
#      DEPT        BFV        CBP1       CBP2       CBP3       CBP4       CBP5       CBP6       CBP7       CBP8       CDF        CMFF     CMFF_SIG  CMR_PHI_CO  CMRP_3MS     CTEM       ECST     GR_EDTC      GTEM       HCGR       HFK        HSGR       HTHO       HURA       KSDR       KTIM      QCPMT       T2LM     T2LM_SIG     TCMR       TENS
#                                                                                                                                                   NV
~A  
   9858.5000     0.0240     0.0136     0.0087     0.0000     0.0017     0.0055     0.0041     0.0028     0.0004  1103.1166     0.0127     0.0044     0.0006     0.0145   193.2237    78.2983    30.4478    43.7481    22.0386     0.0086    33.9901     2.0058     1.6228     0.0002     0.0051     0.9786     5.6039  -999.2500     0.0368  3981.0000
   9859.0000     0.0283     0.0189     0.0071     0.0000     0.0023     0.0033     0.0054     0.0031     0.0000  1083.5641     0.0118     0.0045     0.0006     0.0141   193.2237    78.1813    30.4478    43.7468    22.0386     0.0086    33.9901     2.0058     1.6228     0.0002     0.0045     0.9786     4.1618  -999.2500     0.0401  3938.0000
   9859.5000     0.0247     0.0160     0.0041     0.0000     0.0047     0.0023     0.0041     0.0034     0.0001  1107.7380     0.0098     0.0045     0.0006     0.0145   193.2237    78.7665    28.9848    43.7456    22.0386     0.0086    33.9901     2.0058     1.6228     0.0001     0.0022     0.4049     5.0600  -999.2500     0.0345  3994.0000
   9860.0000     0.0142     0.0027     0.0078     0.0004     0.0032     0.0047     0.0029     0.0028     0.0007  1078.5870     0.0110     0.0044     0.0006     0.0147   193.2237    77.8301    28.9443    43.7444    22.0386     0.0086    33.9901     2.0058     1.6228     0.0004     0.0012     0.2398    15.6130  -999.2500     0.0252  3998.0000
   9860.5000     0.0141     0.0035     0.0094     0.0000     0.0013     0.0087     0.0020     0.0014     0.0023  1103.1166     0.0143     0.0045     0.0006     0.0156   193.2237    78.7665    33.5662    43.7431    22.0386     0.0086    33.9901     2.0058     1.6228     0.0006     0.0033     0.2504    15.0732  -999.2500     0.0284  3989.0000
   9861.0000     0.0200     0.0085     0.0084     0.0000     0.0031     0.0068     0.0027     0.0037     0.0002  1078.5870     0.0134     0.0045     0.0006     0.0164   193.2237    78.7665    38.0293    43.7419    22.0386     0.0086    33.9901     2.0058     1.6228     0.0004     0.0055     0.3109     9.1159  -999.2500     0.0333  3978.0000
   9861.5000     0.0230     0.0118     0.0045     0.0000     0.0067     0.0047     0.0028     0.0039     0.0000  1083.5641     0.0114     0.0044     0.0006     0.0181   193.2237    79.2348    39.2311    43.7407    21.1163     0.0083    34.4052     1.9094     1.7253     0.0004     0.0034     0.0864     8.0055  -999.2500     0.0344  4015.0000
   9862.0000     0.0161     0.0108     0.0022     0.0000     0.0030     0.0094     0.0016     0.0016     0.0022  1068.9885     0.0147     0.0045     0.0006     0.0178   193.2237    79.2348    37.0465    43.7395    17.9170     0.0068    32.7216     1.7606     1.9008     0.0005     0.0049     0.0624    11.2454  -999.2500     0.0308  3970.0000
   9862.5000     0.0164     0.0136     0.0019     0.0000     0.0010     0.0134     0.0001     0.0000     0.0046  1073.9656     0.0181     0.0045     0.0006     0.0191   193.2237    78.7665    32.9886    43.7382    14.4398     0.0052    30.9327     1.5799     2.1202     0.0007     0.0116     0.1507    11.1277  -999.2500     0.0345  4008.0000
   9863.0000     0.0178     0.0133     0.0035     0.0000     0.0010     0.0116     0.0000     0.0000     0.0039  1068.9885     0.0155     0.0043     0.0006     0.0165   193.2237    78.7665    31.9489    43.7370    12.7336     0.0046    32.2248     1.3903     2.5010     0.0004     0.0075     0.4625     8.5267  -999.2500     0.0334  3985.0000
   9863.5000     0.0166     0.0101     0.0056     0.0000     0.0009     0.0086     0.0000     0.0000     0.0036  1064.0116     0.0121     0.0042     0.0006     0.0131   193.2237    81.8099    33.8424    43.7358    13.6047     0.0048    37.9365     1.5478     3.1350     0.0002     0.0025     0.2379     8.1176  -999.2500     0.0288  3979.0000
   9864.0000     0.0168     0.0070     0.0071     0.0019     0.0008     0.0055     0.0000     0.0000     0.0031  1068.9885     0.0086     0.0040     0.0006     0.0113   193.2237    79.4689    54.6969    43.7345    22.5563     0.0076    70.2010     2.7707     6.1498     0.0001     0.0008     0.0868     7.3472  -999.2500     0.0254  3983.0000
   9864.5000     0.0355     0.0102     0.0125     0.0125     0.0003     0.0020     0.0000     0.0000     0.0020  1064.0116     0.0040     0.0035     0.0006     0.0168   193.2237    78.7665   116.4569    43.7333    41.2707     0.0137   139.9392     5.1976    12.6628     0.0001     0.0003     0.1585     3.0639  -999.2500     0.0396  3976.0000
   9865.0000     0.0430     0.0108     0.0113     0.0170     0.0040     0.0000     0.0000     0.0000     0.0009  1064.0116     0.0009     0.0028     0.0006     0.0219   193.2237    78.7665   208.8196    43.7321    64.5055     0.0216   233.1651     8.0062    21.7096     0.0001     0.0000     0.0000     2.7822  -999.2500     0.0440  3980.0000
   9865.5000     0.0412     0.0082     0.0102     0.0162     0.0067     0.0000     0.0000     0.0000     0.0003  1078.5870     0.0003     0.0024     0.0006     0.0231   193.2237    77.8301   309.4841    43.7309    82.1945     0.0277   316.1349    10.1282    30.2321     0.0001     0.0000     0.1900     3.1590  -999.2500     0.0415  4010.0000
   9866.0000     0.0446     0.0114     0.0112     0.0126     0.0094     0.0006     0.0000     0.0000     0.0002  1073.9656     0.0008     0.0027     0.0006     0.0228   193.2237    79.9371   378.7586    43.7296    95.2922     0.0319   377.4578    11.8436    36.3429     0.0002     0.0000     0.3706     2.9970  -999.2500     0.0454  3982.0000
   9866.5000     0.0445     0.0159     0.0164     0.0069     0.0053     0.0037     0.0000     0.0000     0.0000  1068.9885     0.0037     0.0028     0.0006     0.0159   193.2237    78.7665   428.3412    43.7284   101.6151     0.0337   414.0977    12.8438    40.2455     0.0001     0.0004     0.1830     2.2514  -999.2500     0.0482  4008.0000
   9867.0000     0.0627     0.0293     0.0270     0.0028     0.0036     0.0043     0.0000     0.0000     0.0000  1107.7380     0.0043     0.0049     0.0006     0.0107   193.2237    78.7665   447.4970    43.7272   105.5544     0.0351   433.1295    13.2840    42.1637     0.0002     0.0010     0.1462     1.4817  -999.2500     0.0670  4015.0000
   9867.5000     0.0817     0.0428     0.0370     0.0016     0.0003     0.0044     0.0000     0.0000     0.0000  1117.6920     0.0044     0.0076     0.0006     0.0062   193.2237    78.7665   453.7406    43.7259   102.1358     0.0343   424.0915    12.6344    41.4010     0.0003     0.0016     0.0000     1.1374  -999.2500     0.0860  4033.0000
   9868.0000     0.0764     0.0389     0.0358     0.0017     0.0000     0.0020     0.0000     0.0000     0.0000  1098.1395     0.0021     0.0077     0.0006     0.0037   193.2237    78.7665   433.4818    43.7247    97.3090     0.0329   408.4716    11.9148    39.8542     0.0002     0.0003     0.3503     1.0495  -999.2500     0.0785  3954.0000
   9868.5000     0.0558     0.0292     0.0252     0.0012     0.0001     0.0008     0.0000     0.0000     0.0012  1093.1626     0.0020     0.0061     0.0006     0.0033   193.2237    78.7665   409.6942    43.7235    89.2616     0.0303   384.1453    10.8410    37.7692     0.0001     0.0001     0.3028     1.1515  -999.2500     0.0578  4031.0000
   9869.0000     0.0463     0.0270     0.0186     0.0007     0.0001     0.0013     0.0000     0.0000     0.0017  1103.1166     0.0030     0.0055     0.0006     0.0037   193.2237    82.2782   371.2596    43.7222    78.8318     0.0272   353.3741     9.3283    35.2029     0.0000     0.0002     0.0000     1.2406  -999.2500     0.0492  4015.0000
   9869.5000     0.0577     0.0427     0.0150     0.0000     0.0000     0.0019     0.0023     0.0000     0.0000  1098.1395     0.0042     0.0081     0.0006     0.0042   193.2237    78.7665   331.8044    43.7210    67.0508     0.0234   314.6579     7.7734    31.7493     0.0001     0.0008     0.0000     0.9472  -999.2500     0.0619  4026.0000
   9870.0000     0.0582     0.0428     0.0154     0.0000     0.0000     0.0061     0.0000     0.0000     0.0000  1112.7151     0.0061     0.0145     0.0006     0.0061   193.2237    78.7665   296.0876    43.7198    53.0536     0.0182   277.1761     6.3297    28.7570     0.0001     0.0019     0.0000     1.0437  -999.2500     0.0643  3997.0000
