~VERSION INFORMATION
VERS.           1.2   :CWLS Log ASCII Standard - VERSION 1.2
WRAP.           NO    :One Line per depth step
PROD.  Schlumberger   :LAS Producer
PROG.  DLIS to ASCII 10C0-306                          :LAS Program name and version
CREA.        2008/03/26 10:13                          :LAS Creation date {YYYY/MM/DD hh:mm}
SOURCE.     774092c5-b8df-4536-8e1f-80ab68e4b553       :DLIS File Name
#--------------------------------------------------
~WELL INFORMATION
#MNEM.UNIT      DATA             DESCRIPTION
#---- ------ --------------   -----------------------------
STRT .F      9858.5000       :START DEPTH     
STOP .F      10117.5000      :STOP DEPTH     
STEP .F       0.5000         :STEP       
NULL .          -999.25      :NULL VALUE
COMP .                 COMPANY:                   
WELL .                    WELL:                      
FLD  .                   FIELD:                            
LOC  .                LOCATION:                                     
CNTY .                  COUNTY:                            
STAT .                   STATE:                            
CTRY .                 COUNTRY:                                     
SRVC .         SERVICE COMPANY:  Schlumberger                       
API  .              API NUMBER:                         
DATE .                LOG DATE:  
UWI  .          UNIQUE WELL ID:                                     
#-----------------------------------------------------------------------------
~PARAMETER INFORMATION
#MNEM.UNIT    VALUE                      DESCRIPTION
#---- -----   --------------------       ------------------------
CN   .                  :Company Name
WN   .                   :Well Name
FN   .                            :Field Name
FL   .                                   :Field Location
FL1  .                                   :Field Location Line 1
COUN .                          :County or Rig Name
STAT .                          :State or Province
NATI .                                   :Nation
DATE .                        :Date as Month-Day-Year
APIN .                       :API Serial Number
SECT .                                 :Section
TOWN .                              :Township
RANG .                               :Range
DMF  .        KELLY BUSHING              :Drilling Measured From
LMF  .        KELLY BUSHING              :Log Measured From
PDAT .        GROUND LEVEL               :Permanent Datum
ENGI .                         :Engineer's Name
WITN .                    :Witness's Name
LATI .                                   :Latitude
LONG .                                   :Longitude
LUL  .        WILLISTON                  :Logging Unit Location
LUN  .                              :Logging Unit Number
RUN  .        ONE                        :Run Number
SON  .        12018689                   :Service Order Number
BHT  .DEGF     191.00000                 :Bottom Hole Temperature (used in calculations)
BS   .IN         8.75000                 :Bit Size
DFD  .LB/G       9.80000                 :Drilling Fluid Density
DFV  .S         58.00000                 :Drilling Fluid Viscosity
DFL  .C3         1.60000                 :Drilling Fluid Loss
RMFS .                                   :Resistivity of Mud Filtrate Sample
EKB  .                                   :Elevation of Kelly Bushing
EGL  .                                   :Elevation of Ground Level
BLI  .F       10124.00000                :Bottom Log Interval
BSAL .                                   :Borehole Salinity
FLEV .                                   :Fluid Level
MCST .                                   :Mud Cake Sample Temperature
MFST .                                   :Mud Filtrate Sample Temperature
MRT  .DEGF     191.00000                 :Maximum Recorded Temperature
MST  .                                   :Mud Sample Temperature
RMCS .                                   :Resistivity of Mud Cake Sample
RMS  .                                   :Resistivity of Mud Sample
RW   .OHMM       1.00000                 :Resistivity of Connate Water
TDD  .F       10124.00000                :Total Depth - Driller
TDL  .F       10116.00000                :Total Depth - Logger
TLI  .F       2124.00000                 :Top Log Interval
HIDE .                                   :Header Identifier
MATR .        LIME                       :Rock Matrix for Neutron Porosity Corrections
DFT  .        OIL BASE MUD               :Drilling Fluid Type
DFPH .                                   :Drilling Fluid PH
MCSS .                                   :Mud Cake Sample Source
MFSS .                                   :Mud Filtrate Sample Source
MSS  .        NONE                       :Mud Sample Source
OS1  .                                   :Other Services Line 1
OS2  .                                   :Other Services Line 2
OS3  .                                   :Other Services Line 3
OS4  .                                   :Other Services Line 4
OS5  .                                   :Other Services Line 5
R1   .                                   :Remark Line 1
R2   .        ALL LOGS RECORDED IN CENTRAL STANDARD TIME :Remark Line 2
R3   .        TOOL STRING RUN AS PER TOOL SKETCH :Remark Line 3
R4   .        TEMPERATURE RECORDED FROM HILT :Remark Line 4
R5   .                                   :Remark Line 5
R6   .        MATRIX  LIMESTONE          :Remark Line 6
R7   .        DENSITY  2.71 G/CC         :Remark Line 7
R8   .                                   :Remark Line 8
TCS  .        7 00                       :Time Circulation Stopped
TLAB .                                   :Time Logger At Bottom
EPD  .C3                                 :Elevation of Permanent Datum above Mean Sea Level
APD  .                                   :Elevation of Depth Reference (LMF) above Permanent Datum
#-----------------------------------------------------------------------------
~CURVE INFORMATION
#MNEM.UNIT   API CODE                                  DESCRIPTION
#---- -----  --------                                  -----------------------
DEPT .F                                                :DEPTH (BOREHOLE) {F12.4}
BFV  .CFCF                                             :Bound Fluid Volume {F11.4}
CBP1 .CFCF                                             :CMR Bin Porosity 1 {F11.4}
CBP2 .CFCF                                             :CMR Bin Porosity 2 {F11.4}
CBP3 .CFCF                                             :CMR Bin Porosity 3 {F11.4}
CBP4 .CFCF                                             :CMR Bin Porosity 4 {F11.4}
CBP5 .CFCF                                             :CMR Bin Porosity 5 {F11.4}
CBP6 .CFCF                                             :CMR Bin Porosity 6 {F11.4}
CBP7 .CFCF                                             :CMR Bin Porosity 7 {F11.4}
CBP8 .CFCF                                             :CMR Bin Porosity 8 {F11.4}
CDF  .LBF                                              :Calibrated Downhole Force {F11.4}
CMFF .CFCF                                             :CMR Free Fluid {F11.4}
CMFF_SIG.CFCF                                          :Standard Deviation of CMR Free Fluid {F11.4}
CMR_PHI_CONV.                                          :CMR Porosity Conversion factor {F11.4}
CMRP_3MS.CFCF                                          :CMR 3ms Porosity {F11.4}
CTEM .DEGF                                             :Cartridge Temperature {F11.4}
ECST .DEGF                                             :ECS Temperature {F11.4}
GR_EDTC.GAPI                                           :Gamma Ray {F11.4}
GTEM .DEGF                                             :Generalized Borehole Temperature {F11.4}
HCGR .GAPI                                             :HNGS Computed Gamma Ray {F11.4}
HFK  .CFCF                                             :HNGS Formation Potassium Concentration {F11.4}
HSGR .GAPI                                             :HNGS Standard Gamma Ray {F11.4}
HTHO .PPM                                              :HNGS Formation Thorium Concentration {F11.4}
HURA .PPM                                              :HNGS Formation Uranium Concentration {F11.4}
KSDR .MD                                               :Permeability from CMR - SDR Model {F11.4}
KTIM .MD                                               :Permeability from CMR - Timur Model {F11.4}
QCPMT.                                                 :Photomultiplier Tube Quality Control {F11.4}
T2LM .MS                                               :T2 Logarithmic Mean {F11.4}
T2LM_SIG.MS                                            :Standard Deviation of T2 Logarithmic Mean {F11.4}
TCMR .CFCF                                             :Total CMR Porosity {F11.4}
TENS .LBF                                              :Cable Tension {F11.4}
#-----------------------------------------------------------------------------
# 
#      DEPT        BFV        CBP1       CBP2       CBP3       CBP4       CBP5       CBP6       CBP7       CBP8       CDF        CMFF     CMFF_SIG  CMR_PHI_CO  CMRP_3MS     CTEM       ECST     GR_EDTC      GTEM       HCGR       HFK        HSGR       HTHO       HURA       KSDR       KTIM      QCPMT       T2LM     T2LM_SIG     TCMR       TENS
#                                                                                                                                                   NV
~A  
# ...
  10110.5000     0.0628     0.0220     0.0304     0.0104     0.0000     0.0036     0.0008     0.0000     0.0015   544.2705     0.0059     0.0037     0.0006     0.0163   185.3178    77.5960   165.7343    43.1282    76.4050     0.0288    87.1213     7.6095     1.5702     0.0004     0.0020     0.2802     2.0318  -999.2500     0.0687  3444.0000
  10111.0000     0.0628     0.0220     0.0304     0.0104     0.0000     0.0036     0.0008     0.0000     0.0015   490.5900     0.0059     0.0037     0.0006     0.0163   185.3178    77.5960   165.7343    43.1269    76.4050     0.0288    87.1213     7.6095     1.5702     0.0004     0.0020     0.0463     2.0318  -999.2500     0.0687  3390.0000
  10111.5000     0.0628     0.0220     0.0304     0.0104     0.0000     0.0036     0.0008     0.0000     0.0015   441.8865     0.0059     0.0037     0.0006     0.0163   185.3178    77.5960   165.7343    43.1257    76.4050     0.0288    87.1213     7.6095     1.5702     0.0004     0.0020     0.1025     2.0318  -999.2500     0.0687  3307.0000
  10112.0000     0.0628     0.0220     0.0304     0.0104     0.0000     0.0036     0.0008     0.0000     0.0015   403.1370     0.0059     0.0037     0.0006     0.0163   185.3178    76.8937   165.7343    43.1245    76.4050     0.0288    87.1213     7.6095     1.5702     0.0004     0.0020     0.3272     2.0318  -999.2500     0.0687  3276.0000
  10112.5000     0.0628     0.0220     0.0304     0.0104     0.0000     0.0036     0.0008     0.0000     0.0015   349.8120     0.0059     0.0037     0.0006     0.0163   185.3178    76.4255   165.7343    43.1232    76.4050     0.0288    87.1213     7.6095     1.5702     0.0004     0.0020     0.5223     2.0318  -999.2500     0.0687  3177.0000
  10113.0000     0.0628     0.0220     0.0304     0.0104     0.0000     0.0036     0.0008     0.0000     0.0015   306.0855     0.0059     0.0037     0.0006     0.0163   185.3178    76.4255   165.7343    43.1220    76.4050     0.0288    87.1213     7.6095     1.5702     0.0004     0.0020     2.2353     2.0318  -999.2500     0.0687  3171.0000
  10113.5000     0.0628     0.0220     0.0304     0.0104     0.0000     0.0036     0.0008     0.0000     0.0015   247.7835     0.0059     0.0037     0.0006     0.0163   185.3178    76.4255   165.7343    43.1208    76.4050     0.0288    87.1213     7.6095     1.5702     0.0004     0.0020     2.2353     2.0318  -999.2500     0.0687  3107.0000
  10114.0000     0.0628     0.0220     0.0304     0.0104     0.0000     0.0036     0.0008     0.0000     0.0015   208.6785     0.0059     0.0037     0.0006     0.0163   185.3178    76.4255   165.7343    43.1195    76.4050     0.0288    87.1213     7.6095     1.5702     0.0004     0.0020     2.2353     2.0318  -999.2500     0.0687  3057.0000
  10114.5000     0.0628     0.0220     0.0304     0.0104     0.0000     0.0036     0.0008     0.0000     0.0015   160.3305     0.0059     0.0037     0.0006     0.0163   185.3178    76.4255   165.7343    43.1183    76.4050     0.0288    87.1213     7.6095     1.5702     0.0004     0.0020     2.2353     2.0318  -999.2500     0.0687  3025.0000
  10115.0000     0.0628     0.0220     0.0304     0.0104     0.0000     0.0036     0.0008     0.0000     0.0015   116.6040     0.0059     0.0037     0.0006     0.0163   185.3178    76.4255   165.7343    43.1171    76.4050     0.0288    87.1213     7.6095     1.5702     0.0004     0.0020     2.2353     2.0318  -999.2500     0.0687  2942.0000
  10115.5000     0.0628     0.0220     0.0304     0.0104     0.0000     0.0036     0.0008     0.0000     0.0015    72.8775     0.0059     0.0037     0.0006     0.0163   185.3178    76.4255   165.7343    43.1158    76.4050     0.0288    87.1213     7.6095     1.5702     0.0004     0.0020     2.2353     2.0318  -999.2500     0.0687  2915.0000
  10116.0000     0.0628     0.0220     0.0304     0.0104     0.0000     0.0036     0.0008     0.0000     0.0015    43.7265     0.0059     0.0037     0.0006     0.0163   185.3178    76.4255   165.7343    43.1146    76.4050     0.0288    87.1213     7.6095     1.5702     0.0004     0.0020     2.2353     2.0318  -999.2500     0.0687  2840.0000
  10116.5000     0.0628     0.0220     0.0304     0.0104     0.0000     0.0036     0.0008     0.0000     0.0015    29.1510     0.0059     0.0037     0.0006     0.0163   185.3178    76.4255   165.7343    43.1134    76.4050     0.0288    87.1213     7.6095     1.5702     0.0004     0.0020     2.2353     2.0318  -999.2500     0.0687  2835.0000
  10117.0000     0.0628     0.0220     0.0304     0.0104     0.0000     0.0036     0.0008     0.0000     0.0015    33.7725     0.0059     0.0037     0.0006     0.0163   185.3178    76.4255   165.7343    43.1122    76.4050     0.0288    87.1213     7.6095     1.5702     0.0004     0.0020     2.2353     2.0318  -999.2500     0.0687  2815.0000
  10117.5000     0.0654     0.0236     0.0323     0.0095     0.0000     0.0039     0.0006     0.0000     0.0015    38.7495     0.0060     0.0044     0.0006     0.0155   185.3178    76.4255   165.7343    43.1109    76.4050     0.0288    87.1213     7.6095     1.5702     0.0004     0.0022     2.2353     1.9512  -999.2500     0.0714  2701.0000
