~VERSION INFORMATION
VERS.           1.2   :CWLS Log ASCII Standard - VERSION 1.2
WRAP.           NO    :One Line per depth step
PROD.  Schlumberger   :LAS Producer
PROG.  DLIS to ASCII 10C0-306                          :LAS Program name and version
CREA.        2008/03/26 10:13                          :LAS Creation date {YYYY/MM/DD hh:mm}
SOURCE.     774092c5-b8df-4536-8e1f-80ab68e4b553       :DLIS File Name
#--------------------------------------------------
~WELL INFORMATION
#MNEM.UNIT      DATA             DESCRIPTION
#---- ------ --------------   -----------------------------
STRT .F      9858.5000       :START DEPTH     
STOP .F      10117.5000      :STOP DEPTH     
STEP .F       0.5000         :STEP       
NULL .          -999.25      :NULL VALUE
COMP .                 COMPANY:                   
WELL .                    WELL:                      
FLD  .                   FIELD:                            
LOC  .                LOCATION:                                     
CNTY .                  COUNTY:                            
STAT .                   STATE:                            
CTRY .                 COUNTRY:                                     
SRVC .         SERVICE COMPANY:  Schlumberger                       
API  .              API NUMBER:                         
DATE .                LOG DATE:  
UWI  .          UNIQUE WELL ID:                                     
#-----------------------------------------------------------------------------
~PARAMETER INFORMATION
#MNEM.UNIT    VALUE                      DESCRIPTION
#---- -----   --------------------       ------------------------
CN   .                  :Company Name
WN   .                   :Well Name
FN   .                            :Field Name
FL   .                                   :Field Location
FL1  .                                   :Field Location Line 1
COUN .                          :County or Rig Name
STAT .                          :State or Province
NATI .                                   :Nation
DATE .                        :Date as Month-Day-Year
APIN .                       :API Serial Number
SECT .                                 :Section
TOWN .                              :Township
RANG .                               :Range
DMF  .        KELLY BUSHING              :Drilling Measured From
LMF  .        KELLY BUSHING              :Log Measured From
PDAT .        GROUND LEVEL               :Permanent Datum
ENGI .                         :Engineer's Name
WITN .                    :Witness's Name
LATI .                                   :Latitude
LONG .                                   :Longitude
LUL  .        WILLISTON                  :Logging Unit Location
LUN  .                              :Logging Unit Number
RUN  .        ONE                        :Run Number
SON  .        12018689                   :Service Order Number
BHT  .DEGF     191.00000                 :Bottom Hole Temperature (used in calculations)
BS   .IN         8.75000                 :Bit Size
DFD  .LB/G       9.80000                 :Drilling Fluid Density
DFV  .S         58.00000                 :Drilling Fluid Viscosity
DFL  .C3         1.60000                 :Drilling Fluid Loss
RMFS .                                   :Resistivity of Mud Filtrate Sample
EKB  .                                   :Elevation of Kelly Bushing
EGL  .                                   :Elevation of Ground Level
BLI  .F       10124.00000                :Bottom Log Interval
BSAL .                                   :Borehole Salinity
FLEV .                                   :Fluid Level
MCST .                                   :Mud Cake Sample Temperature
MFST .                                   :Mud Filtrate Sample Temperature
MRT  .DEGF     191.00000                 :Maximum Recorded Temperature
MST  .                                   :Mud Sample Temperature
RMCS .                                   :Resistivity of Mud Cake Sample
RMS  .                                   :Resistivity of Mud Sample
RW   .OHMM       1.00000                 :Resistivity of Connate Water
TDD  .F       10124.00000                :Total Depth - Driller
TDL  .F       10116.00000                :Total Depth - Logger
TLI  .F       2124.00000                 :Top Log Interval
HIDE .                                   :Header Identifier
MATR .        LIME                       :Rock Matrix for Neutron Porosity Corrections
DFT  .        OIL BASE MUD               :Drilling Fluid Type
DFPH .                                   :Drilling Fluid PH
MCSS .                                   :Mud Cake Sample Source
MFSS .                                   :Mud Filtrate Sample Source
MSS  .        NONE                       :Mud Sample Source
OS1  .                                   :Other Services Line 1
OS2  .                                   :Other Services Line 2
OS3  .                                   :Other Services Line 3
OS4  .                                   :Other Services Line 4
OS5  .                                   :Other Services Line 5
R1   .                                   :Remark Line 1
R2   .        ALL LOGS RECORDED IN CENTRAL STANDARD TIME :Remark Line 2
R3   .        TOOL STRING RUN AS PER TOOL SKETCH :Remark Line 3
R4   .        TEMPERATURE RECORDED FROM HILT :Remark Line 4
R5   .                                   :Remark Line 5
R6   .        MATRIX  LIMESTONE          :Remark Line 6
R7   .        DENSITY  2.71 G/CC         :Remark Line 7
R8   .                                   :Remark Line 8
TCS  .        7 00                       :Time Circulation Stopped
TLAB .                                   :Time Logger At Bottom
EPD  .C3                                 :Elevation of Permanent Datum above Mean Sea Level
APD  .                                   :Elevation of Depth Reference (LMF) above Permanent Datum
#-----------------------------------------------------------------------------
~CURVE INFORMATION
#MNEM.UNIT   API CODE                                  DESCRIPTION
#---- -----  --------                                  -----------------------
DEPT .F                                                :DEPTH (BOREHOLE) {F12.4}
BFV  .CFCF                                             :Bound Fluid Volume {F11.4}
CBP1 .CFCF                                             :CMR Bin Porosity 1 {F11.4}
CBP2 .CFCF                                             :CMR Bin Porosity 2 {F11.4}
CBP3 .CFCF                                             :CMR Bin Porosity 3 {F11.4}
CBP4 .CFCF                                             :CMR Bin Porosity 4 {F11.4}
CBP5 .CFCF                                             :CMR Bin Porosity 5 {F11.4}
CBP6 .CFCF                                             :CMR Bin Porosity 6 {F11.4}
CBP7 .CFCF                                             :CMR Bin Porosity 7 {F11.4}
CBP8 .CFCF                                             :CMR Bin Porosity 8 {F11.4}
CDF  .LBF                                              :Calibrated Downhole Force {F11.4}
CMFF .CFCF                                             :CMR Free Fluid {F11.4}
CMFF_SIG.CFCF                                          :Standard Deviation of CMR Free Fluid {F11.4}
CMR_PHI_CONV.                                          :CMR Porosity Conversion factor {F11.4}
CMRP_3MS.CFCF                                          :CMR 3ms Porosity {F11.4}
CTEM .DEGF                                             :Cartridge Temperature {F11.4}
ECST .DEGF                                             :ECS Temperature {F11.4}
GR_EDTC.GAPI                                           :Gamma Ray {F11.4}
GTEM .DEGF                                             :Generalized Borehole Temperature {F11.4}
HCGR .GAPI                                             :HNGS Computed Gamma Ray {F11.4}
HFK  .CFCF                                             :HNGS Formation Potassium Concentration {F11.4}
HSGR .GAPI                                             :HNGS Standard Gamma Ray {F11.4}
HTHO .PPM                                              :HNGS Formation Thorium Concentration {F11.4}
HURA .PPM                                              :HNGS Formation Uranium Concentration {F11.4}
KSDR .MD                                               :Permeability from CMR - SDR Model {F11.4}
KTIM .MD                                               :Permeability from CMR - Timur Model {F11.4}
QCPMT.                                                 :Photomultiplier Tube Quality Control {F11.4}
T2LM .MS                                               :T2 Logarithmic Mean {F11.4}
T2LM_SIG.MS                                            :Standard Deviation of T2 Logarithmic Mean {F11.4}
TCMR .CFCF                                             :Total CMR Porosity {F11.4}
TENS .LBF                                              :Cable Tension {F11.4}
#-----------------------------------------------------------------------------
# 
#      DEPT        BFV        CBP1       CBP2       CBP3       CBP4       CBP5       CBP6       CBP7       CBP8       CDF        CMFF     CMFF_SIG  CMR_PHI_CO  CMRP_3MS     CTEM       ECST     GR_EDTC      GTEM       HCGR       HFK        HSGR       HTHO       HURA       KSDR       KTIM      QCPMT       T2LM     T2LM_SIG     TCMR       TENS
#                                                                                                                                                   NV
~A  
# ...
   9990.5000     0.0858     0.0306     0.0220     0.0265     0.0067     0.0023     0.0130     0.0018     0.0000  1044.8146     0.0171     0.0070     0.0006     0.0503   189.2707    78.2983    98.3947    43.4234    86.7113     0.0334   101.9699     8.2262     1.9332     0.0067     0.0443     0.0104     3.8639  -999.2500     0.1029  3931.0000
   9991.0000     0.0712     0.0227     0.0161     0.0225     0.0099     0.0037     0.0051     0.0042     0.0042  1034.8606     0.0171     0.0079     0.0006     0.0495   189.2707    77.8301    99.7639    43.4221    85.6511     0.0327   100.1343     8.2842     1.8237     0.0084     0.0350     0.2087     5.8834  -999.2500     0.0883  3944.0000
   9991.5000     0.0618     0.0303     0.0004     0.0071     0.0239     0.0033     0.0000     0.0000     0.0142  1030.2390     0.0175     0.0110     0.0006     0.0485   189.2707    77.8301    93.8961    43.4209    77.8324     0.0300    91.8736     7.3434     1.7552     0.0153     0.0316     0.0000     9.8542  -999.2500     0.0793  3912.0000
   9992.0000     0.0516     0.0235     0.0000     0.0022     0.0258     0.0069     0.0000     0.0000     0.0116  1030.2390     0.0185     0.0113     0.0006     0.0465   189.2707    78.7665    85.0046    43.4197    69.3793     0.0262    83.1167     6.8575     1.7375     0.0144     0.0311     0.0000    12.2061  -999.2500     0.0701  3938.0000
   9992.5000     0.0595     0.0191     0.0091     0.0124     0.0190     0.0140     0.0000     0.0000     0.0059  1030.2390     0.0199     0.0097     0.0006     0.0513   189.2707    78.1813    80.3967    43.4184    67.7318     0.0252    81.4727     6.9185     1.7118     0.0110     0.0446     0.0144     8.3198  -999.2500     0.0794  3945.0000
   9993.0000     0.0701     0.0143     0.0272     0.0166     0.0120     0.0165     0.0005     0.0000     0.0035  1030.2390     0.0204     0.0087     0.0006     0.0491   189.2707    78.2983    82.8539    43.4172    70.6179     0.0260    84.8736     7.4000     1.7697     0.0100     0.0570     0.0000     6.1113  -999.2500     0.0905  3898.0000
   9993.5000     0.0637     0.0127     0.0279     0.0158     0.0073     0.0136     0.0011     0.0000     0.0040  1034.8606     0.0187     0.0077     0.0006     0.0418   189.2707    78.7665    82.2375    43.4160    69.5779     0.0257    85.7832     7.2149     2.0582     0.0064     0.0396     0.0071     5.8803  -999.2500     0.0824  3976.0000
   9994.0000     0.0494     0.0089     0.0158     0.0138     0.0109     0.0082     0.0002     0.0000     0.0048  1034.8606     0.0133     0.0073     0.0006     0.0380   189.2707    78.5324    72.2828    43.4147    59.0829     0.0214    73.1877     6.3914     1.8580     0.0037     0.0111     0.3619     7.7099  -999.2500     0.0626  3855.0000
   9994.5000     0.0465     0.0063     0.0102     0.0132     0.0169     0.0009     0.0000     0.0000     0.0076  1039.8375     0.0085     0.0076     0.0006     0.0386   189.2707    78.0642    55.1258    43.4135    45.3627     0.0166    56.1392     4.8290     1.4561     0.0050     0.0030     0.0658    11.7095  -999.2500     0.0550  3906.0000
   9995.0000     0.0489     0.0079     0.0141     0.0119     0.0151     0.0009     0.0000     0.0000     0.0114  1039.8375     0.0123     0.0084     0.0006     0.0393   189.2707    78.7665    52.9699    43.4123    39.7896     0.0143    49.0246     4.3573     1.2668     0.0098     0.0089     0.0573    13.1813  -999.2500     0.0612  3891.0000
   9995.5000     0.0513     0.0081     0.0215     0.0130     0.0087     0.0055     0.0000     0.0017     0.0100  1039.8375     0.0173     0.0081     0.0006     0.0391   189.2707    78.7665    58.8638    43.4110    47.8493     0.0170    57.5550     5.3565     1.3891     0.0103     0.0252     0.0080    10.7891  -999.2500     0.0686  3931.0000
   9996.0000     0.0505     0.0021     0.0213     0.0201     0.0070     0.0017     0.0066     0.0054     0.0003  1034.8606     0.0140     0.0065     0.0006     0.0411   189.2707    77.8301    77.9018    43.4098    64.6881     0.0226    77.5731     7.4988     1.8367     0.0053     0.0133     0.4559     8.7444  -999.2500     0.0645  3898.0000
   9996.5000     0.0434     0.0015     0.0155     0.0192     0.0073     0.0035     0.0105     0.0000     0.0000  1034.8606     0.0139     0.0053     0.0006     0.0404   189.2707    79.4689    91.9628    43.4086    76.4910     0.0266    92.7580     8.8935     2.3455     0.0036     0.0112     0.4056     9.1703  -999.2500     0.0574  3951.0000
   9997.0000     0.0366     0.0061     0.0051     0.0106     0.0147     0.0015     0.0110     0.0003     0.0000  1039.8375     0.0129     0.0054     0.0006     0.0382   189.2707    81.8099    90.8162    43.4074    74.8403     0.0259    90.2083     8.8274     2.2733     0.0035     0.0074     0.1659    12.1726  -999.2500     0.0494  3894.0000
   9997.5000     0.0248     0.0044     0.0000     0.0039     0.0164     0.0064     0.0072     0.0048     0.0001  1039.8375     0.0185     0.0064     0.0006     0.0388   189.2707    79.7030    77.1000    43.4061    61.0702     0.0213    73.2401     7.0676     1.8111     0.0108     0.0195     0.1923    27.7613  -999.2500     0.0432  3958.0000
   9998.0000     0.0178     0.0007     0.0008     0.0080     0.0083     0.0142     0.0057     0.0007     0.0048  1030.2390     0.0253     0.0072     0.0006     0.0416   189.2707    78.7665    63.7053    43.4049    50.1224     0.0175    59.5430     5.7946     1.3989     0.0282     0.0557     0.2314    45.0529  -999.2500     0.0432  3878.0000
   9998.5000     0.0432     0.0000     0.0009     0.0265     0.0159     0.0029     0.0126     0.0015     0.0000  1039.8375     0.0170     0.0081     0.0006     0.0594   189.2707    77.8301    64.5619    43.4037    49.9700     0.0177    60.2981     5.6124     1.5023     0.0182     0.0204     0.3758    18.5606  -999.2500     0.0602  3936.0000
   9999.0000     0.0634     0.0013     0.0020     0.0368     0.0233     0.0008     0.0107     0.0011     0.0000  1039.8375     0.0125     0.0101     0.0006     0.0726   189.2707    78.4739    67.8144    43.4024    54.3122     0.0192    63.8598     6.1494     1.3453     0.0211     0.0130     0.0705    12.5964  -999.2500     0.0759  3902.0000
   9999.5000     0.0651     0.0000     0.0000     0.0329     0.0321     0.0008     0.0001     0.0047     0.0039  1039.8375     0.0095     0.0107     0.0006     0.0745   189.2707    78.0642    63.7407    43.4012    51.1396     0.0187    61.9416     5.4455     1.4920     0.0349     0.0065     0.0032    16.8099  -999.2500     0.0745  3906.0000
  10000.0000     0.0535     0.0000     0.0000     0.0227     0.0307     0.0000     0.0000     0.0000     0.0116  1039.8375     0.0116     0.0094     0.0006     0.0650   189.2707    78.0642    63.0019    43.4000    48.6456     0.0171    59.2284     5.5373     1.4160     0.0572     0.0084     0.0495    28.2648  -999.2500     0.0650  3935.0000
  10000.5000     0.0413     0.0023     0.0008     0.0148     0.0235     0.0006     0.0000     0.0000     0.0118  1044.8146     0.0124     0.0089     0.0006     0.0507   189.2707    78.5324    71.2515    43.3988    54.9221     0.0194    68.2399     6.2103     1.7467     0.0343     0.0074     0.0000    32.1585  -999.2500     0.0537  3938.0000
  10001.0000     0.0426     0.0057     0.0076     0.0118     0.0176     0.0032     0.0006     0.0041     0.0043  1039.8375     0.0123     0.0090     0.0006     0.0416   189.2707    77.3619    76.7315    43.3975    59.5660     0.0206    75.2976     6.9920     2.0727     0.0071     0.0075     0.0176    14.0064  -999.2500     0.0549  3922.0000
  10001.5000     0.0296     0.0012     0.0069     0.0088     0.0128     0.0033     0.0088     0.0026     0.0000  1034.8606     0.0146     0.0087     0.0006     0.0362   189.2707    77.0107    74.8647    43.3963    60.7264     0.0206    78.5259     7.3680     2.4350     0.0051     0.0093     0.0823    18.2770  -999.2500     0.0443  3985.0000
  10002.0000     0.0262     0.0007     0.0050     0.0045     0.0160     0.0043     0.0086     0.0039     0.0000  1039.8375     0.0168     0.0088     0.0006     0.0374   189.2707    78.2983    60.2896    43.3951    51.5584     0.0172    66.3717     6.4649     2.0100     0.0100     0.0141     0.0000    26.9799  -999.2500     0.0430  3942.0000
