~VERSION INFORMATION
VERS.           1.2   :CWLS Log ASCII Standard - VERSION 1.2
WRAP.           NO    :One Line per depth step
PROD.  Schlumberger   :LAS Producer
PROG.  DLIS to ASCII 10C0-306                          :LAS Program name and version
CREA.        2008/03/26 10:13                          :LAS Creation date {YYYY/MM/DD hh:mm}
SOURCE.     774092c5-b8df-4536-8e1f-80ab68e4b553       :DLIS File Name
#--------------------------------------------------
~WELL INFORMATION
#MNEM.UNIT      DATA             DESCRIPTION
#---- ------ --------------   -----------------------------
STRT .F      9858.5000       :START DEPTH     
STOP .F      10117.5000      :STOP DEPTH     
STEP .F       0.5000         :STEP       
NULL .          -999.25      :NULL VALUE
COMP .                 COMPANY:                   
WELL .                    WELL:                      
FLD  .                   FIELD:                            
LOC  .                LOCATION:                                     
CNTY .                  COUNTY:                            
STAT .                   STATE:                            
CTRY .                 COUNTRY:                                     
SRVC .         SERVICE COMPANY:  Schlumberger                       
API  .              API NUMBER:                         
DATE .                LOG DATE:  
UWI  .          UNIQUE WELL ID:                                     
#-----------------------------------------------------------------------------
~PARAMETER INFORMATION
#MNEM.UNIT    VALUE                      DESCRIPTION
#---- -----   --------------------       ------------------------
CN   .                  :Company Name
WN   .                   :Well Name
FN   .                            :Field Name
FL   .                                   :Field Location
FL1  .                                   :Field Location Line 1
COUN .                          :County or Rig Name
STAT .                          :State or Province
NATI .                                   :Nation
DATE .                        :Date as Month-Day-Year
APIN .                       :API Serial Number
SECT .                                 :Section
TOWN .                              :Township
RANG .                               :Range
DMF  .        KELLY BUSHING              :Drilling Measured From
LMF  .        KELLY BUSHING              :Log Measured From
PDAT .        GROUND LEVEL               :Permanent Datum
ENGI .                         :Engineer's Name
WITN .                    :Witness's Name
LATI .                                   :Latitude
LONG .                                   :Longitude
LUL  .        WILLISTON                  :Logging Unit Location
LUN  .                              :Logging Unit Number
RUN  .        ONE                        :Run Number
SON  .        12018689                   :Service Order Number
BHT  .DEGF     191.00000                 :Bottom Hole Temperature (used in calculations)
BS   .IN         8.75000                 :Bit Size
DFD  .LB/G       9.80000                 :Drilling Fluid Density
DFV  .S         58.00000                 :Drilling Fluid Viscosity
DFL  .C3         1.60000                 :Drilling Fluid Loss
RMFS .                                   :Resistivity of Mud Filtrate Sample
EKB  .                                   :Elevation of Kelly Bushing
EGL  .                                   :Elevation of Ground Level
BLI  .F       10124.00000                :Bottom Log Interval
BSAL .                                   :Borehole Salinity
FLEV .                                   :Fluid Level
MCST .                                   :Mud Cake Sample Temperature
MFST .                                   :Mud Filtrate Sample Temperature
MRT  .DEGF     191.00000                 :Maximum Recorded Temperature
MST  .                                   :Mud Sample Temperature
RMCS .                                   :Resistivity of Mud Cake Sample
RMS  .                                   :Resistivity of Mud Sample
RW   .OHMM       1.00000                 :Resistivity of Connate Water
TDD  .F       10124.00000                :Total Depth - Driller
TDL  .F       10116.00000                :Total Depth - Logger
TLI  .F       2124.00000                 :Top Log Interval
HIDE .                                   :Header Identifier
MATR .        LIME                       :Rock Matrix for Neutron Porosity Corrections
DFT  .        OIL BASE MUD               :Drilling Fluid Type
DFPH .                                   :Drilling Fluid PH
MCSS .                                   :Mud Cake Sample Source
MFSS .                                   :Mud Filtrate Sample Source
MSS  .        NONE                       :Mud Sample Source
OS1  .                                   :Other Services Line 1
OS2  .                                   :Other Services Line 2
OS3  .                                   :Other Services Line 3
OS4  .                                   :Other Services Line 4
OS5  .                                   :Other Services Line 5
R1   .                                   :Remark Line 1
R2   .        ALL LOGS RECORDED IN CENTRAL STANDARD TIME :Remark Line 2
R3   .        TOOL STRING RUN AS PER TOOL SKETCH :Remark Line 3
R4   .        TEMPERATURE RECORDED FROM HILT :Remark Line 4
R5   .                                   :Remark Line 5
R6   .        MATRIX  LIMESTONE          :Remark Line 6
R7   .        DENSITY  2.71 G/CC         :Remark Line 7
R8   .                                   :Remark Line 8
TCS  .        7 00                       :Time Circulation Stopped
TLAB .                                   :Time Logger At Bottom
EPD  .C3                                 :Elevation of Permanent Datum above Mean Sea Level
APD  .                                   :Elevation of Depth Reference (LMF) above Permanent Datum
#-----------------------------------------------------------------------------
~CURVE INFORMATION
#MNEM.UNIT   API CODE                                  DESCRIPTION
#---- -----  --------                                  -----------------------
DEPT .F                                                :DEPTH (BOREHOLE) {F12.4}
BFV  .CFCF                                             :Bound Fluid Volume {F11.4}
CBP1 .CFCF                                             :CMR Bin Porosity 1 {F11.4}
CBP2 .CFCF                                             :CMR Bin Porosity 2 {F11.4}
CBP3 .CFCF                                             :CMR Bin Porosity 3 {F11.4}
CBP4 .CFCF                                             :CMR Bin Porosity 4 {F11.4}
CBP5 .CFCF                                             :CMR Bin Porosity 5 {F11.4}
CBP6 .CFCF                                             :CMR Bin Porosity 6 {F11.4}
CBP7 .CFCF                                             :CMR Bin Porosity 7 {F11.4}
CBP8 .CFCF                                             :CMR Bin Porosity 8 {F11.4}
CDF  .LBF                                              :Calibrated Downhole Force {F11.4}
CMFF .CFCF                                             :CMR Free Fluid {F11.4}
CMFF_SIG.CFCF                                          :Standard Deviation of CMR Free Fluid {F11.4}
CMR_PHI_CONV.                                          :CMR Porosity Conversion factor {F11.4}
CMRP_3MS.CFCF                                          :CMR 3ms Porosity {F11.4}
CTEM .DEGF                                             :Cartridge Temperature {F11.4}
ECST .DEGF                                             :ECS Temperature {F11.4}
GR_EDTC.GAPI                                           :Gamma Ray {F11.4}
GTEM .DEGF                                             :Generalized Borehole Temperature {F11.4}
HCGR .GAPI                                             :HNGS Computed Gamma Ray {F11.4}
HFK  .CFCF                                             :HNGS Formation Potassium Concentration {F11.4}
HSGR .GAPI                                             :HNGS Standard Gamma Ray {F11.4}
HTHO .PPM                                              :HNGS Formation Thorium Concentration {F11.4}
HURA .PPM                                              :HNGS Formation Uranium Concentration {F11.4}
KSDR .MD                                               :Permeability from CMR - SDR Model {F11.4}
KTIM .MD                                               :Permeability from CMR - Timur Model {F11.4}
QCPMT.                                                 :Photomultiplier Tube Quality Control {F11.4}
T2LM .MS                                               :T2 Logarithmic Mean {F11.4}
T2LM_SIG.MS                                            :Standard Deviation of T2 Logarithmic Mean {F11.4}
TCMR .CFCF                                             :Total CMR Porosity {F11.4}
TENS .LBF                                              :Cable Tension {F11.4}
#-----------------------------------------------------------------------------
# 
#      DEPT        BFV        CBP1       CBP2       CBP3       CBP4       CBP5       CBP6       CBP7       CBP8       CDF        CMFF     CMFF_SIG  CMR_PHI_CO  CMRP_3MS     CTEM       ECST     GR_EDTC      GTEM       HCGR       HFK        HSGR       HTHO       HURA       KSDR       KTIM      QCPMT       T2LM     T2LM_SIG     TCMR       TENS
#                                                                                                                                                   NV
~A  
# ...
   9870.5000     0.0605     0.0405     0.0196     0.0000     0.0004     0.0036     0.0000     0.0000     0.0000  1112.7151     0.0036     0.0146     0.0006     0.0040   193.2237    78.7665   274.8759    43.7185    46.4266     0.0158   263.0769     5.6281    27.6887     0.0001     0.0006     0.0394     0.9603  -999.2500     0.0642  3996.0000
   9871.0000     0.0587     0.0252     0.0261     0.0073     0.0001     0.0003     0.0003     0.0000     0.0000  1093.1626     0.0006     0.0082     0.0006     0.0080   193.2237    78.7665   295.0450    43.7173    47.2203     0.0160   284.5835     5.7893    30.1759     0.0001     0.0000     0.4144     1.2203  -999.2500     0.0593  3978.0000
   9871.5000     0.0515     0.0122     0.0231     0.0163     0.0000     0.0027     0.0014     0.0000     0.0000  1088.5410     0.0042     0.0059     0.0006     0.0204   193.2237    78.7665   394.1038    43.7161    59.8692     0.0201   384.3443     7.4353    41.2544     0.0002     0.0006     0.6593     2.4150  -999.2500     0.0557  3970.0000
   9872.0000     0.0369     0.0106     0.0197     0.0062     0.0003     0.0127     0.0000     0.0000     0.0000  1078.5870     0.0127     0.0095     0.0006     0.0192   193.2237    81.5758   560.2156    43.7149    78.0412     0.0251   541.4160    10.2959    58.7969     0.0003     0.0072     0.9008     3.7440  -999.2500     0.0496  3956.0000
   9872.5000     0.0441     0.0174     0.0241     0.0022     0.0004     0.0145     0.0000     0.0000     0.0000  1083.5641     0.0146     0.0098     0.0006     0.0172   193.2237    79.2348   642.1359    43.7136    81.4154     0.0257   610.9391    11.0597    67.2255     0.0004     0.0129     0.5286     3.0339  -999.2500     0.0587  3959.0000
   9873.0000     0.0484     0.0182     0.0234     0.0062     0.0006     0.0111     0.0000     0.0000     0.0000  1078.5870     0.0111     0.0083     0.0006     0.0179   193.2237    79.2348   629.7578    43.7124    71.3291     0.0213   585.4872    10.4143    65.3512     0.0003     0.0065     0.0717     2.5563  -999.2500     0.0595  3961.0000
   9873.5000     0.0485     0.0158     0.0184     0.0131     0.0013     0.0056     0.0012     0.0000     0.0000  1083.5641     0.0068     0.0103     0.0006     0.0212   193.2237    79.6444   548.0234    43.7112    58.8489     0.0173   500.2792     8.7475    56.2243     0.0003     0.0019     0.1190     2.6565  -999.2500     0.0553  3961.0000
   9874.0000     0.0449     0.0169     0.0161     0.0083     0.0036     0.0069     0.0002     0.0000     0.0000  1068.9885     0.0071     0.0097     0.0006     0.0190   193.2237    79.0007   521.4623    43.7099    55.3381     0.0160   484.3035     8.3849    54.7358     0.0002     0.0018     0.0838     2.6215  -999.2500     0.0520  3920.0000
   9874.5000     0.0404     0.0163     0.0160     0.0042     0.0038     0.0055     0.0001     0.0000     0.0000  1093.1626     0.0056     0.0057     0.0006     0.0136   193.2237    79.0007   540.2742    43.7087    58.7204     0.0169   505.0735     8.9480    56.7892     0.0001     0.0009     0.0912     2.2778  -999.2500     0.0460  3948.0000
   9875.0000     0.0339     0.0113     0.0150     0.0061     0.0015     0.0015     0.0004     0.0003     0.0006  1078.5870     0.0027     0.0031     0.0006     0.0103   193.2237    79.4689   570.0357    43.7075    65.1456     0.0189   542.1330     9.8003    60.5948     0.0000     0.0001     0.1198     2.1955  -999.2500     0.0366  3979.0000
   9875.5000     0.0318     0.0122     0.0146     0.0046     0.0005     0.0000     0.0000     0.0000     0.0024  1098.1395     0.0024     0.0035     0.0006     0.0075   193.2237    79.4689   610.9029    43.7062    78.3421     0.0238   583.6475    11.1852    64.1309     0.0000     0.0001     0.2735     2.2340  -999.2500     0.0343  3938.0000
   9876.0000     0.0234     0.0075     0.0092     0.0056     0.0012     0.0011     0.0005     0.0003     0.0007  1098.1395     0.0027     0.0031     0.0006     0.0094   193.2237    79.0592   627.4444    43.7050    92.9670     0.0282   606.9363    13.2767    65.3019     0.0000     0.0001     0.4163     2.8027  -999.2500     0.0260  3959.0000
   9876.5000     0.0237     0.0076     0.0049     0.0064     0.0049     0.0008     0.0056     0.0000     0.0000  1078.5870     0.0064     0.0048     0.0006     0.0177   193.2237    78.7665   580.9695    43.7038    96.6526     0.0295   552.5610    13.6954    58.0723     0.0001     0.0006     0.3287     5.8275  -999.2500     0.0301  3972.0000
   9877.0000     0.0264     0.0104     0.0008     0.0082     0.0071     0.0041     0.0114     0.0000     0.0000  1088.5410     0.0156     0.0068     0.0006     0.0308   193.2237    78.7665   448.2322    43.7026    80.9965     0.0248   409.6274    11.4532    41.9112     0.0015     0.0108     0.2933    10.9746  -999.2500     0.0420  3967.0000
   9877.5000     0.0248     0.0106     0.0034     0.0069     0.0038     0.0131     0.0144     0.0000     0.0000  1088.5410     0.0275     0.0090     0.0006     0.0382   193.2237    78.7665   274.5990    43.7013    55.6945     0.0181   249.2609     7.2628    24.7120     0.0068     0.0916     0.0000    15.1146  -999.2500     0.0522  3994.0000
   9878.0000     0.0232     0.0009     0.0101     0.0117     0.0005     0.0133     0.0184     0.0000     0.0000  1078.5870     0.0317     0.0106     0.0006     0.0439   193.2237    78.7665   152.3076    43.7001    36.3251     0.0121   139.4449     4.5561    13.1781     0.0201     0.1700     0.1425    23.4672  -999.2500     0.0549  3971.0000
   9878.5000     0.0284     0.0010     0.0156     0.0115     0.0002     0.0077     0.0188     0.0004     0.0000  1088.5410     0.0268     0.0111     0.0006     0.0386   193.2237    79.7030   106.8320    43.6989    33.5409     0.0114   104.8905     4.0628     9.1162     0.0111     0.0830     0.2487    17.3040  -999.2500     0.0552  3980.0000
   9879.0000     0.0353     0.0052     0.0194     0.0085     0.0022     0.0058     0.0105     0.0058     0.0000  1088.5410     0.0221     0.0107     0.0006     0.0328   193.2237    78.7665    96.2432    43.6976    36.3244     0.0126    92.4414     4.2887     7.1883     0.0060     0.0427     0.2268    11.7193  -999.2500     0.0575  3985.0000
   9879.5000     0.0477     0.0194     0.0160     0.0083     0.0039     0.0045     0.0106     0.0067     0.0002  1088.5410     0.0219     0.0087     0.0006     0.0341   193.2237    77.8301    92.0230    43.6964    46.1281     0.0159    87.0053     5.4552     5.1772     0.0046     0.0494     0.0427     6.9703  -999.2500     0.0696  4023.0000
   9880.0000     0.0585     0.0278     0.0181     0.0109     0.0018     0.0057     0.0169     0.0037     0.0000  1083.5641     0.0263     0.0072     0.0006     0.0390   193.2237    80.1712    85.1066    43.6952    58.6269     0.0204    86.4220     6.8202     3.6036     0.0064     0.1051     0.0000     5.5676  -999.2500     0.0848  3961.0000
   9880.5000     0.0558     0.0224     0.0206     0.0122     0.0006     0.0092     0.0179     0.0033     0.0000  1078.5870     0.0304     0.0090     0.0006     0.0432   193.2237    80.1712    84.6295    43.6940    64.1711     0.0222    84.7856     7.5538     2.7643     0.0106     0.1640     0.1605     6.9333  -999.2500     0.0862  4013.0000
   9881.0000     0.0457     0.0168     0.0200     0.0087     0.0002     0.0124     0.0127     0.0040     0.0005  1093.1626     0.0296     0.0096     0.0006     0.0385   193.2237    79.6444    79.1432    43.6927    66.6716     0.0230    84.5995     7.8952     2.4306     0.0085     0.1344     0.1491     8.1171  -999.2500     0.0753  4017.0000
   9881.5000     0.0339     0.0147     0.0156     0.0033     0.0002     0.0150     0.0095     0.0014     0.0060  1073.9656     0.0318     0.0078     0.0006     0.0353   193.2237    79.0007    76.6305    43.6915    63.6589     0.0221    79.4117     7.4866     2.1710     0.0121     0.1635     0.0373    12.7675  -999.2500     0.0657  3946.0000
   9882.0000     0.0330     0.0157     0.0130     0.0040     0.0003     0.0125     0.0117     0.0050     0.0047  1078.5870     0.0339     0.0059     0.0006     0.0381   193.2237    78.7665    74.5182    43.6903    60.8394     0.0214    77.2949     6.9588     2.2585     0.0175     0.2104     0.1252    14.7884  -999.2500     0.0668  4017.0000
