~VERSION INFORMATION
VERS.           1.2   :CWLS Log ASCII Standard - VERSION 1.2
WRAP.           NO    :One Line per depth step
PROD.  Schlumberger   :LAS Producer
PROG.  DLIS to ASCII 10C0-306                          :LAS Program name and version
CREA.        2008/03/26 10:13                          :LAS Creation date {YYYY/MM/DD hh:mm}
SOURCE.     774092c5-b8df-4536-8e1f-80ab68e4b553       :DLIS File Name
#--------------------------------------------------
~WELL INFORMATION
#MNEM.UNIT      DATA             DESCRIPTION
#---- ------ --------------   -----------------------------
STRT .F      9858.5000       :START DEPTH     
STOP .F      10117.5000      :STOP DEPTH     
STEP .F       0.5000         :STEP       
NULL .          -999.25      :NULL VALUE
COMP .                 COMPANY:                   
WELL .                    WELL:                      
FLD  .                   FIELD:                            
LOC  .                LOCATION:                                     
CNTY .                  COUNTY:                            
STAT .                   STATE:                            
CTRY .                 COUNTRY:                                     
SRVC .         SERVICE COMPANY:  Schlumberger                       
API  .              API NUMBER:                         
DATE .                LOG DATE:  
UWI  .          UNIQUE WELL ID:                                     
#-----------------------------------------------------------------------------
~PARAMETER INFORMATION
#MNEM.UNIT    VALUE                      DESCRIPTION
#---- -----   --------------------       ------------------------
CN   .                  :Company Name
WN   .                   :Well Name
FN   .                            :Field Name
FL   .                                   :Field Location
FL1  .                                   :Field Location Line 1
COUN .                          :County or Rig Name
STAT .                          :State or Province
NATI .                                   :Nation
DATE .                        :Date as Month-Day-Year
APIN .                       :API Serial Number
SECT .                                 :Section
TOWN .                              :Township
RANG .                               :Range
DMF  .        KELLY BUSHING              :Drilling Measured From
LMF  .        KELLY BUSHING              :Log Measured From
PDAT .        GROUND LEVEL               :Permanent Datum
ENGI .                         :Engineer's Name
WITN .                    :Witness's Name
LATI .                                   :Latitude
LONG .                                   :Longitude
LUL  .        WILLISTON                  :Logging Unit Location
LUN  .                              :Logging Unit Number
RUN  .        ONE                        :Run Number
SON  .        12018689                   :Service Order Number
BHT  .DEGF     191.00000                 :Bottom Hole Temperature (used in calculations)
BS   .IN         8.75000                 :Bit Size
DFD  .LB/G       9.80000                 :Drilling Fluid Density
DFV  .S         58.00000                 :Drilling Fluid Viscosity
DFL  .C3         1.60000                 :Drilling Fluid Loss
RMFS .                                   :Resistivity of Mud Filtrate Sample
EKB  .                                   :Elevation of Kelly Bushing
EGL  .                                   :Elevation of Ground Level
BLI  .F       10124.00000                :Bottom Log Interval
BSAL .                                   :Borehole Salinity
FLEV .                                   :Fluid Level
MCST .                                   :Mud Cake Sample Temperature
MFST .                                   :Mud Filtrate Sample Temperature
MRT  .DEGF     191.00000                 :Maximum Recorded Temperature
MST  .                                   :Mud Sample Temperature
RMCS .                                   :Resistivity of Mud Cake Sample
RMS  .                                   :Resistivity of Mud Sample
RW   .OHMM       1.00000                 :Resistivity of Connate Water
TDD  .F       10124.00000                :Total Depth - Driller
TDL  .F       10116.00000                :Total Depth - Logger
TLI  .F       2124.00000                 :Top Log Interval
HIDE .                                   :Header Identifier
MATR .        LIME                       :Rock Matrix for Neutron Porosity Corrections
DFT  .        OIL BASE MUD               :Drilling Fluid Type
DFPH .                                   :Drilling Fluid PH
MCSS .                                   :Mud Cake Sample Source
MFSS .                                   :Mud Filtrate Sample Source
MSS  .        NONE                       :Mud Sample Source
OS1  .                                   :Other Services Line 1
OS2  .                                   :Other Services Line 2
OS3  .                                   :Other Services Line 3
OS4  .                                   :Other Services Line 4
OS5  .                                   :Other Services Line 5
R1   .                                   :Remark Line 1
R2   .        ALL LOGS RECORDED IN CENTRAL STANDARD TIME :Remark Line 2
R3   .        TOOL STRING RUN AS PER TOOL SKETCH :Remark Line 3
R4   .        TEMPERATURE RECORDED FROM HILT :Remark Line 4
R5   .                                   :Remark Line 5
R6   .        MATRIX  LIMESTONE          :Remark Line 6
R7   .        DENSITY  2.71 G/CC         :Remark Line 7
R8   .                                   :Remark Line 8
TCS  .        7 00                       :Time Circulation Stopped
TLAB .                                   :Time Logger At Bottom
EPD  .C3                                 :Elevation of Permanent Datum above Mean Sea Level
APD  .                                   :Elevation of Depth Reference (LMF) above Permanent Datum
#-----------------------------------------------------------------------------
~CURVE INFORMATION
#MNEM.UNIT   API CODE                                  DESCRIPTION
#---- -----  --------                                  -----------------------
DEPT .F                                                :DEPTH (BOREHOLE) {F12.4}
BFV  .CFCF                                             :Bound Fluid Volume {F11.4}
CBP1 .CFCF                                             :CMR Bin Porosity 1 {F11.4}
CBP2 .CFCF                                             :CMR Bin Porosity 2 {F11.4}
CBP3 .CFCF                                             :CMR Bin Porosity 3 {F11.4}
CBP4 .CFCF                                             :CMR Bin Porosity 4 {F11.4}
CBP5 .CFCF                                             :CMR Bin Porosity 5 {F11.4}
CBP6 .CFCF                                             :CMR Bin Porosity 6 {F11.4}
CBP7 .CFCF                                             :CMR Bin Porosity 7 {F11.4}
CBP8 .CFCF                                             :CMR Bin Porosity 8 {F11.4}
CDF  .LBF                                              :Calibrated Downhole Force {F11.4}
CMFF .CFCF                                             :CMR Free Fluid {F11.4}
CMFF_SIG.CFCF                                          :Standard Deviation of CMR Free Fluid {F11.4}
CMR_PHI_CONV.                                          :CMR Porosity Conversion factor {F11.4}
CMRP_3MS.CFCF                                          :CMR 3ms Porosity {F11.4}
CTEM .DEGF                                             :Cartridge Temperature {F11.4}
ECST .DEGF                                             :ECS Temperature {F11.4}
GR_EDTC.GAPI                                           :Gamma Ray {F11.4}
GTEM .DEGF                                             :Generalized Borehole Temperature {F11.4}
HCGR .GAPI                                             :HNGS Computed Gamma Ray {F11.4}
HFK  .CFCF                                             :HNGS Formation Potassium Concentration {F11.4}
HSGR .GAPI                                             :HNGS Standard Gamma Ray {F11.4}
HTHO .PPM                                              :HNGS Formation Thorium Concentration {F11.4}
HURA .PPM                                              :HNGS Formation Uranium Concentration {F11.4}
KSDR .MD                                               :Permeability from CMR - SDR Model {F11.4}
KTIM .MD                                               :Permeability from CMR - Timur Model {F11.4}
QCPMT.                                                 :Photomultiplier Tube Quality Control {F11.4}
T2LM .MS                                               :T2 Logarithmic Mean {F11.4}
T2LM_SIG.MS                                            :Standard Deviation of T2 Logarithmic Mean {F11.4}
TCMR .CFCF                                             :Total CMR Porosity {F11.4}
TENS .LBF                                              :Cable Tension {F11.4}
#-----------------------------------------------------------------------------
# 
#      DEPT        BFV        CBP1       CBP2       CBP3       CBP4       CBP5       CBP6       CBP7       CBP8       CDF        CMFF     CMFF_SIG  CMR_PHI_CO  CMRP_3MS     CTEM       ECST     GR_EDTC      GTEM       HCGR       HFK        HSGR       HTHO       HURA       KSDR       KTIM      QCPMT       T2LM     T2LM_SIG     TCMR       TENS
#                                                                                                                                                   NV
~A  
# ...
   9978.5000     0.0468     0.0057     0.0376     0.0019     0.0016     0.0126     0.0018     0.0053     0.0097  1039.8375     0.0294     0.0148     0.0006     0.0329   189.2707    78.5324    60.3876    43.4529    51.8321     0.0182    61.8340     5.9405     1.3649     0.0202     0.1332     0.2791    12.2248  -999.2500     0.0762  3854.0000
   9979.0000     0.0483     0.0046     0.0386     0.0036     0.0015     0.0037     0.0201     0.0035     0.0000  1034.8606     0.0274     0.0117     0.0006     0.0325   189.2707    77.5960    55.8038    43.4516    46.3429     0.0163    56.2844     5.3215     1.3278     0.0113     0.1055     0.2539     9.2926  -999.2500     0.0757  3907.0000
   9979.5000     0.0440     0.0016     0.0184     0.0145     0.0095     0.0000     0.0199     0.0051     0.0000  1034.8606     0.0250     0.0090     0.0006     0.0491   189.2707    77.5960    56.5742    43.4504    49.6848     0.0175    59.8821     5.6706     1.4174     0.0246     0.0733     0.3108    16.4415  -999.2500     0.0691  3889.0000
   9980.0000     0.0464     0.0049     0.0144     0.0172     0.0099     0.0034     0.0133     0.0093     0.0000  1039.8375     0.0259     0.0082     0.0006     0.0530   189.2707    80.2297    62.7330    43.4492    54.4661     0.0188    64.0227     6.4411     1.4331     0.0283     0.0856     0.1246    16.0908  -999.2500     0.0723  3895.0000
   9980.5000     0.0570     0.0052     0.0216     0.0188     0.0113     0.0043     0.0122     0.0089     0.0003  1034.8606     0.0256     0.0072     0.0006     0.0558   189.2707    78.2983    64.4452    43.4479    57.6687     0.0198    66.3661     6.8614     1.2910     0.0298     0.0941     0.0000    12.6666  -999.2500     0.0826  3907.0000
   9981.0000     0.0645     0.0056     0.0231     0.0209     0.0149     0.0000     0.0126     0.0089     0.0000  1044.8146     0.0215     0.0072     0.0006     0.0573   189.2707    77.8301    63.3322    43.4467    54.8951     0.0192    63.0963     6.3548     1.2036     0.0267     0.0608     0.1036    11.0343  -999.2500     0.0860  3863.0000
   9981.5000     0.0690     0.0052     0.0222     0.0282     0.0135     0.0000     0.0107     0.0075     0.0000  1039.8375     0.0182     0.0075     0.0006     0.0598   189.2707    78.2983    67.3871    43.4455    60.9110     0.0214    69.7920     6.9575     1.2645     0.0204     0.0401     0.0000     9.3922  -999.2500     0.0872  3935.0000
   9982.0000     0.0787     0.0095     0.0222     0.0342     0.0128     0.0000     0.0063     0.0070     0.0000  1034.8606     0.0133     0.0077     0.0006     0.0603   189.2707    78.2983    81.9816    43.4443    72.0375     0.0259    83.1836     7.8929     1.6021     0.0128     0.0204     0.0000     6.6759  -999.2500     0.0920  3943.0000
   9982.5000     0.0920     0.0147     0.0236     0.0393     0.0144     0.0000     0.0014     0.0069     0.0008  1034.8606     0.0091     0.0077     0.0006     0.0627   189.2707    78.7665    98.6754    43.4430    88.5200     0.0316   101.7122     9.8706     1.8450     0.0108     0.0101     0.2850     5.0828  -999.2500     0.1010  3878.0000
   9983.0000     0.0978     0.0198     0.0252     0.0403     0.0125     0.0000     0.0001     0.0060     0.0024  1039.8375     0.0084     0.0073     0.0006     0.0612   189.2707    78.7665   108.7343    43.4418    96.0033     0.0340   111.1112    10.8285     2.0792     0.0099     0.0095     0.1568     4.4002  -999.2500     0.1062  3951.0000
   9983.5000     0.0936     0.0252     0.0274     0.0322     0.0088     0.0000     0.0004     0.0094     0.0014  1049.4360     0.0113     0.0073     0.0006     0.0522   189.2707    78.5324   109.9775    43.4406    95.2574     0.0341   111.7618    10.5445     2.3544     0.0079     0.0175     0.1404     4.0353  -999.2500     0.1049  3898.0000
   9984.0000     0.0752     0.0248     0.0232     0.0169     0.0103     0.0021     0.0031     0.0053     0.0048  1034.8606     0.0153     0.0075     0.0006     0.0426   189.2707    78.1813   103.8065    43.4393    88.4666     0.0319   103.0171     9.6502     2.1251     0.0068     0.0279     0.0000     5.0446  -999.2500     0.0905  3943.0000
   9984.5000     0.0537     0.0169     0.0169     0.0118     0.0081     0.0047     0.0079     0.0059     0.0005  1039.8375     0.0190     0.0072     0.0006     0.0389   189.2707    77.8301    91.1469    43.4381    75.6951     0.0278    87.3364     7.9532     1.7427     0.0053     0.0349     0.1049     6.8623  -999.2500     0.0727  3948.0000
   9985.0000     0.0464     0.0133     0.0155     0.0062     0.0113     0.0018     0.0130     0.0045     0.0000  1034.8606     0.0192     0.0074     0.0006     0.0367   189.2707    78.7665    73.3553    43.4369    60.9331     0.0227    71.5687     6.2392     1.5407     0.0058     0.0318     0.0130     8.8855  -999.2500     0.0656  3906.0000
   9985.5000     0.0538     0.0146     0.0217     0.0072     0.0102     0.0014     0.0093     0.0080     0.0000  1034.8606     0.0187     0.0077     0.0006     0.0361   189.2707    78.2983    63.8534    43.4356    53.7404     0.0205    63.8317     5.1972     1.3894     0.0063     0.0332     0.0000     7.5682  -999.2500     0.0724  3944.0000
   9986.0000     0.0508     0.0089     0.0224     0.0164     0.0030     0.0080     0.0042     0.0028     0.0078  1034.8606     0.0228     0.0076     0.0006     0.0423   189.2707    78.2983    63.6697    43.4344    55.2059     0.0210    66.1795     5.3841     1.4924     0.0131     0.0594     0.0000    10.5673  -999.2500     0.0737  3944.0000
   9986.5000     0.0436     0.0036     0.0166     0.0215     0.0018     0.0112     0.0026     0.0000     0.0085  1039.8375     0.0223     0.0081     0.0006     0.0456   189.2707    78.7665    66.9704    43.4332    59.0820     0.0228    70.9823     5.5778     1.5690     0.0140     0.0494     0.0578    13.6365  -999.2500     0.0659  3946.0000
   9987.0000     0.0513     0.0068     0.0177     0.0224     0.0044     0.0079     0.0065     0.0008     0.0010  1034.8606     0.0163     0.0077     0.0006     0.0431   189.2707    78.7665    74.7654    43.4320    67.2853     0.0260    80.6181     6.3305     1.8308     0.0042     0.0209     0.0000     7.1480  -999.2500     0.0675  3924.0000
   9987.5000     0.0683     0.0163     0.0245     0.0209     0.0066     0.0080     0.0053     0.0000     0.0000  1034.8606     0.0133     0.0065     0.0006     0.0409   189.2707    80.1712    86.5661    43.4307    79.3400     0.0305    94.7992     7.5752     2.0924     0.0030     0.0167     0.0000     4.0862  -999.2500     0.0816  3922.0000
   9988.0000     0.0873     0.0261     0.0299     0.0213     0.0100     0.0056     0.0044     0.0011     0.0000  1034.8606     0.0111     0.0061     0.0006     0.0424   189.2707    81.5758   101.3166    43.4295    89.6319     0.0345   105.9748     8.4753     2.2742     0.0038     0.0152     0.0616     3.1820  -999.2500     0.0984  3899.0000
   9988.5000     0.0859     0.0292     0.0242     0.0185     0.0139     0.0035     0.0020     0.0031     0.0021  1034.8606     0.0107     0.0065     0.0006     0.0430   189.2707    79.2348   101.5460    43.4283    87.7550     0.0340   103.2162     8.1858     2.1261     0.0043     0.0134     0.0000     3.5371  -999.2500     0.0965  3938.0000
   9989.0000     0.0846     0.0343     0.0152     0.0148     0.0204     0.0014     0.0000     0.0000     0.0076  1039.8375     0.0090     0.0070     0.0006     0.0443   189.2707    78.7665    98.6648    43.4270    81.4214     0.0317    95.0249     7.5224     1.8112     0.0050     0.0088     0.0747     4.0435  -999.2500     0.0937  3879.0000
   9989.5000     0.0899     0.0422     0.0101     0.0154     0.0221     0.0013     0.0000     0.0000     0.0073  1034.8606     0.0086     0.0070     0.0006     0.0462   189.2707    78.7665    93.2020    43.4258    79.9275     0.0309    93.1293     7.4924     1.7390     0.0047     0.0086     0.4123     3.5411  -999.2500     0.0985  3970.0000
   9990.0000     0.0924     0.0412     0.0140     0.0217     0.0155     0.0028     0.0037     0.0032     0.0024  1044.8146     0.0121     0.0071     0.0006     0.0493   189.2707    78.2983    97.7584    43.4246    84.6244     0.0326    99.9281     8.0328     1.9476     0.0052     0.0203     0.0703     3.3077  -999.2500     0.1045  3850.0000
