~VERSION INFORMATION
VERS.           1.2   :CWLS Log ASCII Standard - VERSION 1.2
WRAP.           NO    :One Line per depth step
PROD.  Schlumberger   :LAS Producer
PROG.  DLIS to ASCII 10C0-306                          :LAS Program name and version
CREA.        2008/03/26 10:13                          :LAS Creation date {YYYY/MM/DD hh:mm}
SOURCE.     774092c5-b8df-4536-8e1f-80ab68e4b553       :DLIS File Name
#--------------------------------------------------
~WELL INFORMATION
#MNEM.UNIT      DATA             DESCRIPTION
#---- ------ --------------   -----------------------------
STRT .F      9858.5000       :START DEPTH     
STOP .F      10117.5000      :STOP DEPTH     
STEP .F       0.5000         :STEP       
NULL .          -999.25      :NULL VALUE
COMP .                 COMPANY:                   
WELL .                    WELL:                      
FLD  .                   FIELD:                            
LOC  .                LOCATION:                                     
CNTY .                  COUNTY:                            
STAT .                   STATE:                            
CTRY .                 COUNTRY:                                     
SRVC .         SERVICE COMPANY:  Schlumberger                       
API  .              API NUMBER:                         
DATE .                LOG DATE:  
UWI  .          UNIQUE WELL ID:                                     
#-----------------------------------------------------------------------------
~PARAMETER INFORMATION
#MNEM.UNIT    VALUE                      DESCRIPTION
#---- -----   --------------------       ------------------------
CN   .                  :Company Name
WN   .                   :Well Name
FN   .                            :Field Name
FL   .                                   :Field Location
FL1  .                                   :Field Location Line 1
COUN .                          :County or Rig Name
STAT .                          :State or Province
NATI .                                   :Nation
DATE .                        :Date as Month-Day-Year
APIN .                       :API Serial Number
SECT .                                 :Section
TOWN .                              :Township
RANG .                               :Range
DMF  .        KELLY BUSHING              :Drilling Measured From
LMF  .        KELLY BUSHING              :Log Measured From
PDAT .        GROUND LEVEL               :Permanent Datum
ENGI .                         :Engineer's Name
WITN .                    :Witness's Name
LATI .                                   :Latitude
LONG .                                   :Longitude
LUL  .        WILLISTON                  :Logging Unit Location
LUN  .                              :Logging Unit Number
RUN  .        ONE                        :Run Number
SON  .        12018689                   :Service Order Number
BHT  .DEGF     191.00000                 :Bottom Hole Temperature (used in calculations)
BS   .IN         8.75000                 :Bit Size
DFD  .LB/G       9.80000                 :Drilling Fluid Density
DFV  .S         58.00000                 :Drilling Fluid Viscosity
DFL  .C3         1.60000                 :Drilling Fluid Loss
RMFS .                                   :Resistivity of Mud Filtrate Sample
EKB  .                                   :Elevation of Kelly Bushing
EGL  .                                   :Elevation of Ground Level
BLI  .F       10124.00000                :Bottom Log Interval
BSAL .                                   :Borehole Salinity
FLEV .                                   :Fluid Level
MCST .                                   :Mud Cake Sample Temperature
MFST .                                   :Mud Filtrate Sample Temperature
MRT  .DEGF     191.00000                 :Maximum Recorded Temperature
MST  .                                   :Mud Sample Temperature
RMCS .                                   :Resistivity of Mud Cake Sample
RMS  .                                   :Resistivity of Mud Sample
RW   .OHMM       1.00000                 :Resistivity of Connate Water
TDD  .F       10124.00000                :Total Depth - Driller
TDL  .F       10116.00000                :Total Depth - Logger
TLI  .F       2124.00000                 :Top Log Interval
HIDE .                                   :Header Identifier
MATR .        LIME                       :Rock Matrix for Neutron Porosity Corrections
DFT  .        OIL BASE MUD               :Drilling Fluid Type
DFPH .                                   :Drilling Fluid PH
MCSS .                                   :Mud Cake Sample Source
MFSS .                                   :Mud Filtrate Sample Source
MSS  .        NONE                       :Mud Sample Source
OS1  .                                   :Other Services Line 1
OS2  .                                   :Other Services Line 2
OS3  .                                   :Other Services Line 3
OS4  .                                   :Other Services Line 4
OS5  .                                   :Other Services Line 5
R1   .                                   :Remark Line 1
R2   .        ALL LOGS RECORDED IN CENTRAL STANDARD TIME :Remark Line 2
R3   .        TOOL STRING RUN AS PER TOOL SKETCH :Remark Line 3
R4   .        TEMPERATURE RECORDED FROM HILT :Remark Line 4
R5   .                                   :Remark Line 5
R6   .        MATRIX  LIMESTONE          :Remark Line 6
R7   .        DENSITY  2.71 G/CC         :Remark Line 7
R8   .                                   :Remark Line 8
TCS  .        7 00                       :Time Circulation Stopped
TLAB .                                   :Time Logger At Bottom
EPD  .C3                                 :Elevation of Permanent Datum above Mean Sea Level
APD  .                                   :Elevation of Depth Reference (LMF) above Permanent Datum
#-----------------------------------------------------------------------------
~CURVE INFORMATION
#MNEM.UNIT   API CODE                                  DESCRIPTION
#---- -----  --------                                  -----------------------
DEPT .F                                                :DEPTH (BOREHOLE) {F12.4}
BFV  .CFCF                                             :Bound Fluid Volume {F11.4}
CBP1 .CFCF                                             :CMR Bin Porosity 1 {F11.4}
CBP2 .CFCF                                             :CMR Bin Porosity 2 {F11.4}
CBP3 .CFCF                                             :CMR Bin Porosity 3 {F11.4}
CBP4 .CFCF                                             :CMR Bin Porosity 4 {F11.4}
CBP5 .CFCF                                             :CMR Bin Porosity 5 {F11.4}
CBP6 .CFCF                                             :CMR Bin Porosity 6 {F11.4}
CBP7 .CFCF                                             :CMR Bin Porosity 7 {F11.4}
CBP8 .CFCF                                             :CMR Bin Porosity 8 {F11.4}
CDF  .LBF                                              :Calibrated Downhole Force {F11.4}
CMFF .CFCF                                             :CMR Free Fluid {F11.4}
CMFF_SIG.CFCF                                          :Standard Deviation of CMR Free Fluid {F11.4}
CMR_PHI_CONV.                                          :CMR Porosity Conversion factor {F11.4}
CMRP_3MS.CFCF                                          :CMR 3ms Porosity {F11.4}
CTEM .DEGF                                             :Cartridge Temperature {F11.4}
ECST .DEGF                                             :ECS Temperature {F11.4}
GR_EDTC.GAPI                                           :Gamma Ray {F11.4}
GTEM .DEGF                                             :Generalized Borehole Temperature {F11.4}
HCGR .GAPI                                             :HNGS Computed Gamma Ray {F11.4}
HFK  .CFCF                                             :HNGS Formation Potassium Concentration {F11.4}
HSGR .GAPI                                             :HNGS Standard Gamma Ray {F11.4}
HTHO .PPM                                              :HNGS Formation Thorium Concentration {F11.4}
HURA .PPM                                              :HNGS Formation Uranium Concentration {F11.4}
KSDR .MD                                               :Permeability from CMR - SDR Model {F11.4}
KTIM .MD                                               :Permeability from CMR - Timur Model {F11.4}
QCPMT.                                                 :Photomultiplier Tube Quality Control {F11.4}
T2LM .MS                                               :T2 Logarithmic Mean {F11.4}
T2LM_SIG.MS                                            :Standard Deviation of T2 Logarithmic Mean {F11.4}
TCMR .CFCF                                             :Total CMR Porosity {F11.4}
TENS .LBF                                              :Cable Tension {F11.4}
#-----------------------------------------------------------------------------
# 
#      DEPT        BFV        CBP1       CBP2       CBP3       CBP4       CBP5       CBP6       CBP7       CBP8       CDF        CMFF     CMFF_SIG  CMR_PHI_CO  CMRP_3MS     CTEM       ECST     GR_EDTC      GTEM       HCGR       HFK        HSGR       HTHO       HURA       KSDR       KTIM      QCPMT       T2LM     T2LM_SIG     TCMR       TENS
#                                                                                                                                                   NV
~A  
# ...
   9942.5000     0.0427     0.0191     0.0210     0.0027     0.0000     0.0010     0.0000     0.0000     0.0016  1049.4360     0.0026     0.0030     0.0006     0.0053   191.2472    78.2983   724.3244    43.5414    84.6575     0.0276   685.6442    10.9806    77.1810     0.0000     0.0002     0.0000     1.5246  -999.2500     0.0453  3907.0000
   9943.0000     0.0384     0.0150     0.0176     0.0057     0.0002     0.0022     0.0006     0.0001     0.0008  1054.4131     0.0036     0.0030     0.0006     0.0094   191.2472    78.7665   712.9995    43.5402    84.0842     0.0274   668.1059    10.8953    74.9373     0.0000     0.0003     0.3018     1.8835  -999.2500     0.0420  3928.0000
   9943.5000     0.0315     0.0108     0.0128     0.0060     0.0019     0.0036     0.0002     0.0000     0.0000  1049.4360     0.0038     0.0026     0.0006     0.0118   191.2472    78.7665   650.7256    43.5390    77.1010     0.0253   612.9810     9.8841    68.8133     0.0000     0.0002     0.0000     2.3748  -999.2500     0.0354  3952.0000
   9944.0000     0.0331     0.0095     0.0118     0.0055     0.0064     0.0013     0.0000     0.0000     0.0000  1054.4131     0.0014     0.0035     0.0006     0.0132   191.2472    78.2983   584.6092    43.5377    69.7264     0.0231   558.2635     8.8303    62.6372     0.0000     0.0000     0.1704     2.5990  -999.2500     0.0345  3897.0000
   9944.5000     0.0404     0.0111     0.0136     0.0090     0.0067     0.0008     0.0000     0.0000     0.0001  1054.4131     0.0009     0.0034     0.0006     0.0166   191.2472    80.4053   550.9316    43.5365    66.1392     0.0218   528.2069     8.4189    59.1774     0.0001     0.0000     0.0343     2.5120  -999.2500     0.0413  3929.0000
   9945.0000     0.0531     0.0185     0.0193     0.0112     0.0041     0.0020     0.0000     0.0000     0.0007  1049.4360     0.0027     0.0030     0.0006     0.0180   191.2472    79.4689   523.8490    43.5353    62.5377     0.0208   505.8521     7.8785    56.8211     0.0002     0.0003     0.1228     2.0952  -999.2500     0.0559  3946.0000
   9945.5000     0.0595     0.0281     0.0247     0.0064     0.0003     0.0060     0.0001     0.0000     0.0009  1054.4131     0.0070     0.0034     0.0006     0.0137   191.2472    78.7665   534.2477    43.5340    62.5209     0.0208   513.2549     7.8727    57.8855     0.0002     0.0027     0.0005     1.7260  -999.2500     0.0665  3892.0000
   9946.0000     0.0568     0.0299     0.0253     0.0015     0.0000     0.0058     0.0013     0.0000     0.0000  1054.4131     0.0071     0.0034     0.0006     0.0087   191.2472    78.7665   558.3484    43.5328    65.3825     0.0212   534.6392     8.5451    60.3411     0.0002     0.0026     0.0903     1.5001  -999.2500     0.0639  3979.0000
   9946.5000     0.0494     0.0244     0.0238     0.0012     0.0000     0.0033     0.0018     0.0000     0.0000  1044.8146     0.0051     0.0031     0.0006     0.0063   191.2472    78.7665   582.0876    43.5316    66.9889     0.0213   545.8478     9.0123    61.5417     0.0001     0.0009     0.2405     1.4691  -999.2500     0.0545  3906.0000
   9947.0000     0.0415     0.0172     0.0208     0.0035     0.0000     0.0021     0.0012     0.0000     0.0000  1044.8146     0.0033     0.0025     0.0006     0.0067   191.2472    78.7665   587.1680    43.5304    69.4532     0.0222   549.5775     9.2542    61.6631     0.0000     0.0002     0.1559     1.5492  -999.2500     0.0448  3909.0000
   9947.5000     0.0449     0.0179     0.0223     0.0047     0.0000     0.0002     0.0022     0.0000     0.0000  1044.8146     0.0025     0.0026     0.0006     0.0072   191.2472    78.7665   576.6730    43.5291    70.0625     0.0231   544.1039     8.9218    60.6493     0.0000     0.0002     0.3073     1.5091  -999.2500     0.0474  3930.0000
   9948.0000     0.0494     0.0200     0.0240     0.0054     0.0000     0.0000     0.0023     0.0000     0.0000  1039.8375     0.0024     0.0028     0.0006     0.0078   191.2472    78.7665   588.5536    43.5279    69.9417     0.0234   560.0094     8.7216    62.6892     0.0001     0.0002     0.2221     1.4749  -999.2500     0.0518  3897.0000
   9948.5000     0.0517     0.0236     0.0230     0.0050     0.0000     0.0000     0.0017     0.0008     0.0000  1044.8146     0.0025     0.0031     0.0006     0.0075   191.2472    80.8735   605.2109    43.5267    68.3956     0.0221   576.0295     8.9914    65.0062     0.0001     0.0002     0.3000     1.3800  -999.2500     0.0542  3878.0000
   9949.0000     0.0462     0.0224     0.0204     0.0035     0.0000     0.0000     0.0025     0.0000     0.0000  1044.8146     0.0025     0.0028     0.0006     0.0060   191.2472    79.4689   615.3718    43.5254    68.1452     0.0215   587.6402     9.2568    66.4915     0.0000     0.0002     0.1623     1.3254  -999.2500     0.0487  3938.0000
   9949.5000     0.0390     0.0182     0.0185     0.0023     0.0000     0.0001     0.0023     0.0000     0.0000  1044.8146     0.0025     0.0025     0.0006     0.0048   191.2472    78.5324   614.4300    43.5242    66.0201     0.0205   589.0293     9.1591    66.8938     0.0000     0.0001     0.1113     1.3791  -999.2500     0.0415  3894.0000
   9950.0000     0.0431     0.0194     0.0223     0.0014     0.0000     0.0000     0.0009     0.0000     0.0000  1049.4360     0.0009     0.0033     0.0006     0.0022   191.2472    78.0642   626.2176    43.5230    65.6026     0.0203   600.7021     9.1254    68.4281     0.0000     0.0000     0.1810     1.1409  -999.2500     0.0440  3928.0000
   9950.5000     0.0362     0.0143     0.0189     0.0030     0.0000     0.0000     0.0000     0.0000     0.0007  1049.4360     0.0007     0.0034     0.0006     0.0038   191.2472    78.7665   656.8746    43.5217    68.8714     0.0206   626.9832    10.0084    71.4443     0.0000     0.0000     0.1838     1.3593  -999.2500     0.0369  3878.0000
   9951.0000     0.0259     0.0081     0.0119     0.0055     0.0003     0.0000     0.0000     0.0000     0.0002  1049.4360     0.0002     0.0033     0.0006     0.0060   191.2472    77.8301   691.3135    43.5205    73.2849     0.0217   656.3016    10.7998    74.6690     0.0000     0.0000     0.4965     1.6208  -999.2500     0.0261  3897.0000
   9951.5000     0.0245     0.0061     0.0097     0.0063     0.0025     0.0000     0.0000     0.0000     0.0000  1049.4360     0.0000     0.0034     0.0006     0.0088   191.2472    76.8937   708.9549    43.5193    75.5578     0.0233   667.6711    10.5927    75.8200     0.0000     0.0000     0.7487     2.1450  -999.2500     0.0246  3960.0000
   9952.0000     0.0325     0.0089     0.0110     0.0099     0.0026     0.0018     0.0000     0.0000     0.0000  1049.4360     0.0018     0.0034     0.0006     0.0143   191.2472    78.7665   692.2610    43.5181    74.2093     0.0234   650.3486    10.0993    73.9390     0.0000     0.0000     0.3920     2.4474  -999.2500     0.0343  3909.0000
   9952.5000     0.0438     0.0145     0.0144     0.0124     0.0025     0.0034     0.0007     0.0000     0.0000  1049.4360     0.0041     0.0030     0.0006     0.0190   191.2472    79.7030   648.8369    43.5168    68.7082     0.0215   612.2004     9.3926    69.7392     0.0001     0.0005     0.1074     2.4242  -999.2500     0.0479  3923.0000
   9953.0000     0.0485     0.0208     0.0177     0.0076     0.0024     0.0055     0.0013     0.0000     0.0001  1049.4360     0.0069     0.0035     0.0006     0.0169   191.2472    81.1076   603.5552    43.5156    63.7564     0.0200   567.3287     8.7150    64.5722     0.0002     0.0019     0.0000     2.2002  -999.2500     0.0554  3898.0000
   9953.5000     0.0513     0.0209     0.0195     0.0052     0.0057     0.0039     0.0000     0.0000     0.0012  1044.8146     0.0051     0.0035     0.0006     0.0160   191.2472    79.2348   558.7897    43.5144    58.4946     0.0190   530.7203     7.6011    60.4974     0.0002     0.0010     0.1011     2.2389  -999.2500     0.0564  3912.0000
   9954.0000     0.0559     0.0212     0.0213     0.0059     0.0074     0.0010     0.0000     0.0000     0.0011  1054.4131     0.0021     0.0032     0.0006     0.0155   191.2472    78.7665   523.8566    43.5131    54.7190     0.0188   503.3600     6.5283    57.4739     0.0002     0.0002     0.0505     2.0172  -999.2500     0.0580  3937.0000
