~VERSION INFORMATION
VERS.           1.2   :CWLS Log ASCII Standard - VERSION 1.2
WRAP.           NO    :One Line per depth step
PROD.  Schlumberger   :LAS Producer
PROG.  DLIS to ASCII 10C0-306                          :LAS Program name and version
CREA.        2008/03/26 10:13                          :LAS Creation date {YYYY/MM/DD hh:mm}
SOURCE.     774092c5-b8df-4536-8e1f-80ab68e4b553       :DLIS File Name
#--------------------------------------------------
~WELL INFORMATION
#MNEM.UNIT      DATA             DESCRIPTION
#---- ------ --------------   -----------------------------
STRT .F      9858.5000       :START DEPTH     
STOP .F      10117.5000      :STOP DEPTH     
STEP .F       0.5000         :STEP       
NULL .          -999.25      :NULL VALUE
COMP .                 COMPANY:                   
WELL .                    WELL:                      
FLD  .                   FIELD:                            
LOC  .                LOCATION:                                     
CNTY .                  COUNTY:                            
STAT .                   STATE:                            
CTRY .                 COUNTRY:                                     
SRVC .         SERVICE COMPANY:  Schlumberger                       
API  .              API NUMBER:                         
DATE .                LOG DATE:  
UWI  .          UNIQUE WELL ID:                                     
#-----------------------------------------------------------------------------
~PARAMETER INFORMATION
#MNEM.UNIT    VALUE                      DESCRIPTION
#---- -----   --------------------       ------------------------
CN   .                  :Company Name
WN   .                   :Well Name
FN   .                            :Field Name
FL   .                                   :Field Location
FL1  .                                   :Field Location Line 1
COUN .                          :County or Rig Name
STAT .                          :State or Province
NATI .                                   :Nation
DATE .                        :Date as Month-Day-Year
APIN .                       :API Serial Number
SECT .                                 :Section
TOWN .                              :Township
RANG .                               :Range
DMF  .        KELLY BUSHING              :Drilling Measured From
LMF  .        KELLY BUSHING              :Log Measured From
PDAT .        GROUND LEVEL               :Permanent Datum
ENGI .                         :Engineer's Name
WITN .                    :Witness's Name
LATI .                                   :Latitude
LONG .                                   :Longitude
LUL  .        WILLISTON                  :Logging Unit Location
LUN  .                              :Logging Unit Number
RUN  .        ONE                        :Run Number
SON  .        12018689                   :Service Order Number
BHT  .DEGF     191.00000                 :Bottom Hole Temperature (used in calculations)
BS   .IN         8.75000                 :Bit Size
DFD  .LB/G       9.80000                 :Drilling Fluid Density
DFV  .S         58.00000                 :Drilling Fluid Viscosity
DFL  .C3         1.60000                 :Drilling Fluid Loss
RMFS .                                   :Resistivity of Mud Filtrate Sample
EKB  .                                   :Elevation of Kelly Bushing
EGL  .                                   :Elevation of Ground Level
BLI  .F       10124.00000                :Bottom Log Interval
BSAL .                                   :Borehole Salinity
FLEV .                                   :Fluid Level
MCST .                                   :Mud Cake Sample Temperature
MFST .                                   :Mud Filtrate Sample Temperature
MRT  .DEGF     191.00000                 :Maximum Recorded Temperature
MST  .                                   :Mud Sample Temperature
RMCS .                                   :Resistivity of Mud Cake Sample
RMS  .                                   :Resistivity of Mud Sample
RW   .OHMM       1.00000                 :Resistivity of Connate Water
TDD  .F       10124.00000                :Total Depth - Driller
TDL  .F       10116.00000                :Total Depth - Logger
TLI  .F       2124.00000                 :Top Log Interval
HIDE .                                   :Header Identifier
MATR .        LIME                       :Rock Matrix for Neutron Porosity Corrections
DFT  .        OIL BASE MUD               :Drilling Fluid Type
DFPH .                                   :Drilling Fluid PH
MCSS .                                   :Mud Cake Sample Source
MFSS .                                   :Mud Filtrate Sample Source
MSS  .        NONE                       :Mud Sample Source
OS1  .                                   :Other Services Line 1
OS2  .                                   :Other Services Line 2
OS3  .                                   :Other Services Line 3
OS4  .                                   :Other Services Line 4
OS5  .                                   :Other Services Line 5
R1   .                                   :Remark Line 1
R2   .        ALL LOGS RECORDED IN CENTRAL STANDARD TIME :Remark Line 2
R3   .        TOOL STRING RUN AS PER TOOL SKETCH :Remark Line 3
R4   .        TEMPERATURE RECORDED FROM HILT :Remark Line 4
R5   .                                   :Remark Line 5
R6   .        MATRIX  LIMESTONE          :Remark Line 6
R7   .        DENSITY  2.71 G/CC         :Remark Line 7
R8   .                                   :Remark Line 8
TCS  .        7 00                       :Time Circulation Stopped
TLAB .                                   :Time Logger At Bottom
EPD  .C3                                 :Elevation of Permanent Datum above Mean Sea Level
APD  .                                   :Elevation of Depth Reference (LMF) above Permanent Datum
#-----------------------------------------------------------------------------
~CURVE INFORMATION
#MNEM.UNIT   API CODE                                  DESCRIPTION
#---- -----  --------                                  -----------------------
DEPT .F                                                :DEPTH (BOREHOLE) {F12.4}
BFV  .CFCF                                             :Bound Fluid Volume {F11.4}
CBP1 .CFCF                                             :CMR Bin Porosity 1 {F11.4}
CBP2 .CFCF                                             :CMR Bin Porosity 2 {F11.4}
CBP3 .CFCF                                             :CMR Bin Porosity 3 {F11.4}
CBP4 .CFCF                                             :CMR Bin Porosity 4 {F11.4}
CBP5 .CFCF                                             :CMR Bin Porosity 5 {F11.4}
CBP6 .CFCF                                             :CMR Bin Porosity 6 {F11.4}
CBP7 .CFCF                                             :CMR Bin Porosity 7 {F11.4}
CBP8 .CFCF                                             :CMR Bin Porosity 8 {F11.4}
CDF  .LBF                                              :Calibrated Downhole Force {F11.4}
CMFF .CFCF                                             :CMR Free Fluid {F11.4}
CMFF_SIG.CFCF                                          :Standard Deviation of CMR Free Fluid {F11.4}
CMR_PHI_CONV.                                          :CMR Porosity Conversion factor {F11.4}
CMRP_3MS.CFCF                                          :CMR 3ms Porosity {F11.4}
CTEM .DEGF                                             :Cartridge Temperature {F11.4}
ECST .DEGF                                             :ECS Temperature {F11.4}
GR_EDTC.GAPI                                           :Gamma Ray {F11.4}
GTEM .DEGF                                             :Generalized Borehole Temperature {F11.4}
HCGR .GAPI                                             :HNGS Computed Gamma Ray {F11.4}
HFK  .CFCF                                             :HNGS Formation Potassium Concentration {F11.4}
HSGR .GAPI                                             :HNGS Standard Gamma Ray {F11.4}
HTHO .PPM                                              :HNGS Formation Thorium Concentration {F11.4}
HURA .PPM                                              :HNGS Formation Uranium Concentration {F11.4}
KSDR .MD                                               :Permeability from CMR - SDR Model {F11.4}
KTIM .MD                                               :Permeability from CMR - Timur Model {F11.4}
QCPMT.                                                 :Photomultiplier Tube Quality Control {F11.4}
T2LM .MS                                               :T2 Logarithmic Mean {F11.4}
T2LM_SIG.MS                                            :Standard Deviation of T2 Logarithmic Mean {F11.4}
TCMR .CFCF                                             :Total CMR Porosity {F11.4}
TENS .LBF                                              :Cable Tension {F11.4}
#-----------------------------------------------------------------------------
# 
#      DEPT        BFV        CBP1       CBP2       CBP3       CBP4       CBP5       CBP6       CBP7       CBP8       CDF        CMFF     CMFF_SIG  CMR_PHI_CO  CMRP_3MS     CTEM       ECST     GR_EDTC      GTEM       HCGR       HFK        HSGR       HTHO       HURA       KSDR       KTIM      QCPMT       T2LM     T2LM_SIG     TCMR       TENS
#                                                                                                                                                   NV
~A  
# ...
  10014.5000     0.0798     0.0014     0.0316     0.0401     0.0068     0.0000     0.0000     0.0000     0.0000  1044.8146     0.0000     0.0096     0.0006     0.0469   187.2943    79.7030   105.1116    43.3643    95.0298     0.0375   113.3279     8.4673     2.6653     0.0021     0.0000     0.3554     3.5584  -999.2500     0.0799  4013.0000
  10015.0000     0.0768     0.0006     0.0256     0.0407     0.0099     0.0000     0.0000     0.0000     0.0000  1039.8375     0.0000     0.0111     0.0006     0.0506   187.2943    79.0007   104.5385    43.3631    89.5742     0.0357   106.7452     7.7986     2.5279     0.0024     0.0000     0.1455     4.1168  -999.2500     0.0768  3963.0000
  10015.5000     0.0689     0.0025     0.0223     0.0325     0.0116     0.0022     0.0000     0.0000     0.0000  1034.8606     0.0022     0.0086     0.0006     0.0463   187.2943    79.0592   101.9401    43.3619    87.2399     0.0346   103.7858     7.7023     2.4552     0.0020     0.0003     0.0000     4.4611  -999.2500     0.0711  3990.0000
  10016.0000     0.0728     0.0048     0.0284     0.0323     0.0073     0.0000     0.0000     0.0000     0.0022  1039.8375     0.0022     0.0061     0.0006     0.0418   187.2943    78.7665   106.9502    43.3606    91.7537     0.0362   109.0309     8.1594     2.5611     0.0020     0.0003     0.0000     4.0029  -999.2500     0.0750  4023.0000
  10016.5000     0.0757     0.0068     0.0309     0.0324     0.0056     0.0000     0.0000     0.0000     0.0021  1034.8606     0.0021     0.0056     0.0006     0.0401   187.2943    77.5960   108.1748    43.3594    98.4937     0.0393   116.4424     8.5467     2.6486     0.0019     0.0003     0.1233     3.5735  -999.2500     0.0778  3974.0000
  10017.0000     0.0695     0.0105     0.0257     0.0269     0.0064     0.0000     0.0000     0.0000     0.0030  1044.8146     0.0030     0.0058     0.0006     0.0362   187.2943    77.5960   112.4207    43.3582   100.4610     0.0393   117.9829     9.1384     2.5725     0.0014     0.0005     0.0106     3.6131  -999.2500     0.0725  3994.0000
  10017.5000     0.0660     0.0158     0.0242     0.0176     0.0084     0.0000     0.0004     0.0029     0.0004  1049.4360     0.0037     0.0067     0.0006     0.0296   187.2943    77.5960   110.8382    43.3569    94.0999     0.0369   112.0506     8.5343     2.6545     0.0009     0.0007     0.2595     3.0775  -999.2500     0.0696  4002.0000
  10018.0000     0.0683     0.0216     0.0265     0.0151     0.0052     0.0034     0.0007     0.0005     0.0016  1039.8375     0.0062     0.0069     0.0006     0.0264   187.2943    77.5960   108.2564    43.3557    89.8842     0.0348   106.4965     8.4153     2.3945     0.0008     0.0025     0.6402     2.6087  -999.2500     0.0745  3941.0000
  10018.5000     0.0683     0.0216     0.0265     0.0151     0.0052     0.0034     0.0007     0.0005     0.0016  1034.8606     0.0062     0.0069     0.0006     0.0264   187.2943    77.5960   102.8659    43.3545    87.9806     0.0335   102.9951     8.5523     2.1963     0.0008     0.0025     0.1190     2.6087  -999.2500     0.0745  3987.0000
  10019.0000     0.0821     0.0355     0.0286     0.0141     0.0041     0.0028     0.0000     0.0000     0.0022  1030.2390     0.0050     0.0060     0.0006     0.0231   187.2943    77.5960   103.3656    43.3532    87.2919     0.0334   102.0422     8.3715     2.1236     0.0008     0.0021     0.1887     1.8286  -999.2500     0.0871  3979.0000
  10019.5000     0.0665     0.0207     0.0248     0.0189     0.0022     0.0001     0.0000     0.0000     0.0018  1039.8375     0.0019     0.0043     0.0006     0.0230   187.2943    78.5324   101.9363    43.3520    88.4311     0.0340   102.7368     8.4338     2.0175     0.0004     0.0002     0.0000     2.0964  -999.2500     0.0684  3935.0000
  10020.0000     0.0637     0.0200     0.0248     0.0184     0.0004     0.0000     0.0000     0.0000     0.0014  1049.4360     0.0014     0.0050     0.0006     0.0202   187.2943    77.5960   101.4422    43.3508    87.7675     0.0337   102.0055     8.3732     1.9952     0.0003     0.0001     0.0000     1.8991  -999.2500     0.0650  4017.0000
  10020.5000     0.0657     0.0234     0.0264     0.0159     0.0000     0.0000     0.0000     0.0000     0.0003  1044.8146     0.0003     0.0055     0.0006     0.0162   187.2943    77.5960    96.2518    43.3495    86.5280     0.0332   101.6439     8.2903     2.0625     0.0002     0.0000     0.5795     1.4849  -999.2500     0.0660  3966.0000
  10021.0000     0.0664     0.0250     0.0252     0.0151     0.0011     0.0009     0.0000     0.0000     0.0011  1049.4360     0.0020     0.0058     0.0006     0.0183   187.2943    77.5960    96.0986    43.3483    85.3329     0.0322    98.6136     8.4906     1.8044     0.0003     0.0002     0.5313     1.7060  -999.2500     0.0685  3961.0000
  10021.5000     0.0609     0.0226     0.0217     0.0151     0.0016     0.0075     0.0001     0.0000     0.0036  1034.8606     0.0112     0.0064     0.0006     0.0279   187.2943    76.6596    90.6719    43.3471    80.3253     0.0303    93.1775     7.9927     1.8070     0.0011     0.0092     0.4616     3.2158  -999.2500     0.0722  3998.0000
  10022.0000     0.0498     0.0135     0.0204     0.0154     0.0004     0.0149     0.0009     0.0000     0.0014  1039.8375     0.0172     0.0065     0.0006     0.0330   187.2943    77.5960    86.0240    43.3459    71.0821     0.0261    82.3486     7.4537     1.6058     0.0018     0.0239     0.1623     4.7630  -999.2500     0.0669  3942.0000
  10022.5000     0.0441     0.0139     0.0199     0.0096     0.0007     0.0205     0.0009     0.0000     0.0049  1044.8146     0.0263     0.0075     0.0006     0.0366   187.2943    77.5960    74.1141    43.3446    63.4137     0.0239    74.1480     6.2933     1.5627     0.0060     0.0875     0.0915     7.8246  -999.2500     0.0704  3950.0000
  10023.0000     0.0488     0.0130     0.0217     0.0133     0.0009     0.0206     0.0011     0.0000     0.0000  1044.8146     0.0217     0.0064     0.0006     0.0359   187.2943    77.5960    69.6376    43.3434    60.5263     0.0228    69.9117     6.0457     1.3886     0.0027     0.0490     0.0946     5.1785  -999.2500     0.0705  3995.0000
  10023.5000     0.0502     0.0111     0.0192     0.0167     0.0032     0.0175     0.0007     0.0000     0.0004  1044.8146     0.0187     0.0055     0.0006     0.0385   187.2943    77.5960    66.3166    43.3422    60.4824     0.0230    69.9331     5.9149     1.3821     0.0027     0.0310     0.3969     5.5007  -999.2500     0.0689  3994.0000
  10024.0000     0.0491     0.0075     0.0169     0.0163     0.0085     0.0087     0.0000     0.0000     0.0000  1039.8375     0.0087     0.0040     0.0006     0.0336   187.2943    77.5960    66.0668    43.3409    60.5607     0.0232    70.0731     5.7905     1.3894     0.0010     0.0036     0.4202     4.7596  -999.2500     0.0579  3976.0000
  10024.5000     0.0446     0.0062     0.0168     0.0180     0.0036     0.0050     0.0000     0.0000     0.0000  1044.8146     0.0050     0.0031     0.0006     0.0267   187.2943    78.5324    71.6979    43.3397    67.2917     0.0254    77.2750     6.7040     1.5235     0.0003     0.0008     0.1598     3.7223  -999.2500     0.0497  4033.0000
  10025.0000     0.0542     0.0075     0.0212     0.0225     0.0031     0.0019     0.0011     0.0000     0.0000  1044.8146     0.0030     0.0037     0.0006     0.0286   187.2943    77.5960    81.3909    43.3385    74.6970     0.0281    86.8512     7.4601     1.8079     0.0004     0.0003     0.0249     3.1845  -999.2500     0.0573  3986.0000
  10025.5000     0.0596     0.0068     0.0263     0.0217     0.0048     0.0038     0.0000     0.0000     0.0000  1054.4131     0.0038     0.0052     0.0006     0.0303   187.2943    77.5960    89.4077    43.3372    78.8201     0.0294    91.0900     8.0286     1.8371     0.0007     0.0007     0.0181     3.2522  -999.2500     0.0634  4034.0000
  10026.0000     0.0584     0.0066     0.0241     0.0189     0.0087     0.0053     0.0000     0.0000     0.0000  1044.8146     0.0053     0.0043     0.0006     0.0330   187.2943    77.5960    89.1806    43.3360    79.8852     0.0295    92.0447     8.3139     1.8610     0.0010     0.0014     0.4213     3.9030  -999.2500     0.0637  3998.0000
