~VERSION INFORMATION
VERS.           1.2   :CWLS Log ASCII Standard - VERSION 1.2
WRAP.           NO    :One Line per depth step
PROD.  Schlumberger   :LAS Producer
PROG.  DLIS to ASCII 10C0-306                          :LAS Program name and version
CREA.        2008/03/26 10:13                          :LAS Creation date {YYYY/MM/DD hh:mm}
SOURCE.     774092c5-b8df-4536-8e1f-80ab68e4b553       :DLIS File Name
#--------------------------------------------------
~WELL INFORMATION
#MNEM.UNIT      DATA             DESCRIPTION
#---- ------ --------------   -----------------------------
STRT .F      9858.5000       :START DEPTH     
STOP .F      10117.5000      :STOP DEPTH     
STEP .F       0.5000         :STEP       
NULL .          -999.25      :NULL VALUE
COMP .                 COMPANY:                   
WELL .                    WELL:                      
FLD  .                   FIELD:                            
LOC  .                LOCATION:                                     
CNTY .                  COUNTY:                            
STAT .                   STATE:                            
CTRY .                 COUNTRY:                                     
SRVC .         SERVICE COMPANY:  Schlumberger                       
API  .              API NUMBER:                         
DATE .                LOG DATE:  
UWI  .          UNIQUE WELL ID:                                     
#-----------------------------------------------------------------------------
~PARAMETER INFORMATION
#MNEM.UNIT    VALUE                      DESCRIPTION
#---- -----   --------------------       ------------------------
CN   .                  :Company Name
WN   .                   :Well Name
FN   .                            :Field Name
FL   .                                   :Field Location
FL1  .                                   :Field Location Line 1
COUN .                          :County or Rig Name
STAT .                          :State or Province
NATI .                                   :Nation
DATE .                        :Date as Month-Day-Year
APIN .                       :API Serial Number
SECT .                                 :Section
TOWN .                              :Township
RANG .                               :Range
DMF  .        KELLY BUSHING              :Drilling Measured From
LMF  .        KELLY BUSHING              :Log Measured From
PDAT .        GROUND LEVEL               :Permanent Datum
ENGI .                         :Engineer's Name
WITN .                    :Witness's Name
LATI .                                   :Latitude
LONG .                                   :Longitude
LUL  .        WILLISTON                  :Logging Unit Location
LUN  .                              :Logging Unit Number
RUN  .        ONE                        :Run Number
SON  .        12018689                   :Service Order Number
BHT  .DEGF     191.00000                 :Bottom Hole Temperature (used in calculations)
BS   .IN         8.75000                 :Bit Size
DFD  .LB/G       9.80000                 :Drilling Fluid Density
DFV  .S         58.00000                 :Drilling Fluid Viscosity
DFL  .C3         1.60000                 :Drilling Fluid Loss
RMFS .                                   :Resistivity of Mud Filtrate Sample
EKB  .                                   :Elevation of Kelly Bushing
EGL  .                                   :Elevation of Ground Level
BLI  .F       10124.00000                :Bottom Log Interval
BSAL .                                   :Borehole Salinity
FLEV .                                   :Fluid Level
MCST .                                   :Mud Cake Sample Temperature
MFST .                                   :Mud Filtrate Sample Temperature
MRT  .DEGF     191.00000                 :Maximum Recorded Temperature
MST  .                                   :Mud Sample Temperature
RMCS .                                   :Resistivity of Mud Cake Sample
RMS  .                                   :Resistivity of Mud Sample
RW   .OHMM       1.00000                 :Resistivity of Connate Water
TDD  .F       10124.00000                :Total Depth - Driller
TDL  .F       10116.00000                :Total Depth - Logger
TLI  .F       2124.00000                 :Top Log Interval
HIDE .                                   :Header Identifier
MATR .        LIME                       :Rock Matrix for Neutron Porosity Corrections
DFT  .        OIL BASE MUD               :Drilling Fluid Type
DFPH .                                   :Drilling Fluid PH
MCSS .                                   :Mud Cake Sample Source
MFSS .                                   :Mud Filtrate Sample Source
MSS  .        NONE                       :Mud Sample Source
OS1  .                                   :Other Services Line 1
OS2  .                                   :Other Services Line 2
OS3  .                                   :Other Services Line 3
OS4  .                                   :Other Services Line 4
OS5  .                                   :Other Services Line 5
R1   .                                   :Remark Line 1
R2   .        ALL LOGS RECORDED IN CENTRAL STANDARD TIME :Remark Line 2
R3   .        TOOL STRING RUN AS PER TOOL SKETCH :Remark Line 3
R4   .        TEMPERATURE RECORDED FROM HILT :Remark Line 4
R5   .                                   :Remark Line 5
R6   .        MATRIX  LIMESTONE          :Remark Line 6
R7   .        DENSITY  2.71 G/CC         :Remark Line 7
R8   .                                   :Remark Line 8
TCS  .        7 00                       :Time Circulation Stopped
TLAB .                                   :Time Logger At Bottom
EPD  .C3                                 :Elevation of Permanent Datum above Mean Sea Level
APD  .                                   :Elevation of Depth Reference (LMF) above Permanent Datum
#-----------------------------------------------------------------------------
~CURVE INFORMATION
#MNEM.UNIT   API CODE                                  DESCRIPTION
#---- -----  --------                                  -----------------------
DEPT .F                                                :DEPTH (BOREHOLE) {F12.4}
BFV  .CFCF                                             :Bound Fluid Volume {F11.4}
CBP1 .CFCF                                             :CMR Bin Porosity 1 {F11.4}
CBP2 .CFCF                                             :CMR Bin Porosity 2 {F11.4}
CBP3 .CFCF                                             :CMR Bin Porosity 3 {F11.4}
CBP4 .CFCF                                             :CMR Bin Porosity 4 {F11.4}
CBP5 .CFCF                                             :CMR Bin Porosity 5 {F11.4}
CBP6 .CFCF                                             :CMR Bin Porosity 6 {F11.4}
CBP7 .CFCF                                             :CMR Bin Porosity 7 {F11.4}
CBP8 .CFCF                                             :CMR Bin Porosity 8 {F11.4}
CDF  .LBF                                              :Calibrated Downhole Force {F11.4}
CMFF .CFCF                                             :CMR Free Fluid {F11.4}
CMFF_SIG.CFCF                                          :Standard Deviation of CMR Free Fluid {F11.4}
CMR_PHI_CONV.                                          :CMR Porosity Conversion factor {F11.4}
CMRP_3MS.CFCF                                          :CMR 3ms Porosity {F11.4}
CTEM .DEGF                                             :Cartridge Temperature {F11.4}
ECST .DEGF                                             :ECS Temperature {F11.4}
GR_EDTC.GAPI                                           :Gamma Ray {F11.4}
GTEM .DEGF                                             :Generalized Borehole Temperature {F11.4}
HCGR .GAPI                                             :HNGS Computed Gamma Ray {F11.4}
HFK  .CFCF                                             :HNGS Formation Potassium Concentration {F11.4}
HSGR .GAPI                                             :HNGS Standard Gamma Ray {F11.4}
HTHO .PPM                                              :HNGS Formation Thorium Concentration {F11.4}
HURA .PPM                                              :HNGS Formation Uranium Concentration {F11.4}
KSDR .MD                                               :Permeability from CMR - SDR Model {F11.4}
KTIM .MD                                               :Permeability from CMR - Timur Model {F11.4}
QCPMT.                                                 :Photomultiplier Tube Quality Control {F11.4}
T2LM .MS                                               :T2 Logarithmic Mean {F11.4}
T2LM_SIG.MS                                            :Standard Deviation of T2 Logarithmic Mean {F11.4}
TCMR .CFCF                                             :Total CMR Porosity {F11.4}
TENS .LBF                                              :Cable Tension {F11.4}
#-----------------------------------------------------------------------------
# 
#      DEPT        BFV        CBP1       CBP2       CBP3       CBP4       CBP5       CBP6       CBP7       CBP8       CDF        CMFF     CMFF_SIG  CMR_PHI_CO  CMRP_3MS     CTEM       ECST     GR_EDTC      GTEM       HCGR       HFK        HSGR       HTHO       HURA       KSDR       KTIM      QCPMT       T2LM     T2LM_SIG     TCMR       TENS
#                                                                                                                                                   NV
~A  
# ...
   9894.5000     0.0237     0.0083     0.0075     0.0059     0.0020     0.0007     0.0079     0.0127     0.0080  1068.9885     0.0293     0.0054     0.0006     0.0372   193.2237    78.7665    37.7766    43.6595    27.6275     0.0088    37.7090     3.6989     1.3729     0.0539     0.1205     0.3037    41.2522  -999.2500     0.0530  3895.0000
   9895.0000     0.0211     0.0102     0.0109     0.0000     0.0000     0.0036     0.0054     0.0078     0.0127  1068.9885     0.0295     0.0102     0.0006     0.0295   193.2237    78.7665    36.9738    43.6583    27.4740     0.0088    36.6020     3.6732     1.2371     0.0432     0.1279     0.0000    40.6710  -999.2500     0.0505  3950.0000
   9895.5000     0.0210     0.0125     0.0085     0.0000     0.0000     0.0055     0.0033     0.0099     0.0124  1073.9656     0.0310     0.0159     0.0006     0.0310   193.2237    78.7665    38.1150    43.6571    29.1093     0.0094    38.2947     3.8354     1.2074     0.0474     0.1594     0.1197    40.2450  -999.2500     0.0520  3956.0000
   9896.0000     0.0174     0.0042     0.0129     0.0001     0.0002     0.0091     0.0085     0.0108     0.0082  1068.9885     0.0366     0.0157     0.0006     0.0369   193.2237    80.3273    44.3623    43.6558    33.9230     0.0109    43.8123     4.5003     1.3158     0.0974     0.2837     0.1340    53.5654  -999.2500     0.0540  3904.0000
   9896.5000     0.0186     0.0007     0.0110     0.0053     0.0017     0.0166     0.0112     0.0105     0.0098  1068.9885     0.0480     0.0099     0.0006     0.0550   193.2237    78.0642    53.0191    43.6546    44.1546     0.0142    53.8969     5.8313     1.3325     0.3828     1.1400     0.0192    69.5946  -999.2500     0.0667  3970.0000
   9897.0000     0.0186     0.0044     0.0102     0.0005     0.0035     0.0210     0.0156     0.0095     0.0073  1068.9885     0.0534     0.0058     0.0006     0.0574   193.2237    78.5324    65.4404    43.6534    53.8379     0.0172    64.2299     7.1953     1.4164     0.3748     1.9161     0.0000    59.0743  -999.2500     0.0720  3946.0000
   9897.5000     0.0208     0.0162     0.0032     0.0000     0.0014     0.0326     0.0060     0.0024     0.0237  1073.9656     0.0646     0.0052     0.0006     0.0661   193.2237    79.4689    73.4679    43.6521    60.4380     0.0191    70.9379     8.1813     1.4346     0.8006     5.1568     0.1161    61.3070  -999.2500     0.0854  3897.0000
   9898.0000     0.0271     0.0187     0.0060     0.0000     0.0024     0.0234     0.0132     0.0067     0.0097  1068.9885     0.0531     0.0050     0.0006     0.0554   193.2237    80.5224    76.7993    43.6509    62.9480     0.0199    72.5816     8.5052     1.2921     0.1545     1.5826     0.1109    30.6112  -999.2500     0.0801  3992.0000
   9898.5000     0.0189     0.0121     0.0068     0.0000     0.0000     0.0238     0.0164     0.0000     0.0000  1068.9885     0.0402     0.0053     0.0006     0.0402   193.2237    78.7665    73.6539    43.6497    62.8016     0.0197    72.3298     8.5836     1.3166     0.0187     0.4912     0.0988    19.5852  -999.2500     0.0591  3958.0000
   9899.0000     0.0133     0.0082     0.0047     0.0000     0.0004     0.0292     0.0011     0.0000     0.0000  1068.9885     0.0303     0.0050     0.0006     0.0307   193.2237    78.7665    68.1401    43.6484    61.4955     0.0192    70.4047     8.4391     1.1899     0.0040     0.0832     0.2465    16.5172  -999.2500     0.0436  3950.0000
   9899.5000     0.0153     0.0096     0.0044     0.0000     0.0012     0.0210     0.0000     0.0000     0.0000  1073.9656     0.0210     0.0042     0.0006     0.0223   193.2237    78.7665    61.0951    43.6472    55.6447     0.0173    63.4969     7.7055     1.0766     0.0007     0.0192     0.5326     9.6956  -999.2500     0.0363  4008.0000
   9900.0000     0.0442     0.0094     0.0188     0.0112     0.0048     0.0013     0.0067     0.0060     0.0005  1073.9656     0.0144     0.0049     0.0006     0.0305   193.2237    78.7665    56.1667    43.6460    49.5949     0.0154    57.1748     6.8832     1.0070     0.0025     0.0126     0.2942     7.2224  -999.2500     0.0586  3946.0000
   9900.5000     0.0525     0.0150     0.0187     0.0156     0.0032     0.0000     0.0127     0.0057     0.0000  1078.5870     0.0184     0.0049     0.0006     0.0372   193.2237    80.6394    56.7428    43.6447    47.4789     0.0148    54.6513     6.5353     0.9354     0.0045     0.0311     0.0962     6.6715  -999.2500     0.0709  3952.0000
   9901.0000     0.0449     0.0108     0.0141     0.0144     0.0056     0.0000     0.0193     0.0077     0.0000  1068.9885     0.0270     0.0051     0.0006     0.0469   193.2237    78.7665    62.1756    43.6435    52.9063     0.0166    60.9223     7.2495     1.0719     0.0193     0.0960     0.1473    13.4624  -999.2500     0.0718  4001.0000
   9901.5000     0.0355     0.0041     0.0113     0.0108     0.0094     0.0000     0.0208     0.0118     0.0000  1073.9656     0.0326     0.0053     0.0006     0.0528   193.2237    78.7665    66.9282    43.6423    58.2791     0.0183    67.4630     7.9533     1.2327     0.0696     0.1818     0.0000    28.4126  -999.2500     0.0681  3968.0000
   9902.0000     0.0379     0.0042     0.0148     0.0126     0.0063     0.0039     0.0189     0.0112     0.0000  1088.5410     0.0341     0.0053     0.0006     0.0530   193.2237    78.7665    69.2712    43.6411    58.3608     0.0184    68.5546     7.8990     1.3519     0.0601     0.2170     0.0000    23.6470  -999.2500     0.0720  3956.0000
   9902.5000     0.0463     0.0065     0.0180     0.0176     0.0042     0.0037     0.0174     0.0077     0.0000  1078.5870     0.0289     0.0052     0.0006     0.0507   193.2237    78.9616    66.5515    43.6398    53.6484     0.0174    65.7752     6.9972     1.6416     0.0260     0.1240     0.4125    14.2928  -999.2500     0.0751  3975.0000
   9903.0000     0.0448     0.0071     0.0164     0.0183     0.0029     0.0019     0.0192     0.0047     0.0000  1068.9885     0.0258     0.0050     0.0006     0.0471   193.2237    79.4689    63.2292    43.6386    48.4370     0.0162    61.1990     6.0154     1.7258     0.0158     0.0826     0.2578    12.6091  -999.2500     0.0706  3956.0000
   9903.5000     0.0326     0.0031     0.0136     0.0150     0.0008     0.0018     0.0197     0.0066     0.0000  1073.9656     0.0281     0.0050     0.0006     0.0440   193.2237    78.0642    62.1570    43.6374    48.9004     0.0165    62.8845     6.0170     1.9154     0.0219     0.1012     0.2229    20.1049  -999.2500     0.0607  3987.0000
   9904.0000     0.0237     0.0024     0.0159     0.0054     0.0000     0.0032     0.0220     0.0115     0.0000  1073.9656     0.0367     0.0070     0.0006     0.0422   193.2237    77.5960    67.2476    43.6361    51.7261     0.0176    66.4131     6.2912     2.0143     0.0621     0.3204     0.0233    34.0784  -999.2500     0.0605  3957.0000
   9904.5000     0.0237     0.0016     0.0142     0.0077     0.0001     0.0058     0.0211     0.0133     0.0002  1083.5641     0.0404     0.0142     0.0006     0.0483   193.2237    78.7665    72.8974    43.6349    55.5795     0.0189    70.5059     6.7634     2.0863     0.1070     0.4906     0.0000    39.7798  -999.2500     0.0641  3956.0000
   9905.0000     0.0245     0.0015     0.0081     0.0098     0.0051     0.0029     0.0204     0.0124     0.0000  1073.9656     0.0357     0.0142     0.0006     0.0506   193.2237    78.7665    72.2798    43.6337    57.8756     0.0199    73.2761     6.9112     2.1279     0.1028     0.2788     0.0012    44.2699  -999.2500     0.0602  3994.0000
   9905.5000     0.0254     0.0000     0.0030     0.0180     0.0044     0.0017     0.0201     0.0097     0.0000  1078.5870     0.0315     0.0090     0.0006     0.0540   193.2237    78.7665    69.2604    43.6325    56.7830     0.0193    71.7891     6.9160     2.0670     0.0790     0.1618     0.2389    43.3276  -999.2500     0.0570  3963.0000
   9906.0000     0.0300     0.0000     0.0016     0.0241     0.0043     0.0009     0.0176     0.0079     0.0000  1068.9885     0.0264     0.0057     0.0006     0.0548   193.2237    80.6394    65.6094    43.6312    52.3860     0.0181    67.8162     6.1900     2.1521     0.0430     0.0782     0.2772    32.6110  -999.2500     0.0564  3956.0000
