~VERSION INFORMATION
VERS.           1.2   :CWLS Log ASCII Standard - VERSION 1.2
WRAP.           NO    :One Line per depth step
PROD.  Schlumberger   :LAS Producer
PROG.  DLIS to ASCII 10C0-306                          :LAS Program name and version
CREA.        2008/03/26 10:13                          :LAS Creation date {YYYY/MM/DD hh:mm}
SOURCE.     774092c5-b8df-4536-8e1f-80ab68e4b553       :DLIS File Name
#--------------------------------------------------
~WELL INFORMATION
#MNEM.UNIT      DATA             DESCRIPTION
#---- ------ --------------   -----------------------------
STRT .F      9858.5000       :START DEPTH     
STOP .F      10117.5000      :STOP DEPTH     
STEP .F       0.5000         :STEP       
NULL .          -999.25      :NULL VALUE
COMP .                 COMPANY:                   
WELL .                    WELL:                      
FLD  .                   FIELD:                            
LOC  .                LOCATION:                                     
CNTY .                  COUNTY:                            
STAT .                   STATE:                            
CTRY .                 COUNTRY:                                     
SRVC .         SERVICE COMPANY:  Schlumberger                       
API  .              API NUMBER:                         
DATE .                LOG DATE:  
UWI  .          UNIQUE WELL ID:                                     
#-----------------------------------------------------------------------------
~PARAMETER INFORMATION
#MNEM.UNIT    VALUE                      DESCRIPTION
#---- -----   --------------------       ------------------------
CN   .                  :Company Name
WN   .                   :Well Name
FN   .                            :Field Name
FL   .                                   :Field Location
FL1  .                                   :Field Location Line 1
COUN .                          :County or Rig Name
STAT .                          :State or Province
NATI .                                   :Nation
DATE .                        :Date as Month-Day-Year
APIN .                       :API Serial Number
SECT .                                 :Section
TOWN .                              :Township
RANG .                               :Range
DMF  .        KELLY BUSHING              :Drilling Measured From
LMF  .        KELLY BUSHING              :Log Measured From
PDAT .        GROUND LEVEL               :Permanent Datum
ENGI .                         :Engineer's Name
WITN .                    :Witness's Name
LATI .                                   :Latitude
LONG .                                   :Longitude
LUL  .        WILLISTON                  :Logging Unit Location
LUN  .                              :Logging Unit Number
RUN  .        ONE                        :Run Number
SON  .        12018689                   :Service Order Number
BHT  .DEGF     191.00000                 :Bottom Hole Temperature (used in calculations)
BS   .IN         8.75000                 :Bit Size
DFD  .LB/G       9.80000                 :Drilling Fluid Density
DFV  .S         58.00000                 :Drilling Fluid Viscosity
DFL  .C3         1.60000                 :Drilling Fluid Loss
RMFS .                                   :Resistivity of Mud Filtrate Sample
EKB  .                                   :Elevation of Kelly Bushing
EGL  .                                   :Elevation of Ground Level
BLI  .F       10124.00000                :Bottom Log Interval
BSAL .                                   :Borehole Salinity
FLEV .                                   :Fluid Level
MCST .                                   :Mud Cake Sample Temperature
MFST .                                   :Mud Filtrate Sample Temperature
MRT  .DEGF     191.00000                 :Maximum Recorded Temperature
MST  .                                   :Mud Sample Temperature
RMCS .                                   :Resistivity of Mud Cake Sample
RMS  .                                   :Resistivity of Mud Sample
RW   .OHMM       1.00000                 :Resistivity of Connate Water
TDD  .F       10124.00000                :Total Depth - Driller
TDL  .F       10116.00000                :Total Depth - Logger
TLI  .F       2124.00000                 :Top Log Interval
HIDE .                                   :Header Identifier
MATR .        LIME                       :Rock Matrix for Neutron Porosity Corrections
DFT  .        OIL BASE MUD               :Drilling Fluid Type
DFPH .                                   :Drilling Fluid PH
MCSS .                                   :Mud Cake Sample Source
MFSS .                                   :Mud Filtrate Sample Source
MSS  .        NONE                       :Mud Sample Source
OS1  .                                   :Other Services Line 1
OS2  .                                   :Other Services Line 2
OS3  .                                   :Other Services Line 3
OS4  .                                   :Other Services Line 4
OS5  .                                   :Other Services Line 5
R1   .                                   :Remark Line 1
R2   .        ALL LOGS RECORDED IN CENTRAL STANDARD TIME :Remark Line 2
R3   .        TOOL STRING RUN AS PER TOOL SKETCH :Remark Line 3
R4   .        TEMPERATURE RECORDED FROM HILT :Remark Line 4
R5   .                                   :Remark Line 5
R6   .        MATRIX  LIMESTONE          :Remark Line 6
R7   .        DENSITY  2.71 G/CC         :Remark Line 7
R8   .                                   :Remark Line 8
TCS  .        7 00                       :Time Circulation Stopped
TLAB .                                   :Time Logger At Bottom
EPD  .C3                                 :Elevation of Permanent Datum above Mean Sea Level
APD  .                                   :Elevation of Depth Reference (LMF) above Permanent Datum
#-----------------------------------------------------------------------------
~CURVE INFORMATION
#MNEM.UNIT   API CODE                                  DESCRIPTION
#---- -----  --------                                  -----------------------
DEPT .F                                                :DEPTH (BOREHOLE) {F12.4}
BFV  .CFCF                                             :Bound Fluid Volume {F11.4}
CBP1 .CFCF                                             :CMR Bin Porosity 1 {F11.4}
CBP2 .CFCF                                             :CMR Bin Porosity 2 {F11.4}
CBP3 .CFCF                                             :CMR Bin Porosity 3 {F11.4}
CBP4 .CFCF                                             :CMR Bin Porosity 4 {F11.4}
CBP5 .CFCF                                             :CMR Bin Porosity 5 {F11.4}
CBP6 .CFCF                                             :CMR Bin Porosity 6 {F11.4}
CBP7 .CFCF                                             :CMR Bin Porosity 7 {F11.4}
CBP8 .CFCF                                             :CMR Bin Porosity 8 {F11.4}
CDF  .LBF                                              :Calibrated Downhole Force {F11.4}
CMFF .CFCF                                             :CMR Free Fluid {F11.4}
CMFF_SIG.CFCF                                          :Standard Deviation of CMR Free Fluid {F11.4}
CMR_PHI_CONV.                                          :CMR Porosity Conversion factor {F11.4}
CMRP_3MS.CFCF                                          :CMR 3ms Porosity {F11.4}
CTEM .DEGF                                             :Cartridge Temperature {F11.4}
ECST .DEGF                                             :ECS Temperature {F11.4}
GR_EDTC.GAPI                                           :Gamma Ray {F11.4}
GTEM .DEGF                                             :Generalized Borehole Temperature {F11.4}
HCGR .GAPI                                             :HNGS Computed Gamma Ray {F11.4}
HFK  .CFCF                                             :HNGS Formation Potassium Concentration {F11.4}
HSGR .GAPI                                             :HNGS Standard Gamma Ray {F11.4}
HTHO .PPM                                              :HNGS Formation Thorium Concentration {F11.4}
HURA .PPM                                              :HNGS Formation Uranium Concentration {F11.4}
KSDR .MD                                               :Permeability from CMR - SDR Model {F11.4}
KTIM .MD                                               :Permeability from CMR - Timur Model {F11.4}
QCPMT.                                                 :Photomultiplier Tube Quality Control {F11.4}
T2LM .MS                                               :T2 Logarithmic Mean {F11.4}
T2LM_SIG.MS                                            :Standard Deviation of T2 Logarithmic Mean {F11.4}
TCMR .CFCF                                             :Total CMR Porosity {F11.4}
TENS .LBF                                              :Cable Tension {F11.4}
#-----------------------------------------------------------------------------
# 
#      DEPT        BFV        CBP1       CBP2       CBP3       CBP4       CBP5       CBP6       CBP7       CBP8       CDF        CMFF     CMFF_SIG  CMR_PHI_CO  CMRP_3MS     CTEM       ECST     GR_EDTC      GTEM       HCGR       HFK        HSGR       HTHO       HURA       KSDR       KTIM      QCPMT       T2LM     T2LM_SIG     TCMR       TENS
#                                                                                                                                                   NV
~A  
# ...
  10026.5000     0.0623     0.0074     0.0264     0.0189     0.0096     0.0036     0.0000     0.0000     0.0011  1039.8375     0.0048     0.0056     0.0006     0.0333   187.2943    77.5960    87.2980    43.3348    78.3857     0.0292    90.2976     8.0257     1.8202     0.0013     0.0012     0.1913     3.9404  -999.2500     0.0671  3979.0000
  10027.0000     0.0699     0.0104     0.0315     0.0244     0.0035     0.0000     0.0000     0.0000     0.0094  1034.8606     0.0094     0.0104     0.0006     0.0373   187.2943    77.5960    89.1923    43.3336    80.3647     0.0300    92.5841     8.1855     1.8088     0.0048     0.0071     0.5549     5.4916  -999.2500     0.0792  4029.0000
  10027.5000     0.0679     0.0089     0.0295     0.0257     0.0038     0.0000     0.0000     0.0000     0.0073  1044.8146     0.0073     0.0092     0.0006     0.0367   187.2943    77.5960    90.7074    43.3323    79.5244     0.0300    91.8341     7.9147     1.7734     0.0032     0.0037     0.4851     5.0113  -999.2500     0.0752  4010.0000
  10028.0000     0.0630     0.0082     0.0264     0.0218     0.0066     0.0001     0.0000     0.0000     0.0094  1054.4131     0.0095     0.0076     0.0006     0.0379   187.2943    77.5960    89.6072    43.3311    80.8896     0.0301    91.9538     8.2715     1.5734     0.0051     0.0063     0.6230     6.7612  -999.2500     0.0725  3987.0000
  10028.5000     0.0564     0.0114     0.0212     0.0177     0.0060     0.0017     0.0010     0.0008     0.0012  1049.4360     0.0047     0.0056     0.0006     0.0284   187.2943    77.5960    86.6089    43.3299    76.1681     0.0288    88.0422     7.5144     1.5895     0.0007     0.0010     0.4981     3.4979  -999.2500     0.0610  4064.0000
  10029.0000     0.0577     0.0175     0.0205     0.0160     0.0037     0.0000     0.0000     0.0000     0.0053  1044.8146     0.0053     0.0068     0.0006     0.0249   187.2943    77.5960    86.1933    43.3286    73.1313     0.0278    85.4427     7.1499     1.6784     0.0007     0.0013     0.0474     3.4296  -999.2500     0.0630  3988.0000
  10029.5000     0.0564     0.0159     0.0221     0.0176     0.0008     0.0000     0.0000     0.0000     0.0014  1054.4131     0.0014     0.0067     0.0006     0.0198   187.2943    78.5324    85.0519    43.3274    73.0484     0.0277    85.8017     7.1608     1.7103     0.0002     0.0001     0.0816     2.1115  -999.2500     0.0578  4011.0000
  10030.0000     0.0545     0.0148     0.0223     0.0173     0.0000     0.0000     0.0000     0.0001     0.0000  1059.3900     0.0001     0.0080     0.0006     0.0175   187.2943    77.5960    85.1406    43.3262    75.7801     0.0289    88.5091     7.3193     1.6507     0.0001     0.0000     0.0000     1.7626  -999.2500     0.0546  4001.0000
  10030.5000     0.0546     0.0195     0.0215     0.0137     0.0000     0.0000     0.0000     0.0000     0.0000  1054.4131     0.0000     0.0099     0.0006     0.0137   187.2943    78.5324    85.1527    43.3249    79.5096     0.0302    92.0439     7.7734     1.6241     0.0001     0.0000     0.0128     1.4441  -999.2500     0.0547  3985.0000
  10031.0000     0.0546     0.0237     0.0180     0.0122     0.0006     0.0000     0.0000     0.0000     0.0000  1049.4360     0.0000     0.0095     0.0006     0.0128   187.2943    77.5960    87.9934    43.3237    79.9578     0.0308    94.8542     7.5722     1.9151     0.0001     0.0000     0.0000     1.3035  -999.2500     0.0546  3994.0000
  10031.5000     0.0635     0.0230     0.0179     0.0160     0.0066     0.0000     0.0000     0.0000     0.0014  1039.8375     0.0014     0.0080     0.0006     0.0240   187.2943    77.5960    88.3241    43.3225    77.0517     0.0299    93.0358     7.1644     2.0653     0.0003     0.0001     0.0000     2.1163  -999.2500     0.0649  3996.0000
  10032.0000     0.0647     0.0192     0.0182     0.0154     0.0119     0.0000     0.0000     0.0000     0.0020  1039.8375     0.0020     0.0056     0.0006     0.0293   187.2943    77.8886    87.8960    43.3213    71.8564     0.0281    89.3450     6.5788     2.2276     0.0007     0.0002     0.1591     2.9105  -999.2500     0.0668  3971.0000
  10032.5000     0.0587     0.0180     0.0191     0.0110     0.0105     0.0038     0.0000     0.0000     0.0010  1044.8146     0.0048     0.0046     0.0006     0.0264   187.2943    78.2983    85.8302    43.3200    65.2308     0.0255    81.5851     5.9532     2.1072     0.0006     0.0011     0.2546     2.9681  -999.2500     0.0635  4016.0000
  10033.0000     0.0514     0.0125     0.0162     0.0107     0.0119     0.0068     0.0000     0.0000     0.0000  1034.8606     0.0068     0.0039     0.0006     0.0294   187.2943    77.5960    76.8530    43.3188    63.5003     0.0245    77.8851     5.9649     1.8207     0.0007     0.0020     0.4224     3.9076  -999.2500     0.0582  3944.0000
  10033.5000     0.0558     0.0117     0.0169     0.0131     0.0141     0.0090     0.0000     0.0000     0.0000  1034.8606     0.0090     0.0042     0.0006     0.0362   187.2943    77.5960    68.0712    43.3176    57.5212     0.0222    71.8661     5.3952     1.8522     0.0015     0.0046     0.4371     4.6534  -999.2500     0.0648  3956.0000
  10034.0000     0.0574     0.0132     0.0189     0.0136     0.0117     0.0105     0.0005     0.0000     0.0000  1034.8606     0.0111     0.0045     0.0006     0.0363   187.2943    79.7030    62.9130    43.3163    56.1463     0.0214    69.8264     5.4591     1.8676     0.0018     0.0082     0.2634     4.4902  -999.2500     0.0685  3946.0000
  10034.5000     0.0535     0.0142     0.0201     0.0128     0.0065     0.0134     0.0008     0.0000     0.0000  1030.2390     0.0142     0.0048     0.0006     0.0334   187.2943    81.1076    66.7142    43.3151    56.6130     0.0214    69.4600     5.6277     1.7627     0.0016     0.0149     0.0620     4.3392  -999.2500     0.0677  3934.0000
  10035.0000     0.0407     0.0085     0.0152     0.0129     0.0041     0.0159     0.0004     0.0000     0.0000  1034.8606     0.0163     0.0053     0.0006     0.0333   187.2943    78.2983    66.3970    43.3139    53.6684     0.0198    65.8497     5.6105     1.6959     0.0015     0.0171     0.2899     5.9813  -999.2500     0.0571  3970.0000
  10035.5000     0.0380     0.0026     0.0101     0.0169     0.0084     0.0126     0.0000     0.0000     0.0000  1030.2390     0.0126     0.0050     0.0006     0.0379   187.2943    78.2983    63.1212    43.3126    48.9288     0.0178    61.1414     5.2560     1.7539     0.0018     0.0072     0.0663     8.2139  -999.2500     0.0506  3956.0000
  10036.0000     0.0427     0.0028     0.0100     0.0217     0.0082     0.0081     0.0002     0.0000     0.0000  1054.4131     0.0083     0.0045     0.0006     0.0381   187.2943    81.1076    62.5566    43.3114    47.1999     0.0172    58.9269     5.0230     1.6647     0.0012     0.0025     0.1180     6.6614  -999.2500     0.0510  3980.0000
  10036.5000     0.0522     0.0068     0.0117     0.0257     0.0080     0.0014     0.0043     0.0000     0.0000  1034.8606     0.0057     0.0054     0.0006     0.0394   187.2943    81.1076    66.1944    43.3102    53.0606     0.0195    64.8109     5.5678     1.6607     0.0012     0.0013     0.0375     5.0936  -999.2500     0.0579  3951.0000
  10037.0000     0.0584     0.0098     0.0131     0.0245     0.0110     0.0016     0.0032     0.0000     0.0000  1034.8606     0.0048     0.0054     0.0006     0.0403   187.2943    81.1076    71.2832    43.3090    57.8406     0.0217    70.3387     5.8336     1.7471     0.0013     0.0011     0.0759     4.4517  -999.2500     0.0632  4005.0000
  10037.5000     0.0622     0.0099     0.0114     0.0244     0.0165     0.0000     0.0003     0.0023     0.0000  1044.8146     0.0026     0.0057     0.0006     0.0435   187.2943    77.5960    75.2718    43.3077    61.7709     0.0232    73.7723     6.1910     1.7137     0.0017     0.0003     0.0850     4.8654  -999.2500     0.0649  3949.0000
  10038.0000     0.0597     0.0094     0.0140     0.0204     0.0158     0.0000     0.0000     0.0000     0.0009  1068.9885     0.0009     0.0050     0.0006     0.0372   187.2943    77.5960    79.4374    43.3065    69.2014     0.0259    81.8282     6.9826     1.8119     0.0010     0.0000     0.0667     4.2283  -999.2500     0.0605  3950.0000
