~VERSION INFORMATION
VERS.           1.2   :CWLS Log ASCII Standard - VERSION 1.2
WRAP.           NO    :One Line per depth step
PROD.  Schlumberger   :LAS Producer
PROG.  DLIS to ASCII 10C0-306                          :LAS Program name and version
CREA.        2008/03/26 10:13                          :LAS Creation date {YYYY/MM/DD hh:mm}
SOURCE.     774092c5-b8df-4536-8e1f-80ab68e4b553       :DLIS File Name
#--------------------------------------------------
~WELL INFORMATION
#MNEM.UNIT      DATA             DESCRIPTION
#---- ------ --------------   -----------------------------
STRT .F      9858.5000       :START DEPTH     
STOP .F      10117.5000      :STOP DEPTH     
STEP .F       0.5000         :STEP       
NULL .          -999.25      :NULL VALUE
COMP .                 COMPANY:                   
WELL .                    WELL:                      
FLD  .                   FIELD:                            
LOC  .                LOCATION:                                     
CNTY .                  COUNTY:                            
STAT .                   STATE:                            
CTRY .                 COUNTRY:                                     
SRVC .         SERVICE COMPANY:  Schlumberger                       
API  .              API NUMBER:                         
DATE .                LOG DATE:  
UWI  .          UNIQUE WELL ID:                                     
#-----------------------------------------------------------------------------
~PARAMETER INFORMATION
#MNEM.UNIT    VALUE                      DESCRIPTION
#---- -----   --------------------       ------------------------
CN   .                  :Company Name
WN   .                   :Well Name
FN   .                            :Field Name
FL   .                                   :Field Location
FL1  .                                   :Field Location Line 1
COUN .                          :County or Rig Name
STAT .                          :State or Province
NATI .                                   :Nation
DATE .                        :Date as Month-Day-Year
APIN .                       :API Serial Number
SECT .                                 :Section
TOWN .                              :Township
RANG .                               :Range
DMF  .        KELLY BUSHING              :Drilling Measured From
LMF  .        KELLY BUSHING              :Log Measured From
PDAT .        GROUND LEVEL               :Permanent Datum
ENGI .                         :Engineer's Name
WITN .                    :Witness's Name
LATI .                                   :Latitude
LONG .                                   :Longitude
LUL  .        WILLISTON                  :Logging Unit Location
LUN  .                              :Logging Unit Number
RUN  .        ONE                        :Run Number
SON  .        12018689                   :Service Order Number
BHT  .DEGF     191.00000                 :Bottom Hole Temperature (used in calculations)
BS   .IN         8.75000                 :Bit Size
DFD  .LB/G       9.80000                 :Drilling Fluid Density
DFV  .S         58.00000                 :Drilling Fluid Viscosity
DFL  .C3         1.60000                 :Drilling Fluid Loss
RMFS .                                   :Resistivity of Mud Filtrate Sample
EKB  .                                   :Elevation of Kelly Bushing
EGL  .                                   :Elevation of Ground Level
BLI  .F       10124.00000                :Bottom Log Interval
BSAL .                                   :Borehole Salinity
FLEV .                                   :Fluid Level
MCST .                                   :Mud Cake Sample Temperature
MFST .                                   :Mud Filtrate Sample Temperature
MRT  .DEGF     191.00000                 :Maximum Recorded Temperature
MST  .                                   :Mud Sample Temperature
RMCS .                                   :Resistivity of Mud Cake Sample
RMS  .                                   :Resistivity of Mud Sample
RW   .OHMM       1.00000                 :Resistivity of Connate Water
TDD  .F       10124.00000                :Total Depth - Driller
TDL  .F       10116.00000                :Total Depth - Logger
TLI  .F       2124.00000                 :Top Log Interval
HIDE .                                   :Header Identifier
MATR .        LIME                       :Rock Matrix for Neutron Porosity Corrections
DFT  .        OIL BASE MUD               :Drilling Fluid Type
DFPH .                                   :Drilling Fluid PH
MCSS .                                   :Mud Cake Sample Source
MFSS .                                   :Mud Filtrate Sample Source
MSS  .        NONE                       :Mud Sample Source
OS1  .                                   :Other Services Line 1
OS2  .                                   :Other Services Line 2
OS3  .                                   :Other Services Line 3
OS4  .                                   :Other Services Line 4
OS5  .                                   :Other Services Line 5
R1   .                                   :Remark Line 1
R2   .        ALL LOGS RECORDED IN CENTRAL STANDARD TIME :Remark Line 2
R3   .        TOOL STRING RUN AS PER TOOL SKETCH :Remark Line 3
R4   .        TEMPERATURE RECORDED FROM HILT :Remark Line 4
R5   .                                   :Remark Line 5
R6   .        MATRIX  LIMESTONE          :Remark Line 6
R7   .        DENSITY  2.71 G/CC         :Remark Line 7
R8   .                                   :Remark Line 8
TCS  .        7 00                       :Time Circulation Stopped
TLAB .                                   :Time Logger At Bottom
EPD  .C3                                 :Elevation of Permanent Datum above Mean Sea Level
APD  .                                   :Elevation of Depth Reference (LMF) above Permanent Datum
#-----------------------------------------------------------------------------
~CURVE INFORMATION
#MNEM.UNIT   API CODE                                  DESCRIPTION
#---- -----  --------                                  -----------------------
DEPT .F                                                :DEPTH (BOREHOLE) {F12.4}
BFV  .CFCF                                             :Bound Fluid Volume {F11.4}
CBP1 .CFCF                                             :CMR Bin Porosity 1 {F11.4}
CBP2 .CFCF                                             :CMR Bin Porosity 2 {F11.4}
CBP3 .CFCF                                             :CMR Bin Porosity 3 {F11.4}
CBP4 .CFCF                                             :CMR Bin Porosity 4 {F11.4}
CBP5 .CFCF                                             :CMR Bin Porosity 5 {F11.4}
CBP6 .CFCF                                             :CMR Bin Porosity 6 {F11.4}
CBP7 .CFCF                                             :CMR Bin Porosity 7 {F11.4}
CBP8 .CFCF                                             :CMR Bin Porosity 8 {F11.4}
CDF  .LBF                                              :Calibrated Downhole Force {F11.4}
CMFF .CFCF                                             :CMR Free Fluid {F11.4}
CMFF_SIG.CFCF                                          :Standard Deviation of CMR Free Fluid {F11.4}
CMR_PHI_CONV.                                          :CMR Porosity Conversion factor {F11.4}
CMRP_3MS.CFCF                                          :CMR 3ms Porosity {F11.4}
CTEM .DEGF                                             :Cartridge Temperature {F11.4}
ECST .DEGF                                             :ECS Temperature {F11.4}
GR_EDTC.GAPI                                           :Gamma Ray {F11.4}
GTEM .DEGF                                             :Generalized Borehole Temperature {F11.4}
HCGR .GAPI                                             :HNGS Computed Gamma Ray {F11.4}
HFK  .CFCF                                             :HNGS Formation Potassium Concentration {F11.4}
HSGR .GAPI                                             :HNGS Standard Gamma Ray {F11.4}
HTHO .PPM                                              :HNGS Formation Thorium Concentration {F11.4}
HURA .PPM                                              :HNGS Formation Uranium Concentration {F11.4}
KSDR .MD                                               :Permeability from CMR - SDR Model {F11.4}
KTIM .MD                                               :Permeability from CMR - Timur Model {F11.4}
QCPMT.                                                 :Photomultiplier Tube Quality Control {F11.4}
T2LM .MS                                               :T2 Logarithmic Mean {F11.4}
T2LM_SIG.MS                                            :Standard Deviation of T2 Logarithmic Mean {F11.4}
TCMR .CFCF                                             :Total CMR Porosity {F11.4}
TENS .LBF                                              :Cable Tension {F11.4}
#-----------------------------------------------------------------------------
# 
#      DEPT        BFV        CBP1       CBP2       CBP3       CBP4       CBP5       CBP6       CBP7       CBP8       CDF        CMFF     CMFF_SIG  CMR_PHI_CO  CMRP_3MS     CTEM       ECST     GR_EDTC      GTEM       HCGR       HFK        HSGR       HTHO       HURA       KSDR       KTIM      QCPMT       T2LM     T2LM_SIG     TCMR       TENS
#                                                                                                                                                   NV
~A  
# ...
   9954.5000     0.0611     0.0236     0.0243     0.0058     0.0074     0.0012     0.0000     0.0000     0.0009  1059.3900     0.0022     0.0031     0.0006     0.0154   191.2472    78.7665   496.1992    43.5119    50.1875     0.0182   473.9579     5.4298    54.2528     0.0002     0.0002     0.0418     1.8673  -999.2500     0.0633  3871.0000
   9955.0000     0.0590     0.0220     0.0250     0.0055     0.0065     0.0010     0.0024     0.0000     0.0000  1049.4360     0.0035     0.0033     0.0006     0.0155   191.2472    78.7665   495.9494    43.5107    51.4109     0.0186   471.6426     5.5732    53.9130     0.0002     0.0005     0.1683     1.9718  -999.2500     0.0624  3875.0000
   9955.5000     0.0492     0.0164     0.0229     0.0043     0.0055     0.0013     0.0037     0.0000     0.0000  1044.8146     0.0050     0.0036     0.0006     0.0149   191.2472    78.7665   524.3007    43.5094    53.6198     0.0196   491.6459     5.7056    56.1948     0.0002     0.0009     0.3145     2.4673  -999.2500     0.0542  3926.0000
   9956.0000     0.0403     0.0120     0.0204     0.0051     0.0028     0.0031     0.0024     0.0000     0.0000  1049.4360     0.0054     0.0034     0.0006     0.0133   191.2472    79.0007   560.6462    43.5082    58.9590     0.0222   542.2303     5.8569    61.9344     0.0001     0.0008     0.3635     2.6224  -999.2500     0.0457  3911.0000
   9956.5000     0.0366     0.0124     0.0198     0.0043     0.0001     0.0063     0.0004     0.0000     0.0000  1059.3900     0.0067     0.0029     0.0006     0.0111   191.2472    79.4689   617.1237    43.5070    62.5476     0.0240   583.2578     5.9495    66.6544     0.0001     0.0012     0.5900     2.3766  -999.2500     0.0433  3915.0000
   9957.0000     0.0425     0.0139     0.0227     0.0058     0.0000     0.0038     0.0005     0.0000     0.0000  1044.8146     0.0043     0.0026     0.0006     0.0102   191.2472    78.7665   630.2947    43.5058    63.9564     0.0243   592.8793     6.2624    67.7197     0.0001     0.0005     0.7008     1.9474  -999.2500     0.0468  3902.0000
   9957.5000     0.0503     0.0173     0.0257     0.0074     0.0000     0.0000     0.0018     0.0002     0.0000  1044.8146     0.0020     0.0028     0.0006     0.0094   191.2472    79.7030   618.4633    43.5045    60.9622     0.0229   565.9055     6.1067    64.5787     0.0001     0.0001     0.7941     1.6071  -999.2500     0.0523  3917.0000
   9958.0000     0.0521     0.0178     0.0235     0.0102     0.0006     0.0000     0.0000     0.0000     0.0015  1044.8146     0.0015     0.0028     0.0006     0.0123   191.2472    78.7665   579.8762    43.5033    57.6621     0.0217   535.0475     5.7470    60.9599     0.0001     0.0001     0.6134     1.7735  -999.2500     0.0536  3897.0000
   9958.5000     0.0491     0.0142     0.0189     0.0129     0.0032     0.0000     0.0000     0.0000     0.0009  1039.8375     0.0009     0.0026     0.0006     0.0170   191.2472    78.7665   552.4794    43.5021    51.0675     0.0192   515.3132     5.0881    59.3568     0.0001     0.0000     0.0695     2.1318  -999.2500     0.0501  3909.0000
   9959.0000     0.0441     0.0108     0.0163     0.0132     0.0038     0.0000     0.0012     0.0000     0.0000  1054.4131     0.0012     0.0025     0.0006     0.0182   191.2472    78.7665   533.1169    43.5008    50.1856     0.0188   509.6339     5.0337    58.5838     0.0001     0.0000     0.4647     2.4178  -999.2500     0.0453  3912.0000
   9959.5000     0.0467     0.0133     0.0187     0.0132     0.0015     0.0003     0.0019     0.0000     0.0000  1049.4360     0.0022     0.0027     0.0006     0.0169   191.2472    78.7665   521.5505    43.4996    51.9268     0.0189   507.0303     5.5615    57.9337     0.0001     0.0001     0.3416     2.1498  -999.2500     0.0489  3930.0000
   9960.0000     0.0538     0.0175     0.0217     0.0121     0.0025     0.0000     0.0014     0.0000     0.0000  1039.8375     0.0014     0.0025     0.0006     0.0160   191.2472    78.7665   522.9394    43.4984    54.1950     0.0195   505.8096     5.9305    57.4923     0.0001     0.0001     0.8886     1.8300  -999.2500     0.0552  3936.0000
   9960.5000     0.0677     0.0246     0.0271     0.0130     0.0031     0.0000     0.0000     0.0003     0.0005  1044.8146     0.0009     0.0027     0.0006     0.0169   191.2472    78.5324   542.1935    43.4972    52.9812     0.0193   514.4050     5.6407    58.6570     0.0002     0.0000     0.9458     1.6292  -999.2500     0.0686  3936.0000
   9961.0000     0.0630     0.0235     0.0247     0.0120     0.0027     0.0000     0.0000     0.0000     0.0008  1044.8146     0.0008     0.0025     0.0006     0.0156   191.2472    78.0642   560.4310    43.4959    52.3234     0.0188   530.5247     5.7553    60.8763     0.0002     0.0000     0.0956     1.6197  -999.2500     0.0638  3957.0000
   9961.5000     0.0633     0.0238     0.0230     0.0127     0.0039     0.0000     0.0000     0.0000     0.0008  1044.8146     0.0008     0.0026     0.0006     0.0174   191.2472    78.0642   582.5224    43.4947    52.5754     0.0186   553.3339     5.9510    63.6858     0.0002     0.0000     0.0000     1.7001  -999.2500     0.0641  3960.0000
   9962.0000     0.0564     0.0202     0.0190     0.0107     0.0065     0.0000     0.0000     0.0000     0.0003  1044.8146     0.0003     0.0023     0.0006     0.0175   191.2472    78.4739   588.4270    43.4935    52.3761     0.0188   560.1447     5.7793    64.6758     0.0001     0.0000     0.0000     1.8387  -999.2500     0.0567  3970.0000
   9962.5000     0.0529     0.0221     0.0175     0.0064     0.0070     0.0018     0.0000     0.0000     0.0000  1044.8146     0.0018     0.0024     0.0006     0.0151   191.2472    81.5758   584.3738    43.4922    51.3238     0.0189   557.0697     5.3580    64.2626     0.0001     0.0001     0.1415     1.7774  -999.2500     0.0547  3942.0000
   9963.0000     0.0488     0.0276     0.0175     0.0013     0.0024     0.0047     0.0000     0.0000     0.0001  1039.8375     0.0048     0.0028     0.0006     0.0085   191.2472    78.7665   608.8345    43.4910    53.8938     0.0200   585.2598     5.5224    67.4961     0.0001     0.0008     0.0585     1.4141  -999.2500     0.0537  3986.0000
   9963.5000     0.0478     0.0296     0.0176     0.0006     0.0000     0.0024     0.0002     0.0000     0.0011  1039.8375     0.0037     0.0030     0.0006     0.0043   191.2472    78.7665   655.4871    43.4898    58.0568     0.0223   633.7768     5.5238    73.1320     0.0000     0.0004     0.1521     1.1849  -999.2500     0.0515  3979.0000
   9964.0000     0.0435     0.0246     0.0177     0.0012     0.0000     0.0000     0.0005     0.0003     0.0000  1044.8146     0.0008     0.0033     0.0006     0.0020   191.2472    78.7665   722.0694    43.4885    65.6718     0.0257   692.8867     5.9897    79.6176     0.0000     0.0000     0.5357     0.9708  -999.2500     0.0444  4007.0000
   9964.5000     0.0433     0.0221     0.0194     0.0017     0.0000     0.0000     0.0002     0.0000     0.0002  1039.8375     0.0005     0.0056     0.0006     0.0022   191.2472    77.8301   780.5159    43.4873    73.8277     0.0279   750.7117     7.2871    86.1418     0.0000     0.0000     0.2860     1.0247  -999.2500     0.0438  3975.0000
   9965.0000     0.0441     0.0200     0.0211     0.0030     0.0000     0.0000     0.0000     0.0000     0.0000  1034.8606     0.0000     0.0094     0.0006     0.0030   191.1432    77.5960   814.0974    43.4861    76.7296     0.0292   765.8833     7.4775    87.6351     0.0000     0.0000     0.0330     1.0623  -999.2500     0.0441  3982.0000
   9965.5000     0.0528     0.0235     0.0247     0.0046     0.0000     0.0000     0.0000     0.0000     0.0009  1039.8375     0.0010     0.0090     0.0006     0.0055   190.3925    78.7665   786.6504    43.4848    74.6062     0.0284   743.6894     7.2732    85.1321     0.0001     0.0000     0.0662     1.2420  -999.2500     0.0537  3989.0000
   9966.0000     0.0582     0.0253     0.0247     0.0082     0.0000     0.0000     0.0000     0.0005     0.0000  1039.8375     0.0006     0.0066     0.0006     0.0088   190.1550    78.7665   716.9891    43.4836    67.0195     0.0243   673.4556     7.2277    77.4043     0.0001     0.0000     0.0752     1.2205  -999.2500     0.0588  3968.0000
