~Version ---------------------------------------------------
VERS     .                                                                         2.0 : CWLS log ASCII Standard -VERSION 2.0
WRAP     .                                                                          NO : One Line per depth step
PROD     .                                                                Schlumberger : LAS Producer
PROG     .                                                      DLIS to ASCII 16C0-147 : LAS Program name and version
CREA     . 2008/03/25 04:07                          :LAS Creation date {YYYY/MM/DD hh : mm}
DLIS_CREA.     2008-Mar-25	03:02			       :DLIS Creation date and time {YYYY-MMM-DD hh : mm}
SOURCE   .                                             AIT_TLD_MCFL_CNL_IS_017PUP.DLIS : DLIS File Name
FILE-ID  .                                                  AIT_TLD_MCFL_CNL_IS_017PUP : File Identification Number
~Well ------------------------------------------------------
STRT.F      2124.0 : START DEPTH
STOP.F     10116.0 : STOP DEPTH
STEP.F         0.5 : STEP
NULL.      -999.25 : NULL VALUE
COMP.              : COMPANY
WELL.              : WELL
FLD .      WILDCAT : FIELD
LOC .              : LOCATION
CNTY.              : COUNTY
STAT.              : STATE
CTRY.              : COUNTRY
API .              : API NUMBER
UWI .              : UNIQUE WELL ID
DATE.              : LOG DATE {DD-MMM-YYYY}
SRVC. Schlumberger : SERVICE COMPANY
LATI.DEG         0 : LATITUDE
LONG.DEG         0 : LONGITUDE
GDAT.              : GeoDetic Datum
SECT.              : Section
RANG.              : Range
TOWN.              : Township
~Curve Information -----------------------------------------
DEPT     .F     : DEPTH (BOREHOLE) {F10.1}
AF20     .OHMM  : Array Induction Four Foot Resistivity A20 {F13.4}
AF30     .OHMM  : Array Induction Four Foot Resistivity A30 {F13.4}
AF60     .OHMM  : Array Induction Four Foot Resistivity A60 {F13.4}
AF90     .OHMM  : Array Induction Four Foot Resistivity A90 {F13.4}
AT20     .OHMM  : Array Induction Two Foot Resistivity A20 {F13.4}
AT30     .OHMM  : Array Induction Two Foot Resistivity A30 {F13.4}
AT60     .OHMM  : Array Induction Two Foot Resistivity A60 {F13.4}
AT90     .OHMM  : Array Induction Two Foot Resistivity A90 {F13.4}
DPHZ     .CFCF  : HRDD Standard Resolution Density Porosity {F13.4}
DTCO3    .US/F  : Compressional Slowness from Measurement 3 {F13.4}
GR       .GAPI  : Gamma-Ray {F13.4}
HCAL     .IN    : HRCC Cal. Caliper {F13.4}
HDRA     .G/C3  : HRDD Density Correction {F13.4}
NPOR     .CFCF  : Enhanced Thermal Neutron Porosity {F13.4}
PEFZ     .      : HRDD Standard Resolution Formation Photoelectric Factor {F13.4}
PXND_HILT.CFCF  : HILT Porosity CrossPlot {F13.4}
RHOZ     .G/C3  : HRDD Standard Resolution Formation Density {F13.4}
RSOZ     .IN    : MCFL Standard Resolution Resistivity Standoff {F13.4}
RT       .OHMM  : True Resistivity {F13.4}
TENS     .LBF   : Cable Tension {F13.4}
~Params ----------------------------------------------------
RUN .           ONE : RUN NUMBER
PDAT.  GROUND LEVEL : Permanent Datum
EPD .               : Elevation of Permanent Datum above Mean Sea Level
LMF . KELLY BUSHING : Logging Measured From (Name of Logging Elevation Reference)
APD .               : Elevation of Depth Reference (LMF) above Permanent Datum
~Other -----------------------------------------------------
~ASCII -----------------------------------------------------
# ...
 9036.50000  139.23000  134.27890  123.12800  127.67770  192.19200  184.00020  159.13680  171.93280    0.00250   49.63640   19.42260    8.60780    0.00370    0.03020    5.23430    0.02990    2.70580    0.01300  127.99080 5366.00000
 9037.00000  149.36870  144.39020  131.95620  136.29450  172.21240  170.85660  139.27260  139.28900    0.00050   50.00000   17.31810    8.60580    0.00690    0.03170    5.34090    0.02850    2.70920    0.01990  140.70860 5309.00000
 9037.50000  149.43960  144.69450  132.47380  137.32180  143.98510  142.57580  135.80230  128.50900    0.00230   50.00000   15.62610    8.60000    0.00700    0.02880    5.33760    0.02730    2.70600    0.02890  128.48900 5279.00000
 9038.00000  144.52640  140.42990  127.96300  132.70000  134.64250  131.07990  125.55190  118.93910    0.00680   50.00000   14.67900    8.60000    0.00510    0.02560    5.29310    0.02520    2.69840    0.03020  142.98360 5263.00000
 9038.50000  137.47310  133.61810  121.15890  125.91060  140.75210  140.27560  129.49440  126.29200    0.01130   50.00000   15.72040    8.60000    0.00260    0.02670    5.24630    0.02580    2.69070    0.01990  140.00470 5202.00000
 9039.00000  128.84880  124.89230  112.61090  117.22750  155.82880  143.36890  128.88850  126.88180    0.01080   50.36360   15.24680    8.60000    0.00260    0.03030    5.26910    0.02710    2.69150    0.00560  136.59900 5225.00000
 9039.50000  119.91650  115.49950  104.25420  109.86210  136.90010  128.03280  110.76010  112.35520    0.01110   50.36360   14.58380    8.60000    0.00200    0.02610    5.25600    0.02870    2.69100    0.00000  138.92400 5183.00000
 9040.00000  112.66060  108.20770   96.86500   99.80300  104.78400   98.56470   87.52770   88.88540    0.00950   49.63640   11.55420    8.60000    0.00320    0.02970    5.24150    0.03160    2.69380    0.00000  114.49750 5195.00000
 9040.50000  110.01010  105.35640   94.33090   97.06730   87.45280   81.51120   74.31720   75.29840    0.01350   50.36360   11.08060    8.59220    0.00270    0.03580    5.20610    0.03440    2.68700    0.00790   79.17540 5235.00000
 9041.00000  113.08130  108.39240   96.79240   99.19940   91.70020   84.27160   75.56550   76.85010    0.01310   50.36360   10.98590    8.60780    0.00400    0.04160    5.19170    0.03620    2.68760    0.02650   60.22380 5279.00000
 9041.50000  119.58840  115.48450  103.21310  104.76280  121.87080  113.24250   97.46250   98.89860    0.01120   50.36360   13.73150    8.60780    0.00450    0.04300    5.20000    0.03230    2.69090    0.01610   67.12670 5257.00000
 9042.00000  128.07600  126.16930  111.19080  109.77840  176.46140  169.97220  125.94780  139.28470    0.00450   50.36360   16.66770    8.61560    0.00530    0.01990    5.19120    0.02640    2.70230    0.01520   98.73560 5185.00000
 9042.50000  134.38560  134.80270  123.13220  119.26320  224.95740  213.28820  186.99330  173.84300    0.00050   50.00000   15.93680    8.62340    0.00440    0.01770    5.17830    0.02290    2.70910    0.01360  152.93620 5158.00000
 9043.00000  126.85890  128.85630  119.42060  119.31090  177.95780  183.65000  153.30140  159.26680   -0.00030   49.63640   16.12830    8.61560    0.00270    0.01800    5.10080    0.02400    2.71050    0.01360  236.78410 5164.00000
 9043.50000  111.79530  114.61970  108.77070  107.73000  111.01330  120.22930  119.05010  112.66850   -0.00460   50.72730   16.03360    8.60000    0.00440    0.02820    5.02430    0.02750    2.71790    0.00000  202.93380 5279.00000
 9044.00000   97.31340  100.91320   97.32470   96.71840   84.73120   92.07160   88.61160   89.58880   -0.00660   50.90910   18.84540    8.60780    0.00720    0.04030    4.87520    0.03400    2.72120    0.00000  126.16040 5253.00000
 9044.50000   87.87030   91.22100   87.65090   87.71960   88.41290   90.95950   89.59100   90.46130   -0.00750   50.90910   17.80360    8.60780    0.01390    0.05390    4.75840    0.03700    2.72290    0.00000   85.55720 5233.00000
 9045.00000   80.49660   81.89260   78.07430   79.06480   86.38370   84.73760   81.47750   83.52790    0.00770   50.72730   14.39380    8.60000    0.00910    0.04180    4.70230    0.03680    2.69690    0.01010   86.82320 5275.00000
 9045.50000   72.84000   73.27090   70.84840   72.53820   75.41160   75.70280   70.68150   76.06760    0.01190   50.36360   11.88280    8.60780    0.00710    0.02710    4.77290    0.03150    2.68960    0.00900   96.35340 5216.00000
 9046.00000   69.58440   69.82230   67.10180   69.05130   62.71940   61.58520   59.22930   62.35920    0.02060   50.36360   10.17790    8.60000   -0.00070    0.02820    4.87290    0.03270    2.67470    0.00000   64.91350 5248.00000
 9046.50000   69.00230   69.26220   66.12260   68.12660   59.59500   57.85490   55.65840   58.90580    0.01520   50.72730    9.79780    8.60000    0.00170    0.04250    4.93880    0.03440    2.68390    0.00000   51.60400 5310.00000
 9047.00000   71.46620   72.17350   68.26250   70.23250   62.92590   61.39120   58.15610   61.66150    0.01490   50.90910    8.71250    8.60000    0.00300    0.03820    4.98320    0.03460    2.68450    0.00000   47.87380 5249.00000
 9047.50000   76.58030   78.12810   73.09850   77.27260   74.96680   74.58300   73.82470   79.61590    0.01430   50.72730    9.09140    8.57660    0.00500    0.03630    5.03280    0.03340    2.68560    0.00120   55.68630 5192.00000
 9048.00000   83.49180   86.57370   80.17270   83.47920   92.56350  101.65450   92.36040  102.58320    0.01550   50.36360    9.75410    8.57660    0.00640    0.02790    5.16150    0.02940    2.68340    0.00620   70.79270 5237.00000
 9048.50000   90.92180   95.53070   87.50850   90.28640  107.77380  125.64560  110.47590  119.94730    0.00950   50.00000   11.08010    8.59220    0.01690    0.02020    5.38810    0.02730    2.69370    0.01280   92.59820 5227.00000
 9049.00000  100.62330  107.36540   95.45550   96.09580  104.64010  104.57800   92.02500   96.83420   -0.00640   50.72730   12.87970    8.58440    0.03140    0.02400    5.61330    0.02690    2.72100    0.02450  129.64440 5282.00000
 9049.50000  112.23350  118.98270  102.29910  103.03120   93.00180  107.89590   86.56840   89.49630   -0.01590   51.27270   14.48920    8.58830    0.04090    0.03690    5.73450    0.03100    2.73720    0.01850   80.61020 5249.00000
 9050.00000  130.46360  137.44930  119.08020  120.72500   77.62500   89.08780   81.44180   82.54420   -0.01880   51.27270   15.81520    8.60000    0.03880    0.05180    5.72750    0.03410    2.74210    0.01700   53.63050 5197.00000
 9050.50000  162.39500  167.83280  147.31900  151.10770  147.09990  140.83820  125.18210  118.75860   -0.01360   51.09090   15.89190    8.59220    0.03110    0.03590    5.69390    0.03080    2.73320    0.01570   38.25920 5308.00000
 9051.00000  185.16840  193.49360  176.65260  179.82350  220.64700  363.58460  301.33440  268.46650   -0.01510   50.72730   14.94690    8.59220    0.02890    0.02010    5.69130    0.02580    2.73590    0.01990   84.02900 5225.00000
 9051.50000  183.41850  183.43160  158.47550  168.30150  596.16930  428.89980  282.89080  289.57760   -0.01340   50.36360   14.94690    8.60000    0.02880    0.02390    5.68160    0.02410    2.73300    0.02230  152.33430 5197.00000
 9052.00000  150.23190  135.85430  113.69840  121.20010  318.41620  222.03380  163.05890  177.43870   -0.00980   50.36360   13.63750    8.59220    0.02960    0.02380    5.63320    0.02640    2.72670    0.02390  247.18020 5327.00000
 9052.50000  103.95880   91.58540   80.13250   83.19010  116.60840  100.80010   85.66110   88.82590   -0.01180   50.36360   12.87970    8.59220    0.03290    0.02680    5.56910    0.02890    2.73020    0.02390  191.49320 5261.00000
 9053.00000   78.09330   69.66140   61.01540   65.65020   74.26430   64.69380   56.71250   60.75560   -0.00800   50.72730   11.81430    8.57660    0.03250    0.04120    5.48790    0.03430    2.72370    0.02080   97.08980 5276.00000
 9053.50000   62.09940   56.14500   50.94540   50.84880   57.91770   49.51910   44.07890   48.40020   -0.00300   51.09090   13.04710    8.58440    0.03030    0.04650    5.44290    0.03730    2.71510    0.01510   61.64590 5232.00000
