~Version ---------------------------------------------------
VERS     .                                                                         2.0 : CWLS log ASCII Standard -VERSION 2.0
WRAP     .                                                                          NO : One Line per depth step
PROD     .                                                                Schlumberger : LAS Producer
PROG     .                                                      DLIS to ASCII 16C0-147 : LAS Program name and version
CREA     . 2008/03/25 04:07                          :LAS Creation date {YYYY/MM/DD hh : mm}
DLIS_CREA.     2008-Mar-25	03:02			       :DLIS Creation date and time {YYYY-MMM-DD hh : mm}
SOURCE   .                                             AIT_TLD_MCFL_CNL_IS_017PUP.DLIS : DLIS File Name
FILE-ID  .                                                  AIT_TLD_MCFL_CNL_IS_017PUP : File Identification Number
~Well ------------------------------------------------------
STRT.F      2124.0 : START DEPTH
STOP.F     10116.0 : STOP DEPTH
STEP.F         0.5 : STEP
NULL.      -999.25 : NULL VALUE
COMP.              : COMPANY
WELL.              : WELL
FLD .      WILDCAT : FIELD
LOC .              : LOCATION
CNTY.              : COUNTY
STAT.              : STATE
CTRY.              : COUNTRY
API .              : API NUMBER
UWI .              : UNIQUE WELL ID
DATE.              : LOG DATE {DD-MMM-YYYY}
SRVC. Schlumberger : SERVICE COMPANY
LATI.DEG         0 : LATITUDE
LONG.DEG         0 : LONGITUDE
GDAT.              : GeoDetic Datum
SECT.              : Section
RANG.              : Range
TOWN.              : Township
~Curve Information -----------------------------------------
DEPT     .F     : DEPTH (BOREHOLE) {F10.1}
AF20     .OHMM  : Array Induction Four Foot Resistivity A20 {F13.4}
AF30     .OHMM  : Array Induction Four Foot Resistivity A30 {F13.4}
AF60     .OHMM  : Array Induction Four Foot Resistivity A60 {F13.4}
AF90     .OHMM  : Array Induction Four Foot Resistivity A90 {F13.4}
AT20     .OHMM  : Array Induction Two Foot Resistivity A20 {F13.4}
AT30     .OHMM  : Array Induction Two Foot Resistivity A30 {F13.4}
AT60     .OHMM  : Array Induction Two Foot Resistivity A60 {F13.4}
AT90     .OHMM  : Array Induction Two Foot Resistivity A90 {F13.4}
DPHZ     .CFCF  : HRDD Standard Resolution Density Porosity {F13.4}
DTCO3    .US/F  : Compressional Slowness from Measurement 3 {F13.4}
GR       .GAPI  : Gamma-Ray {F13.4}
HCAL     .IN    : HRCC Cal. Caliper {F13.4}
HDRA     .G/C3  : HRDD Density Correction {F13.4}
NPOR     .CFCF  : Enhanced Thermal Neutron Porosity {F13.4}
PEFZ     .      : HRDD Standard Resolution Formation Photoelectric Factor {F13.4}
PXND_HILT.CFCF  : HILT Porosity CrossPlot {F13.4}
RHOZ     .G/C3  : HRDD Standard Resolution Formation Density {F13.4}
RSOZ     .IN    : MCFL Standard Resolution Resistivity Standoff {F13.4}
RT       .OHMM  : True Resistivity {F13.4}
TENS     .LBF   : Cable Tension {F13.4}
~Params ----------------------------------------------------
RUN .           ONE : RUN NUMBER
PDAT.  GROUND LEVEL : Permanent Datum
EPD .               : Elevation of Permanent Datum above Mean Sea Level
LMF . KELLY BUSHING : Logging Measured From (Name of Logging Elevation Reference)
APD .               : Elevation of Depth Reference (LMF) above Permanent Datum
~Other -----------------------------------------------------
~ASCII -----------------------------------------------------
# ...
 3191.50000    1.92570    1.96010    2.04120    2.05610    1.89750    1.94110    2.02450    2.03610    0.23580  120.00000   74.90400    8.90440    0.00240    0.38910    3.51290    0.31020    2.30680    0.03740    2.06770 2847.00000
 3192.00000    1.91740    1.95290    2.03270    2.05130    1.88650    1.92910    2.00860    2.02870    0.23570  120.00000   75.05900    8.92780    0.00080    0.39160    3.35540    0.31110    2.30700    0.04480    2.06170 2808.00000
 3192.50000    1.91820    1.95520    2.03490    2.05900    1.89030    1.93350    2.01380    2.04290    0.23680  118.90910   76.92070    8.99800    0.00030    0.42090    3.33730    0.31920    2.30500    0.05790    2.06020 2807.00000
 3193.00000    1.92710    1.96480    2.04580    2.07240    1.92140    1.96480    2.04410    2.07740    0.23860  118.72730   72.58190    9.08000    0.00180    0.42660    3.41810    0.32620    2.30190    0.05530    2.06350 2813.00000
 3193.50000    1.93720    1.97470    2.05690    2.08140    1.94780    1.98700    2.07000    2.10190    0.23490  118.36360   71.65210    9.25560    0.00580    0.43000    3.49940    0.32070    2.30830    0.02650    2.06950 2855.00000
 3194.00000    1.94510    1.98270    2.06630    2.09000    1.96170    2.00370    2.08960    2.12270    0.23090  115.63640   72.77270    9.23220    0.00810    0.38360    3.54550    0.31350    2.31520    0.02150    2.07500 2843.00000
 3194.50000    1.95110    1.98780    2.07200    2.09490    1.94830    1.98730    2.07260    2.10430    0.22970  116.36360   75.40690    9.23220    0.00840    0.39980    3.56210    0.31010    2.31720    0.01770    2.07820 2785.00000
 3195.00000    1.95570    1.99310    2.07940    2.09880    1.93760    1.97890    2.06280    2.09470    0.23890  118.00000   70.60320    9.23220    0.00590    0.42000    3.61820    0.31630    2.30150    0.02050    2.07940 2801.00000
 3195.50000    1.96350    2.00100    2.08930    2.10670    1.94850    1.98770    2.07720    2.10480    0.24870  118.00000   67.71660    9.16190    0.00720    0.39310    3.76130    0.32720    2.28470    0.02650    2.08120 2847.00000
 3196.00000    1.97610    2.01430    2.10450    2.12100    1.97030    2.01010    2.09820    2.12670    0.25120  118.36360   64.61740    9.05660    0.01470    0.48360    3.85650    0.33690    2.28040    0.03520    2.08710 2826.00000
 3196.50000    1.99340    2.03300    2.12730    2.14300    1.98250    2.02780    2.12270    2.15150    0.24280  116.72730   70.83880    9.00970    0.02180    0.47530    3.81490    0.33600    2.29490    0.04310    2.10010 2813.00000
 3197.00000    2.01600    2.05800    2.15610    2.17090    1.99710    2.04240    2.13890    2.16810    0.23660  117.09090   72.38840    8.88100    0.01990    0.41840    3.62900    0.32810    2.30550    0.04100    2.12140 2809.00000
 3197.50000    2.03950    2.08410    2.18690    2.19950    2.01570    2.06990    2.16970    2.20760    0.23530  118.00000   73.78300    8.85750    0.01130    0.40090    3.46100    0.32500    2.30760    0.03050    2.14990 2779.00000
 3198.00000    2.06300    2.10900    2.21330    2.23210    2.08000    2.13650    2.24440    2.26790    0.23610  118.00000   72.91500    8.85750    0.00350    0.40870    3.38630    0.31650    2.30630    0.00470    2.18140 2825.00000
 3198.50000    2.07290    2.11730    2.22120    2.24150    2.14770    2.19850    2.31630    2.35320    0.23540  119.09090   76.94400    8.85750    0.00110    0.40850    3.36730    0.31430    2.30740    0.00750    2.20810 2873.00000
 3199.00000    2.06640    2.10890    2.21140    2.23400    2.09020    2.13740    2.24220    2.28140    0.23750  120.00000   80.95800    8.85750   -0.00120    0.44390    3.34210    0.31910    2.30390    0.01810    2.22160 2813.00000
 3199.50000    2.05060    2.09280    2.19290    2.21730    2.03910    2.07700    2.17950    2.22360    0.23910  120.00000   81.80290    8.88100   -0.00260    0.36480    3.27210    0.31240    2.30120    0.02140    2.21820 2799.00000
 3200.00000    2.03600    2.07590    2.17360    2.19790    1.99830    2.04010    2.13140    2.16740    0.23920  120.00000   80.09840    8.92780   -0.00300    0.34580    3.23180    0.30120    2.30090    0.00970    2.20120 2860.00000
 3200.50000    2.02580    2.06510    2.16170    2.18570    2.00090    2.04140    2.13340    2.16600    0.23900  120.00000   77.52500    8.92780   -0.00210    0.34550    3.25610    0.29710    2.30130    0.01170    2.17900 2880.00000
 3201.00000    2.02250    2.06030    2.15660    2.18020    2.01940    2.04790    2.13560    2.16110    0.24170  120.00000   78.91960    8.89270   -0.00080    0.35640    3.34770    0.29870    2.29670    0.01880    2.16000 2860.00000
 3201.50000    2.02230    2.05920    2.15690    2.18020    2.02210    2.05880    2.15170    2.17770    0.24710  119.09090   78.29980    8.92780    0.00020    0.39530    3.46040    0.32050    2.28750    0.02330    2.14850 2835.00000
 3202.00000    2.02530    2.06140    2.16170    2.18500    2.01890    2.05750    2.15250    2.18110    0.24740  119.09090   77.94390    8.92780    0.00230    0.40440    3.54840    0.31690    2.28700    0.02430    2.14560 2816.00000
 3202.50000    2.03570    2.07220    2.17670    2.20000    2.01890    2.05780    2.15990    2.18210    0.24610  121.63640   76.43010    8.95120    0.00280    0.46950    3.54790    0.33800    2.28920    0.02930    2.15100 2857.00000
 3203.00000    2.05080    2.08940    2.20000    2.22420    2.03390    2.07340    2.18820    2.20470    0.24290  122.00000   74.72560    8.99800    0.00310    0.37990    3.48700    0.31750    2.29470    0.03920    2.16400 2879.00000
 3203.50000    2.06710    2.10910    2.22040    2.24820    2.06020    2.10720    2.21680    2.25020    0.23990  120.00000   79.19990    8.96290    0.00360    0.45130    3.43280    0.32480    2.29980    0.05020    2.18350 2854.00000
 3204.00000    2.08820    2.13260    2.24820    2.27690    2.09030    2.13170    2.24730    2.28690    0.23980  118.00000   81.33340    8.92780    0.00350    0.39710    3.46790    0.31790    2.30000    0.04860    2.20750 2840.00000
 3204.50000    2.10190    2.14880    2.26600    2.30020    2.10910    2.15790    2.27420    2.32940    0.24020  117.63640   86.44710    8.90440    0.00200    0.44110    3.63510    0.32580    2.29920    0.03370    2.23090 2883.00000
 3205.00000    2.10150    2.14860    2.26570    2.30130    2.16480    2.22320    2.34620    2.41310    0.24120  116.72730   84.76200    8.82240   -0.00030    0.42650    3.88530    0.32700    2.29750    0.03900    2.24560 2867.00000
 3205.50000    2.07670    2.12110    2.23300    2.26970    2.18030    2.24570    2.36930    2.44680    0.22050  116.36360   80.35490    8.81070    0.01590    0.39900    4.13140    0.31020    2.33290    0.03210    2.24310 2842.00000
 3206.00000    2.03190    2.07330    2.17870    2.21550    2.03530    2.08710    2.19110    2.25180    0.21220  117.09090   74.15650    8.92780    0.01920    0.38050    4.19530    0.30750    2.34710    0.02750    2.21910 2842.00000
 3206.50000    1.98830    2.02640    2.12530    2.16230    1.92150    1.96070    2.05810    2.10470    0.21470  118.00000   71.52220    8.92780    0.02290    0.39120    4.14420    0.30220    2.34280    0.02010    2.17730 2828.00000
 3207.00000    1.94650    1.98230    2.07570    2.11220    1.90370    1.95080    2.03820    2.08540    0.23900  120.00000   72.64400    9.02150    0.00890    0.40990    4.09190    0.31560    2.30140    0.02730    2.12790 2840.00000
 3207.50000    1.91840    1.95060    2.03700    2.06980    1.90730    1.94610    2.02460    2.07060    0.24710  120.36360   75.29620    9.04490    0.01020    0.38950    4.08810    0.31490    2.28740    0.03220    2.08070 2889.00000
 3208.00000    1.90140    1.93050    2.01100    2.04040    1.89260    1.92750    2.00630    2.03970    0.23950  120.72730   74.78710    9.04490    0.01810    0.37560    4.05800    0.30860    2.30050    0.01730    2.04130 2871.00000
 3208.50000    1.89270    1.91840    1.99600    2.01870    1.88480    1.91180    1.98780    2.01200    0.23960  122.00000   75.59320    9.06830    0.02000    0.38540    3.97930    0.30880    2.30020    0.02110    2.01080 2835.00000
