~Version ---------------------------------------------------
VERS     .                                                                         2.0 : CWLS log ASCII Standard -VERSION 2.0
WRAP     .                                                                          NO : One Line per depth step
PROD     .                                                                Schlumberger : LAS Producer
PROG     .                                                      DLIS to ASCII 16C0-147 : LAS Program name and version
CREA     . 2008/03/25 04:07                          :LAS Creation date {YYYY/MM/DD hh : mm}
DLIS_CREA.     2008-Mar-25	03:02			       :DLIS Creation date and time {YYYY-MMM-DD hh : mm}
SOURCE   .                                             AIT_TLD_MCFL_CNL_IS_017PUP.DLIS : DLIS File Name
FILE-ID  .                                                  AIT_TLD_MCFL_CNL_IS_017PUP : File Identification Number
~Well ------------------------------------------------------
STRT.F      2124.0 : START DEPTH
STOP.F     10116.0 : STOP DEPTH
STEP.F         0.5 : STEP
NULL.      -999.25 : NULL VALUE
COMP.              : COMPANY
WELL.              : WELL
FLD .      WILDCAT : FIELD
LOC .              : LOCATION
CNTY.              : COUNTY
STAT.              : STATE
CTRY.              : COUNTRY
API .              : API NUMBER
UWI .              : UNIQUE WELL ID
DATE.              : LOG DATE {DD-MMM-YYYY}
SRVC. Schlumberger : SERVICE COMPANY
LATI.DEG         0 : LATITUDE
LONG.DEG         0 : LONGITUDE
GDAT.              : GeoDetic Datum
SECT.              : Section
RANG.              : Range
TOWN.              : Township
~Curve Information -----------------------------------------
DEPT     .F     : DEPTH (BOREHOLE) {F10.1}
AF20     .OHMM  : Array Induction Four Foot Resistivity A20 {F13.4}
AF30     .OHMM  : Array Induction Four Foot Resistivity A30 {F13.4}
AF60     .OHMM  : Array Induction Four Foot Resistivity A60 {F13.4}
AF90     .OHMM  : Array Induction Four Foot Resistivity A90 {F13.4}
AT20     .OHMM  : Array Induction Two Foot Resistivity A20 {F13.4}
AT30     .OHMM  : Array Induction Two Foot Resistivity A30 {F13.4}
AT60     .OHMM  : Array Induction Two Foot Resistivity A60 {F13.4}
AT90     .OHMM  : Array Induction Two Foot Resistivity A90 {F13.4}
DPHZ     .CFCF  : HRDD Standard Resolution Density Porosity {F13.4}
DTCO3    .US/F  : Compressional Slowness from Measurement 3 {F13.4}
GR       .GAPI  : Gamma-Ray {F13.4}
HCAL     .IN    : HRCC Cal. Caliper {F13.4}
HDRA     .G/C3  : HRDD Density Correction {F13.4}
NPOR     .CFCF  : Enhanced Thermal Neutron Porosity {F13.4}
PEFZ     .      : HRDD Standard Resolution Formation Photoelectric Factor {F13.4}
PXND_HILT.CFCF  : HILT Porosity CrossPlot {F13.4}
RHOZ     .G/C3  : HRDD Standard Resolution Formation Density {F13.4}
RSOZ     .IN    : MCFL Standard Resolution Resistivity Standoff {F13.4}
RT       .OHMM  : True Resistivity {F13.4}
TENS     .LBF   : Cable Tension {F13.4}
~Params ----------------------------------------------------
RUN .           ONE : RUN NUMBER
PDAT.  GROUND LEVEL : Permanent Datum
EPD .               : Elevation of Permanent Datum above Mean Sea Level
LMF . KELLY BUSHING : Logging Measured From (Name of Logging Elevation Reference)
APD .               : Elevation of Depth Reference (LMF) above Permanent Datum
~Other -----------------------------------------------------
~ASCII -----------------------------------------------------
# ...
 7969.00000 1950.00000 1950.00000 1361.77060  867.12500 1950.00000 1901.79040 1195.55400 1084.15150    0.40240   68.36360   13.27580    8.47510   -0.00070   -0.04190    5.28540    0.26240    2.02190    0.01370  827.80000 4363.00000
 7969.50000 1950.00000 1950.00000 1483.61900  937.39830 1950.00000 1938.92080 1308.67260 1139.96560    0.40370   68.72730   13.45270    8.47510   -0.00070   -0.04150    5.29940    0.26320    2.01970    0.00000 1019.61270 4386.00000
 7970.00000 1950.00000 1950.00000 1633.77660 1079.32540 1950.00000 1950.00000 1437.32230 1232.94930    0.40520   68.72730   14.00530    8.50630   -0.00220   -0.04290    5.29150    0.26400    2.01710    0.00000 1213.71480 4369.00000
 7970.50000 1950.00000 1950.00000 1776.94450 1285.02450 1950.00000 1950.00000 1556.82710 1365.36450    0.40490   68.72730   14.28730    8.50630   -0.00360   -0.04070    5.26500    0.26380    2.01760    0.08830  832.79330 4309.00000
 7971.00000 1950.00000 1950.00000 1886.14820 1522.90600 1950.00000 1950.00000 1654.50150 1545.44040    0.40570   68.72730   12.98560    8.48290   -0.00450   -0.03940    5.24510    0.26420    2.01630    0.08610 1634.90040 4322.00000
 7971.50000 1950.00000 1950.00000 1950.00000 1735.95390 1950.00000 1950.00000 1681.37790 1723.56990    0.40740   68.72730   12.51040    8.47510   -0.00380   -0.04130    5.26010    0.26520    2.01340    0.08590 1776.25230 4417.00000
 7972.00000 1950.00000 1950.00000 1950.00000 1882.08260 1950.00000 1950.00000 1641.25390 1860.84330    0.40820   68.72730   12.31280    8.46730   -0.00190   -0.03810    5.30440    0.26570    2.01190    0.01600 1417.65300 4417.00000
 7972.50000 1950.00000 1950.00000 1950.00000 1950.00000 1950.00000 1950.00000 1575.36430 1942.99680    0.40650   68.72730   12.96230    8.39700   -0.00010   -0.04030    5.34570    0.26470    2.01490    0.02840 1680.66170 4423.00000
 7973.00000 1950.00000 1950.00000 1950.00000 1950.00000 1950.00000 1950.00000 1522.15780 1950.00000    0.40460   68.72730   14.48900    8.40480   -0.00010   -0.03990    5.36910    0.26360    2.01810    0.05570 1233.55470 4394.00000
 7973.50000 1950.00000 1950.00000 1950.00000 1950.00000 1950.00000 1950.00000 1498.18150 1950.00000    0.40400   68.72730   14.59400    8.43610   -0.00130   -0.03780    5.36250    0.26330    2.01920    0.04100 1162.88810 4371.00000
 7974.00000 1950.00000 1950.00000 1950.00000 1909.60120 1950.00000 1950.00000 1478.81210 1946.34570    0.40580   69.27270   15.94810    8.45170   -0.00270   -0.03910    5.35190    0.26430    2.01610    0.01940 1277.72050 4352.00000
 7974.50000 1950.00000 1950.00000 1944.16990 1799.73670 1950.00000 1950.00000 1422.67440 1882.06380    0.40670   69.27270   16.31730    8.45950   -0.00280   -0.03610    5.32910    0.26480    2.01460    0.01100 1531.29980 4387.00000
 7975.00000 1950.00000 1950.00000 1896.26330 1631.89840 1950.00000 1950.00000 1314.01270 1786.22510    0.40740   69.27270   16.31040    8.45950   -0.00250   -0.03820    5.32360    0.26520    2.01330    0.01950 1643.57680 4400.00000
 7975.50000 1950.00000 1950.00000 1838.28300 1433.88040 1950.00000 1950.00000 1190.67820 1678.46940    0.40670   68.72730   16.37870    8.51410   -0.00210   -0.04040    5.30600    0.26480    2.01450    0.15380 1415.05990 4346.00000
 7976.00000 1950.00000 1950.00000 1786.28100 1245.34770 1950.00000 1950.00000 1105.29390 1590.03420    0.40770   68.72730   16.09460    8.50630   -0.00290   -0.04080    5.31180    0.26540    2.01280    0.19410 1010.14670 4328.00000
 7976.50000 1950.00000 1950.00000 1755.91880 1086.49650 1950.00000 1950.00000 1088.74120 1547.76560    0.40800   68.00000   16.89670    8.50630   -0.00370   -0.03930    5.30670    0.26560    2.01230    0.19530  766.39850 4375.00000
 7977.00000 1950.00000 1950.00000 1752.74390  954.83420 1950.00000 1950.00000 1150.60670 1559.33030    0.40310   68.36360   16.42310    8.50630   -0.00180   -0.04140    5.30200    0.26280    2.02080    0.14380  731.23500 4339.00000
 7977.50000 1950.00000 1950.00000 1764.54130  839.67000 1950.00000 1950.00000 1280.70850 1609.62980    0.39750   68.72730   15.23520    8.50630    0.00060   -0.04090    5.29460    0.25970    2.03030    0.12650  892.78010 4375.00000
 7978.00000 1950.00000 1950.00000 1762.90260  735.19970 1950.00000 1950.00000 1440.32690 1662.01060    0.39230   68.72730   15.29250    8.50630    0.00240   -0.03600    5.29230    0.25680    2.03910    0.15410 1323.52660 4391.00000
 7978.50000 1950.00000 1950.00000 1718.89950  644.42060 1950.00000 1950.00000 1549.01650 1667.56310    0.39240   69.27270   14.43830    8.46730    0.00050   -0.04220    5.30020    0.25680    2.03900    0.06630 1489.89710 4311.00000
 7979.00000 1950.00000 1950.00000 1627.51320  573.14500 1950.00000 1950.00000 1530.51810 1594.55620    0.39260   69.27270   14.13920    8.44780   -0.00230   -0.04040    5.29560    0.25690    2.03860    0.00620 1536.86650 4387.00000
 7979.50000 1950.00000 1950.00000 1517.74390  524.49800 1950.00000 1950.00000 1404.45240 1465.36820    0.39440   69.09090   12.27730    8.44390   -0.00390   -0.03800    5.30720    0.25790    2.03560    0.00490 1904.96180 4368.00000
 7980.00000 1950.00000 1950.00000 1429.58450  498.71030 1950.00000 1950.00000 1260.89710 1336.73680    0.39810   68.72730   12.27910    8.45950   -0.00370   -0.03820    5.34640    0.26000    2.02930    0.03400 1950.00000 4269.00000
 7980.50000 1950.00000 1950.00000 1391.49300  495.06120 1950.00000 1950.00000 1165.69590 1258.30960    0.40060   68.36360   11.87630    8.36580   -0.00250   -0.04320    5.37800    0.26140    2.02500    0.00250 1950.00000 4369.00000
 7981.00000 1950.00000 1950.00000 1415.91990  512.73290 1891.81100 1950.00000 1152.95420 1257.41410    0.40290   68.36360   10.99020    8.46730   -0.00330   -0.04340    5.37730    0.26270    2.02110    0.10550 1950.00000 4322.00000
 7981.50000 1950.00000 1950.00000 1502.94020  550.96020 1791.62960 1950.00000 1237.43660 1347.79900    0.40560   68.72730   10.64550    8.54530   -0.00520   -0.03920    5.35120    0.26420    2.01640    0.07610 1950.00000 4244.00000
 7982.00000 1939.31840 1950.00000 1634.15330  606.84620 1664.71400 1950.00000 1390.82690 1507.41280    0.40800   68.72730   10.07140    8.56880   -0.00660   -0.03860    5.33350    0.26550    2.01230    0.03710 1950.00000 4358.00000
 7982.50000 1889.14750 1950.00000 1783.23110  668.85650 1535.17930 1950.00000 1591.33080 1657.21180    0.41170   68.90910    9.45470    8.55310   -0.00560   -0.04700    5.35950    0.26760    2.00590    0.00000 1950.00000 4344.00000
 7983.00000 1787.25340 1814.91250 1810.89170  710.72150 1425.27420 1787.16320 1501.11900 1586.05350    0.41140   66.72730    9.04020    8.52970   -0.00090   -0.04480    5.47870    0.26740    2.00650    0.00000 1950.00000 4304.00000
 7983.50000 1759.28380 1681.64760 1898.54200  730.16360 1202.60160 1673.50770 1551.91060 1439.00880    0.40890   68.00000    8.66250    8.54140    0.00570   -0.03450    5.67560    0.26600    2.01080    0.00390 1848.65920 4354.00000
 7984.00000 1617.37710 1446.39980 1713.55880  728.61730 1227.51730 1835.85660 1823.94430 1868.29920    0.40340   68.36360    9.96480    8.56090    0.01290   -0.03950    5.86860    0.26300    2.02030    0.03000 1564.10470 4308.00000
 7984.50000 1011.60430 1060.37120 1234.44420  536.27590 1052.66140 1950.00000 1950.00000 1950.00000    0.39850   68.72730   11.67120    9.37270    0.01340   -0.04560    5.90080    0.26030    2.02850    0.02500 1937.51660 4256.00000
 7985.00000  626.94780  626.90290  729.04120  539.11350  781.74150 1556.34790 1538.52820 1777.11650    0.38070   69.27270   14.42760    8.56090    0.01340   -0.03970    5.80740    0.25020    2.05900    0.02730 1939.97880 4375.00000
 7985.50000  451.12340  439.53100  541.08600  474.45630  582.40370  724.20080  633.47710  961.10320    0.34760   66.90910   17.53870    8.54530    0.01750   -0.02910    5.68330    0.23100    2.11570    0.03420 1252.39750 4364.00000
 7986.00000  384.51280  359.53470  464.70610  555.93790  229.90650  298.28320  266.63650  394.33650    0.31810   66.72730   18.48330    8.45170    0.02180   -0.01710    5.63270    0.21320    2.16610    0.00000  525.59650 4339.00000
