~Version ---------------------------------------------------
VERS     .                                                                         2.0 : CWLS log ASCII Standard -VERSION 2.0
WRAP     .                                                                          NO : One Line per depth step
PROD     .                                                                Schlumberger : LAS Producer
PROG     .                                                      DLIS to ASCII 16C0-147 : LAS Program name and version
CREA     . 2008/03/25 04:07                          :LAS Creation date {YYYY/MM/DD hh : mm}
DLIS_CREA.     2008-Mar-25	03:02			       :DLIS Creation date and time {YYYY-MMM-DD hh : mm}
SOURCE   .                                             AIT_TLD_MCFL_CNL_IS_017PUP.DLIS : DLIS File Name
FILE-ID  .                                                  AIT_TLD_MCFL_CNL_IS_017PUP : File Identification Number
~Well ------------------------------------------------------
STRT.F      2124.0 : START DEPTH
STOP.F     10116.0 : STOP DEPTH
STEP.F         0.5 : STEP
NULL.      -999.25 : NULL VALUE
COMP.              : COMPANY
WELL.              : WELL
FLD .      WILDCAT : FIELD
LOC .              : LOCATION
CNTY.              : COUNTY
STAT.              : STATE
CTRY.              : COUNTRY
API .              : API NUMBER
UWI .              : UNIQUE WELL ID
DATE.              : LOG DATE {DD-MMM-YYYY}
SRVC. Schlumberger : SERVICE COMPANY
LATI.DEG         0 : LATITUDE
LONG.DEG         0 : LONGITUDE
GDAT.              : GeoDetic Datum
SECT.              : Section
RANG.              : Range
TOWN.              : Township
~Curve Information -----------------------------------------
DEPT     .F     : DEPTH (BOREHOLE) {F10.1}
AF20     .OHMM  : Array Induction Four Foot Resistivity A20 {F13.4}
AF30     .OHMM  : Array Induction Four Foot Resistivity A30 {F13.4}
AF60     .OHMM  : Array Induction Four Foot Resistivity A60 {F13.4}
AF90     .OHMM  : Array Induction Four Foot Resistivity A90 {F13.4}
AT20     .OHMM  : Array Induction Two Foot Resistivity A20 {F13.4}
AT30     .OHMM  : Array Induction Two Foot Resistivity A30 {F13.4}
AT60     .OHMM  : Array Induction Two Foot Resistivity A60 {F13.4}
AT90     .OHMM  : Array Induction Two Foot Resistivity A90 {F13.4}
DPHZ     .CFCF  : HRDD Standard Resolution Density Porosity {F13.4}
DTCO3    .US/F  : Compressional Slowness from Measurement 3 {F13.4}
GR       .GAPI  : Gamma-Ray {F13.4}
HCAL     .IN    : HRCC Cal. Caliper {F13.4}
HDRA     .G/C3  : HRDD Density Correction {F13.4}
NPOR     .CFCF  : Enhanced Thermal Neutron Porosity {F13.4}
PEFZ     .      : HRDD Standard Resolution Formation Photoelectric Factor {F13.4}
PXND_HILT.CFCF  : HILT Porosity CrossPlot {F13.4}
RHOZ     .G/C3  : HRDD Standard Resolution Formation Density {F13.4}
RSOZ     .IN    : MCFL Standard Resolution Resistivity Standoff {F13.4}
RT       .OHMM  : True Resistivity {F13.4}
TENS     .LBF   : Cable Tension {F13.4}
~Params ----------------------------------------------------
RUN .           ONE : RUN NUMBER
PDAT.  GROUND LEVEL : Permanent Datum
EPD .               : Elevation of Permanent Datum above Mean Sea Level
LMF . KELLY BUSHING : Logging Measured From (Name of Logging Elevation Reference)
APD .               : Elevation of Depth Reference (LMF) above Permanent Datum
~Other -----------------------------------------------------
~ASCII -----------------------------------------------------
# ...
 8511.50000   14.28590   13.18770   11.71270   11.17600   13.26360   12.80190   10.93780   10.55490    0.05180   53.63640    7.17730    8.63120    0.01680    0.07990    5.67440    0.07320    2.62140    0.02090   11.57140 4561.00000
 8512.00000   13.68650   12.70990   11.40270   10.82270   12.30060   11.25930   10.11730    9.46090    0.05480   54.72730    7.85450    8.60000    0.01710    0.09850    5.67850    0.07960    2.61620    0.00280    8.86240 4427.00000
 8512.50000   13.97790   13.07880   11.80480   11.15090   11.94630   11.11560   10.04200    9.38180    0.04820   55.27270    7.40590    8.64680    0.01160    0.10770    5.56650    0.07930    2.62760    0.00140    8.17470 4509.00000
 8513.00000   15.36950   14.50840   13.09670   12.31340   13.29670   12.51390   11.45760   10.61650    0.03790   54.36360    7.70710    8.63120    0.00420    0.07400    5.43630    0.06340    2.64520    0.00630    7.20620 4506.00000
 8513.50000   18.20180   17.33090   15.72400   14.51460   17.42210   17.55740   15.78340   13.65310    0.02740   52.36360    7.70820    8.63120    0.00040    0.03550    5.36750    0.04630    2.66310    0.01190    9.05770 4418.00000
 8514.00000   22.62530   21.59340   19.02820   17.90060   28.95720   26.76910   23.10410   20.93410    0.02440   50.72730   10.13050    8.63120   -0.00330    0.02610    5.39510    0.03540    2.66830    0.00000   12.11640 4445.00000
 8514.50000   27.29060   25.83700   22.57720   21.56580   41.92800   41.56250   37.91300   34.42620    0.01900   50.00000   11.23730    8.61560   -0.00320    0.02840    5.47900    0.03200    2.67750    0.00000   21.43390 4402.00000
 8515.00000   29.69130   28.00190   24.45700   23.95440   42.12870   36.64090   32.24270   30.44160    0.01660   50.00000   11.23730    8.62340   -0.00210    0.03350    5.60490    0.03110    2.68160    0.00000   34.97810 4454.00000
 8515.50000   28.40240   26.85580   23.49090   23.51080   33.63970   31.38160   27.11640   27.19640    0.01110   50.00000    8.99440    8.62340    0.00220    0.02640    5.73190    0.03080    2.69090    0.01620   38.98260 4475.00000
 8516.00000   25.22630   23.87160   21.05200   21.29790   25.84980   25.28050   21.16330   22.39690    0.00850   50.36360    6.86870    8.62340    0.00580    0.03390    5.77850    0.03440    2.69540    0.02300   31.25580 4412.00000
 8516.50000   22.09090   20.71720   18.56870   19.05610   19.91480   18.21800   15.96470   17.20410    0.00910   50.72730    7.35670    8.61750    0.00680    0.05240    5.72570    0.03890    2.69450    0.03050   23.28150 4433.00000
 8517.00000   20.22160   18.77060   16.92190   16.83060   18.89320   17.06380   15.36320   15.24810    0.01590   51.09090    8.52300    8.60780    0.00420    0.04620    5.65180    0.04120    2.68280    0.02750   14.16410 4442.00000
 8517.50000   19.01050   17.51360   15.95260   15.67700   18.70660   16.48950   14.95140   14.64960    0.02030   51.27270    8.61280    8.60000    0.00230    0.03670    5.56950    0.04060    2.67530    0.02110   11.93430 4447.00000
 8518.00000   18.37690   16.90140   15.54220   15.03020   17.83630   15.80960   14.69370   13.84850    0.02120   51.27270    8.16420    8.61560    0.00280    0.04030    5.53930    0.04190    2.67380    0.01450   10.67880 4506.00000
 8518.50000   18.26910   16.78170   15.56390   14.84380   17.60660   16.03970   14.79910   14.18060    0.02070   51.63640    7.71560    8.61560    0.00460    0.04480    5.50650    0.04250    2.67470    0.02020    9.82220 4492.00000
 8519.00000   19.07790   17.64270   16.40280   15.31500   18.39820   17.29110   15.60830   15.03910    0.02080   51.27270    8.88190    8.61560    0.00660    0.04790    5.52230    0.04230    2.67440    0.03220   10.53070 4434.00000
 8519.50000   19.35780   17.78400   16.54260   15.40300   18.57300   18.23990   17.02850   16.68800    0.01960   51.27270    8.34360    8.60780    0.00760    0.03760    5.52100    0.03990    2.67650    0.03410   11.21820 4450.00000
 8520.00000   20.09180   18.19730   16.84180   15.67540   22.69590   19.17860   17.65600   17.84720    0.01300   51.27270    7.89500    8.63120    0.00910    0.04240    5.51090    0.03860    2.68780    0.02600   12.59820 4419.00000
 8520.50000   20.33940   18.46760   17.02000   15.40510   20.55530   18.78400   17.64760   18.49640    0.00900   50.72730    7.26700    8.63510    0.00840    0.03820    5.49160    0.03570    2.69460    0.02310   13.59200 4405.00000
 8521.00000   19.90440   17.89600   16.03170   15.01880   18.41540   17.34310   15.61370   16.56130    0.00210   50.72730    6.99790    8.63120    0.01150    0.03250    5.51460    0.03440    2.70640    0.02360   13.46400 4372.00000
 8521.50000   19.59920   17.53770   15.40380   14.79500   17.97430   16.18820   15.96910   16.93730    0.00940   50.36360    6.99790    8.63120    0.00910    0.03550    5.50130    0.03510    2.69390    0.02820    9.04270 4359.00000
 8522.00000   18.56840   16.02340   14.61880   13.17160   30.07670   22.13250   20.35900   19.34190    0.01700   50.36360    6.28010    8.63900    0.00860    0.03560    5.49700    0.03720    2.68100    0.02270    8.90950 4381.00000
 8522.50000   16.08450   13.71480   12.41940   11.41260   28.26870   17.87490   15.05450   15.40400    0.03340   50.72730    6.28010    8.62340    0.00380    0.03470    5.45050    0.03980    2.65280    0.02030    8.39580 4413.00000
 8523.00000   13.53520   11.62170   10.54720    9.60390   13.33700   11.68600   10.58030   10.73000    0.04440   51.27270    5.47270    8.62340    0.00190    0.04810    5.43980    0.04700    2.63400    0.02050    9.83520 4419.00000
 8523.50000   11.61910    9.99960    9.04480    8.32160    8.61590    7.66980    7.36130    7.57750    0.05300   52.36360    5.55830    8.61560   -0.00010    0.05690    5.41400    0.05550    2.61930    0.02060    6.96530 4374.00000
 8524.00000   10.21680    8.70510    7.82010    7.31060    9.80860    8.63190    7.77840    7.83140    0.05640   52.72730    6.36580    8.62340   -0.00070    0.07160    5.40140    0.06420    2.61360    0.01660    5.18650 4465.00000
 8524.50000    9.02920    7.76470    6.88140    6.48110   10.73860    9.46910    8.36870    8.86980    0.05590   52.90910    6.36580    8.60780    0.00150    0.06090    5.44820    0.06550    2.61440    0.00510    5.48620 4406.00000
 8525.00000    8.11700    6.96070    6.06770    5.75710    9.04670    7.30580    6.30480    6.27120    0.06210   53.63640    7.26700    8.60000    0.00130    0.06490    5.55360    0.06630    2.60380    0.00000    6.32070 4462.00000
 8525.50000    7.31230    6.31430    5.46690    5.19500    7.38190    6.07010    5.27830    5.25620    0.06930   54.36360    7.53620    8.60000   -0.00030    0.07900    5.70850    0.06800    2.59150    0.00000    5.10510 4581.00000
 8526.00000    6.63030    5.74970    4.93440    4.69510    5.95420    5.29720    4.60740    4.45250    0.07420   54.72730    8.25390    8.60000   -0.00320    0.07540    5.79650    0.07000    2.58310    0.00000    4.25110 4546.00000
 8526.50000    6.18310    5.37770    4.57690    4.33960    6.33930    5.30550    4.51310    4.23150    0.07050   54.36360    8.43330    8.60000   -0.00330    0.06610    5.77210    0.06850    2.58940    0.00000    3.99560 4502.00000
 8527.00000    5.80060    5.02410    4.27980    4.04250    5.81650    5.13250    4.38620    4.06540    0.06540   54.00000    7.53620    8.61560   -0.00130    0.06130    5.65220    0.06610    2.59820    0.01440    3.80950 4568.00000
 8527.50000    5.41040    4.75780    4.05370    3.81300    5.66900    4.97320    4.19060    3.76380    0.06550   54.72730    7.71560    8.61560    0.00120    0.06460    5.55380    0.06990    2.59790    0.02060    3.69360 4483.00000
 8528.00000    5.10340    4.50700    3.84990    3.62620    5.12420    4.59320    3.95790    3.47320    0.07240   55.27270    7.71560    8.60780    0.00190    0.07390    5.52860    0.07450    2.58620    0.00000    3.51950 4498.00000
 8528.50000    4.86370    4.30890    3.70690    3.43760    4.75320    4.21580    3.57540    3.08480    0.08230   56.36360    8.34360    8.59220   -0.00050    0.08990    5.53790    0.08690    2.56940    0.00000    3.40900 4611.00000
