~Version ---------------------------------------------------
VERS     .                                                                         2.0 : CWLS log ASCII Standard -VERSION 2.0
WRAP     .                                                                          NO : One Line per depth step
PROD     .                                                                Schlumberger : LAS Producer
PROG     .                                                      DLIS to ASCII 16C0-147 : LAS Program name and version
CREA     . 2008/03/25 04:07                          :LAS Creation date {YYYY/MM/DD hh : mm}
DLIS_CREA.     2008-Mar-25	03:02			       :DLIS Creation date and time {YYYY-MMM-DD hh : mm}
SOURCE   .                                             AIT_TLD_MCFL_CNL_IS_017PUP.DLIS : DLIS File Name
FILE-ID  .                                                  AIT_TLD_MCFL_CNL_IS_017PUP : File Identification Number
~Well ------------------------------------------------------
STRT.F      2124.0 : START DEPTH
STOP.F     10116.0 : STOP DEPTH
STEP.F         0.5 : STEP
NULL.      -999.25 : NULL VALUE
COMP.              : COMPANY
WELL.              : WELL
FLD .      WILDCAT : FIELD
LOC .              : LOCATION
CNTY.              : COUNTY
STAT.              : STATE
CTRY.              : COUNTRY
API .              : API NUMBER
UWI .              : UNIQUE WELL ID
DATE.              : LOG DATE {DD-MMM-YYYY}
SRVC. Schlumberger : SERVICE COMPANY
LATI.DEG         0 : LATITUDE
LONG.DEG         0 : LONGITUDE
GDAT.              : GeoDetic Datum
SECT.              : Section
RANG.              : Range
TOWN.              : Township
~Curve Information -----------------------------------------
DEPT     .F     : DEPTH (BOREHOLE) {F10.1}
AF20     .OHMM  : Array Induction Four Foot Resistivity A20 {F13.4}
AF30     .OHMM  : Array Induction Four Foot Resistivity A30 {F13.4}
AF60     .OHMM  : Array Induction Four Foot Resistivity A60 {F13.4}
AF90     .OHMM  : Array Induction Four Foot Resistivity A90 {F13.4}
AT20     .OHMM  : Array Induction Two Foot Resistivity A20 {F13.4}
AT30     .OHMM  : Array Induction Two Foot Resistivity A30 {F13.4}
AT60     .OHMM  : Array Induction Two Foot Resistivity A60 {F13.4}
AT90     .OHMM  : Array Induction Two Foot Resistivity A90 {F13.4}
DPHZ     .CFCF  : HRDD Standard Resolution Density Porosity {F13.4}
DTCO3    .US/F  : Compressional Slowness from Measurement 3 {F13.4}
GR       .GAPI  : Gamma-Ray {F13.4}
HCAL     .IN    : HRCC Cal. Caliper {F13.4}
HDRA     .G/C3  : HRDD Density Correction {F13.4}
NPOR     .CFCF  : Enhanced Thermal Neutron Porosity {F13.4}
PEFZ     .      : HRDD Standard Resolution Formation Photoelectric Factor {F13.4}
PXND_HILT.CFCF  : HILT Porosity CrossPlot {F13.4}
RHOZ     .G/C3  : HRDD Standard Resolution Formation Density {F13.4}
RSOZ     .IN    : MCFL Standard Resolution Resistivity Standoff {F13.4}
RT       .OHMM  : True Resistivity {F13.4}
TENS     .LBF   : Cable Tension {F13.4}
~Params ----------------------------------------------------
RUN .           ONE : RUN NUMBER
PDAT.  GROUND LEVEL : Permanent Datum
EPD .               : Elevation of Permanent Datum above Mean Sea Level
LMF . KELLY BUSHING : Logging Measured From (Name of Logging Elevation Reference)
APD .               : Elevation of Depth Reference (LMF) above Permanent Datum
~Other -----------------------------------------------------
~ASCII -----------------------------------------------------
# ...
 5309.00000    9.17100    9.13720    8.37280    8.05460    9.32660    9.93830    9.24760    8.36360    0.22870   81.09090   34.69560    8.55310    0.00040    0.19480    2.77240    0.21140    2.31900    0.01730    8.09560 3458.00000
 5309.50000    8.72380    8.68340    8.00140    7.81400    9.93190   10.29910    9.34110    8.78150    0.21570   79.09090   39.30750    8.43610    0.00190    0.20640    2.84070    0.20790    2.34110    0.00810   10.29500 3437.00000
 5310.00000    7.81320    7.72300    7.19230    7.11320   10.32370   10.26330    9.15290    9.05260    0.18830   78.90910   51.43890    8.56880    0.00160    0.18100    2.91680    0.19960    2.38800    0.00000   10.31560 3420.00000
 5310.50000    6.72260    6.60440    6.19600    6.20210    7.64350    7.83870    6.90510    7.11830    0.15410   80.36360   72.67500    8.60780   -0.00220    0.20650    3.01810    0.20100    2.44640    0.00000   10.10440 3463.00000
 5311.00000    5.79200    5.66200    5.35600    5.38180    5.42830    5.22660    4.85310    5.18180    0.11690   82.90910   89.41830    8.64680   -0.00190    0.23190    3.05670    0.19100    2.51010    0.00000    7.37280 3417.00000
 5311.50000    5.21400    5.07110    4.81310    4.83170    4.30910    4.20140    3.94370    4.06940    0.10990   86.00000   97.53930    8.64680   -0.00340    0.23750    3.05650    0.18790    2.52210    0.00000    4.54640 3378.00000
 5312.00000    5.01530    4.84820    4.60860    4.62680    4.04860    3.96870    3.75030    3.86680    0.11390   87.09090   92.85320    8.63120   -0.00450    0.23420    3.10120    0.19070    2.51520    0.00000    4.35550 3449.00000
 5312.50000    5.13480    4.92770    4.68760    4.70180    4.57790    4.27570    4.00320    4.16670    0.11840   86.00000   85.03300    8.65460   -0.00560    0.23070    3.42240    0.19450    2.50750    0.00000    4.25730 3451.00000
 5313.00000    5.49050    5.24410    4.98740    4.98780    6.34030    5.91550    5.45500    5.54560    0.09550   81.63640   73.60350    8.63900    0.00100    0.22430    3.92170    0.19000    2.54680    0.00000    4.33640 3422.00000
 5313.50000    5.79690    5.58430    5.31930    5.24240    7.96670    7.46990    6.67470    6.57770    0.07780   79.27270   65.56960    8.58440    0.01100    0.22390    4.19030    0.17940    2.57700    0.01910    5.10840 3417.00000
 5314.00000    6.04270    5.84210    5.57930    5.42900    6.30800    6.13400    5.57620    5.34170    0.08610   80.36360   68.48860    8.51410    0.01440    0.22490    3.94410    0.18190    2.56280    0.02900    6.39280 3378.00000
 5314.50000    6.11560    5.96540    5.72260    5.56250    5.43650    5.42080    5.16780    5.05270    0.12310   83.63640   73.96560    8.54530    0.00920    0.22750    3.37800    0.19000    2.49960    0.03040    5.49360 3420.00000
 5315.00000    6.17870    6.08410    5.85770    5.65880    5.86100    5.70540    5.54130    5.28470    0.15620   85.27270   76.68340    8.55310    0.00410    0.20140    2.92130    0.19200    2.44290    0.02540    5.11490 3456.00000
 5315.50000    6.28110    6.19710    5.98520    5.76550    6.70740    6.70140    6.36410    6.01760    0.17650   84.72730   73.66410    8.57660    0.00350    0.19880    2.80120    0.18990    2.40810    0.03060    5.46590 3417.00000
 5316.00000    6.32020    6.27020    6.06590    5.80110    7.75090    7.75010    7.20880    6.82100    0.18100   84.36360   71.39540    8.60780    0.00500    0.19870    2.89890    0.19460    2.40050    0.03350    6.29430 3405.00000
 5316.50000    6.12380    6.09240    5.94210    5.65920    6.63970    6.62200    6.31940    5.95380    0.16610   84.36360   77.40020    8.52970    0.00760    0.20910    2.99680    0.19450    2.42600    0.01290    7.76920 3412.00000
 5317.00000    5.77710    5.73760    5.60330    5.42490    5.58590    5.65240    5.45020    5.32330    0.14580   84.72730   87.74160    8.58440    0.00710    0.20270    2.94010    0.18900    2.46070    0.00000    6.16110 3414.00000
 5317.50000    5.39880    5.33660    5.23270    5.07890    5.28640    5.29300    5.12450    5.03480    0.13270   86.00000  101.67770    8.63900    0.00360    0.18350    2.75950    0.17550    2.48300    0.00000    5.32960 3423.00000
 5318.00000    5.04320    4.99020    4.90060    4.77950    5.20090    5.05490    4.86050    4.78640    0.13050   85.27270  100.57480    8.67610   -0.00160    0.20180    2.58620    0.18000    2.48690    0.00000    5.19720 3421.00000
 5318.50000    4.74500    4.67680    4.59960    4.49810    4.76450    4.67160    4.49840    4.49920    0.12460   85.27270   97.10360    8.69360   -0.00320    0.20730    2.51440    0.18510    2.49700    0.00000    4.91400 3386.00000
 5319.00000    4.45750    4.40240    4.32750    4.22910    4.40360    4.28650    4.13170    4.05950    0.11120   84.00000   92.59200    8.72490   -0.00100    0.22230    2.50370    0.18930    2.51980    0.00000    4.68350 3421.00000
 5319.50000    4.18310    4.14380    4.07140    3.94790    4.29460    4.24330    4.13220    4.05130    0.10170   82.72730  100.11140    8.65460   -0.00000    0.20570    2.52870    0.18460    2.53620    0.00000    4.28170 3449.00000
 5320.00000    3.92330    3.89740    3.85330    3.72640    3.99570    3.98460    3.90970    3.77950    0.09430   81.27270  111.10530    8.70140    0.00080    0.21610    2.56000    0.17720    2.54880    0.00000    4.01090 3389.00000
 5320.50000    3.67790    3.65020    3.63870    3.50850    3.74350    3.67090    3.60320    3.53220    0.09540   82.00000  116.31880    8.69360    0.00030    0.20510    2.61580    0.18110    2.54690    0.00000    3.77010 3375.00000
 5321.00000    3.45670    3.42360    3.44560    3.33120    3.42240    3.48220    3.41710    3.33900    0.10140   84.90910  121.66620    8.63900    0.00050    0.22930    2.72440    0.19250    2.53650    0.00000    3.53990 3413.00000
 5321.50000    3.27520    3.22650    3.27140    3.15270    3.18310    3.19280    3.26950    3.20180    0.11150   89.63640  119.94380    8.61560    0.00080    0.27390    2.88540    0.20710    2.51930    0.00550    3.33730 3423.00000
 5322.00000    3.16490    3.10620    3.14340    3.03100    2.90540    2.91700    2.98250    2.93070    0.11390   92.00000  119.24200    8.55310    0.00330    0.29620    3.04610    0.21630    2.51530    0.01910    3.18800 3434.00000
 5322.50000    3.16990    3.10730    3.10900    3.04290    2.67890    2.62700    2.61460    2.64580    0.10890   92.00000  104.16950    8.60000    0.00460    0.29020    3.05030    0.21330    2.52380    0.00940    3.11800 3399.00000
 5323.00000    3.39770    3.32120    3.30450    3.24460    3.00210    2.90200    2.89540    2.94130    0.10080   90.00000   93.75520    8.63120    0.00430    0.27710    2.93100    0.20840    2.53760    0.00000    3.14590 3375.00000
 5323.50000    3.80880    3.68770    3.64450    3.60020    3.82600    3.67110    3.46920    3.67400    0.09840   85.63640   81.62380    8.60780    0.00180    0.24660    2.78930    0.19370    2.54170    0.00480    3.28080 3413.00000
 5324.00000    4.23500    4.08030    3.97520    3.99190    4.92250    4.63770    4.38760    4.48830    0.09730   82.72730   81.82430    8.60780    0.00120    0.22090    2.72520    0.18000    2.54350    0.01070    3.51820 3408.00000
 5324.50000    4.83240    4.66610    4.54270    4.54400    5.26380    4.92230    4.74580    4.80480    0.09830   80.00000   82.01210    8.59220    0.00160    0.17860    2.73320    0.16660    2.54190    0.03000    3.79570 3426.00000
 5325.00000    5.39360    5.22160    5.09440    5.01360    5.60660    5.45240    5.24450    4.94530    0.09810   78.00000   83.81310    8.57660    0.00200    0.16670    2.72930    0.15390    2.54220    0.00550    4.14210 3417.00000
 5325.50000    5.60790    5.46000    5.36380    5.21000    6.89210    6.74250    6.18380    5.31410    0.10000   77.09090   87.42240    8.60000    0.00080    0.15970    2.73010    0.14640    2.53890    0.00000    4.20770 3398.00000
 5326.00000    5.29450    5.20820    5.11270    4.95270    8.00990    8.06750    7.39580    6.84210    0.10120   76.72730   92.35000    8.60780   -0.00090    0.13420    2.71920    0.14470    2.53700    0.00000    4.81640 3402.00000
