~Version ---------------------------------------------------
VERS     .                                                                         2.0 : CWLS log ASCII Standard -VERSION 2.0
WRAP     .                                                                          NO : One Line per depth step
PROD     .                                                                Schlumberger : LAS Producer
PROG     .                                                      DLIS to ASCII 16C0-147 : LAS Program name and version
CREA     . 2008/03/25 04:07                          :LAS Creation date {YYYY/MM/DD hh : mm}
DLIS_CREA.     2008-Mar-25	03:02			       :DLIS Creation date and time {YYYY-MMM-DD hh : mm}
SOURCE   .                                             AIT_TLD_MCFL_CNL_IS_017PUP.DLIS : DLIS File Name
FILE-ID  .                                                  AIT_TLD_MCFL_CNL_IS_017PUP : File Identification Number
~Well ------------------------------------------------------
STRT.F      2124.0 : START DEPTH
STOP.F     10116.0 : STOP DEPTH
STEP.F         0.5 : STEP
NULL.      -999.25 : NULL VALUE
COMP.              : COMPANY
WELL.              : WELL
FLD .      WILDCAT : FIELD
LOC .              : LOCATION
CNTY.              : COUNTY
STAT.              : STATE
CTRY.              : COUNTRY
API .              : API NUMBER
UWI .              : UNIQUE WELL ID
DATE.              : LOG DATE {DD-MMM-YYYY}
SRVC. Schlumberger : SERVICE COMPANY
LATI.DEG         0 : LATITUDE
LONG.DEG         0 : LONGITUDE
GDAT.              : GeoDetic Datum
SECT.              : Section
RANG.              : Range
TOWN.              : Township
~Curve Information -----------------------------------------
DEPT     .F     : DEPTH (BOREHOLE) {F10.1}
AF20     .OHMM  : Array Induction Four Foot Resistivity A20 {F13.4}
AF30     .OHMM  : Array Induction Four Foot Resistivity A30 {F13.4}
AF60     .OHMM  : Array Induction Four Foot Resistivity A60 {F13.4}
AF90     .OHMM  : Array Induction Four Foot Resistivity A90 {F13.4}
AT20     .OHMM  : Array Induction Two Foot Resistivity A20 {F13.4}
AT30     .OHMM  : Array Induction Two Foot Resistivity A30 {F13.4}
AT60     .OHMM  : Array Induction Two Foot Resistivity A60 {F13.4}
AT90     .OHMM  : Array Induction Two Foot Resistivity A90 {F13.4}
DPHZ     .CFCF  : HRDD Standard Resolution Density Porosity {F13.4}
DTCO3    .US/F  : Compressional Slowness from Measurement 3 {F13.4}
GR       .GAPI  : Gamma-Ray {F13.4}
HCAL     .IN    : HRCC Cal. Caliper {F13.4}
HDRA     .G/C3  : HRDD Density Correction {F13.4}
NPOR     .CFCF  : Enhanced Thermal Neutron Porosity {F13.4}
PEFZ     .      : HRDD Standard Resolution Formation Photoelectric Factor {F13.4}
PXND_HILT.CFCF  : HILT Porosity CrossPlot {F13.4}
RHOZ     .G/C3  : HRDD Standard Resolution Formation Density {F13.4}
RSOZ     .IN    : MCFL Standard Resolution Resistivity Standoff {F13.4}
RT       .OHMM  : True Resistivity {F13.4}
TENS     .LBF   : Cable Tension {F13.4}
~Params ----------------------------------------------------
RUN .           ONE : RUN NUMBER
PDAT.  GROUND LEVEL : Permanent Datum
EPD .               : Elevation of Permanent Datum above Mean Sea Level
LMF . KELLY BUSHING : Logging Measured From (Name of Logging Elevation Reference)
APD .               : Elevation of Depth Reference (LMF) above Permanent Datum
~Other -----------------------------------------------------
~ASCII -----------------------------------------------------
# ...
 3716.50000    2.88280    2.91020    2.98500    2.99880    2.83190    2.86280    2.93020    2.95800    0.17950  116.00000   97.53870    8.69360    0.00170    0.35700    3.62740    0.27070    2.40300    0.00000    3.00360 2929.00000
 3717.00000    2.87010    2.89760    2.97240    2.98610    2.78470    2.82300    2.88770    2.91400    0.17500  116.00000   98.86130    8.75220    0.00110    0.32370    3.58960    0.25690    2.41080    0.00260    2.98390 2937.00000
 3717.50000    2.88460    2.91280    2.98830    2.99700    2.79630    2.82850    2.89780    2.91870    0.17700  116.00000  104.60760    8.76390    0.00000    0.32450    3.56460    0.26410    2.40740    0.00000    2.97630 2944.00000
 3718.00000    2.91320    2.93900    3.01570    3.02550    2.88540    2.90690    2.97470    2.99360    0.17630  113.63640  104.77040    8.74050   -0.00040    0.32190    3.52350    0.26070    2.40840    0.00000    2.98590 2918.00000
 3718.50000    2.94510    2.97470    3.05470    3.05840    3.04420    3.08250    3.16520    3.17960    0.17390  112.00000  103.20820    8.72880   -0.00050    0.30840    3.51740    0.25710    2.41260    0.02210    3.00830 2919.00000
 3719.00000    2.95710    2.98620    3.06270    3.06850    3.13890    3.18690    3.27420    3.29270    0.17340  112.00000   98.74080    8.64680   -0.00080    0.29440    3.51490    0.25420    2.41350    0.04380    3.02980 2945.00000
 3719.50000    2.93230    2.96080    3.03680    3.04710    2.96930    3.00080    3.07540    3.09280    0.18080  112.90910  101.90430    8.67020   -0.00200    0.34540    3.50690    0.26070    2.40090    0.04870    3.03580 2934.00000
 3720.00000    2.89080    2.92310    2.99530    3.00540    2.81190    2.84540    2.90570    2.93100    0.18730  116.00000  105.73860    8.64680   -0.00200    0.35780    3.48580    0.27180    2.38960    0.04800    3.02090 2930.00000
 3720.50000    2.85990    2.88740    2.95670    2.97140    2.78920    2.82620    2.88610    2.91190    0.18760  116.00000  106.87550    8.62340    0.00020    0.33360    3.50720    0.27080    2.38920    0.07260    2.99190 2929.00000
 3721.00000    2.83700    2.86320    2.93210    2.94540    2.81480    2.84760    2.91010    2.94230    0.18340  116.00000  105.48080    8.60000   -0.00300    0.36260    3.57370    0.27980    2.39640    0.07420    2.96190 2919.00000
 3721.50000    2.83020    2.85640    2.92490    2.93810    2.82360    2.85130    2.91570    2.94550    0.18040  116.00000  107.18500    8.60000   -0.00280    0.38300    3.64920    0.28030    2.40150    0.07360    2.94090 2934.00000
 3722.00000    2.84220    2.86870    2.93850    2.95180    2.80920    2.83900    2.90340    2.92690    0.17630  114.90910  106.47450    8.57660   -0.00160    0.36080    3.65850    0.27950    2.40850    0.03790    2.93380 2939.00000
 3722.50000    2.86630    2.89260    2.96450    2.97670    2.80860    2.84300    2.90540    2.93490    0.17120  114.36360  105.11090    8.60000    0.00390    0.40320    3.63270    0.27950    2.41720    0.01770    2.94130 2918.00000
 3723.00000    2.89400    2.92060    2.99260    3.00830    2.85990    2.88990    2.96130    2.98630    0.16100  112.72730  106.94010    8.67020    0.00470    0.40120    3.64470    0.27870    2.43460    0.02190    2.96190 2929.00000
 3723.50000    2.92740    2.95660    3.03340    3.04760    2.98390    3.01590    3.08180    3.11260    0.15360  111.09090  105.35650    8.70530    0.00210    0.37420    3.71880    0.26840    2.44740    0.01550    2.99020 2948.00000
 3724.00000    2.94340    2.97380    3.05070    3.06390    3.08720    3.12850    3.21060    3.22540    0.15260  111.09090  103.67230    8.74050    0.00080    0.32780    3.78450    0.26120    2.44910    0.02430    3.01620 2934.00000
 3724.50000    2.92750    2.95970    3.03670    3.05040    3.00110    3.03520    3.11000    3.13060    0.16890  112.36360   97.93880    8.74050   -0.00250    0.36640    3.78270    0.26110    2.42120    0.00000    3.02800 2930.00000
 3725.00000    2.89010    2.92390    3.00000    3.01260    2.86100    2.89640    2.96300    2.98710    0.18190  114.00000   98.08080    8.69360   -0.00370    0.33290    3.67120    0.27290    2.39900    0.00000    3.01940 2940.00000
 3725.50000    2.85380    2.88630    2.96030    2.97340    2.78500    2.83100    2.90090    2.92640    0.18590  115.27270  104.61750    8.71710   -0.00250    0.38410    3.54080    0.28600    2.39210    0.00000    2.99480 2905.00000
 3726.00000    2.82660    2.85920    2.93200    2.94860    2.78260    2.82840    2.89600    2.91800    0.17760  114.36360  108.95640    8.68190    0.00120    0.41660    3.43400    0.28880    2.40630    0.02120    2.96420 2919.00000
 3726.50000    2.80990    2.84080    2.91270    2.92880    2.80340    2.84170    2.91050    2.93930    0.17060  114.00000  113.64280    8.67020    0.00420    0.41420    3.41130    0.28780    2.41830    0.04390    2.93620 2951.00000
 3727.00000    2.79820    2.82730    2.89810    2.91030    2.80120    2.83070    2.89840    2.92230    0.17210  114.00000  106.25350    8.63510    0.00470    0.35450    3.44860    0.27510    2.41570    0.03210    2.91370 2920.00000
 3727.50000    2.78680    2.81270    2.88180    2.89480    2.78420    2.81570    2.88200    2.90690    0.17800  114.90910   99.74520    8.62340    0.00460    0.40320    3.51240    0.28470    2.40570    0.03460    2.89510 2919.00000
 3728.00000    2.77750    2.80130    2.87000    2.88310    2.77670    2.79890    2.86340    2.88770    0.18120  116.00000   93.63870    8.60000    0.00530    0.38240    3.55660    0.27780    2.40010    0.03180    2.87810 2949.00000
 3728.50000    2.77160    2.79370    2.86240    2.87450    2.76640    2.77660    2.84130    2.86390    0.18240  116.00000   98.18590    8.62340    0.00400    0.37370    3.53590    0.28630    2.39810    0.02560    2.86320 2920.00000
 3729.00000    2.77170    2.79290    2.86200    2.87230    2.73650    2.75210    2.81900    2.83960    0.17910  116.00000  103.26560    8.68190    0.00210    0.36390    3.50970    0.27340    2.40370    0.00000    2.85360 2934.00000
 3729.50000    2.78140    2.80270    2.87250    2.88320    2.74170    2.76210    2.82820    2.84960    0.17970  114.36360  102.88530    8.74050   -0.00240    0.35690    3.50310    0.26940    2.40270    0.00000    2.85320 2967.00000
 3730.00000    2.79820    2.82060    2.89190    2.90440    2.79780    2.82360    2.89240    2.91320    0.17980  114.00000  101.01690    8.76390   -0.00150    0.31190    3.60940    0.26270    2.40250    0.00000    2.86410 2933.00000
 3730.50000    2.81700    2.84140    2.91510    2.92610    2.83420    2.86080    2.93170    2.95270    0.18080  112.90910   97.20270    8.76390    0.01160    0.32460    3.89750    0.26960    2.40090    0.01080    2.88510 2937.00000
 3731.00000    2.83450    2.86110    2.93670    2.94860    2.83650    2.87520    2.94140    2.95180    0.17500  114.00000  101.38650    8.77560    0.03110    0.35060    4.25230    0.26960    2.41080    0.01100    2.91210 2926.00000
 3731.50000    2.84940    2.87960    2.95690    2.97010    2.84730    2.88000    2.95520    2.97380    0.16600  114.00000   99.96640    8.83410    0.04600    0.34540    4.45410    0.26220    2.42620    0.01300    2.93960 2902.00000
 3732.00000    2.86520    2.89770    2.97660    2.99020    2.85560    2.89170    2.97140    2.99040    0.16630  116.00000  104.89940    8.88100    0.03780    0.36690    4.27730    0.26300    2.42570    0.00000    2.96390 2942.00000
 3732.50000    2.88360    2.91580    2.99650    3.00860    2.86890    2.91280    2.98950    3.01700    0.17740  116.00000  102.82060    8.85750    0.01980    0.38040    3.91800    0.27900    2.40670    0.01170    2.98350 2952.00000
 3733.00000    2.89720    2.93170    3.01390    3.02750    2.90380    2.94340    3.01570    3.06330    0.18850  116.00000  105.94490    8.81070    0.00480    0.35650    3.65580    0.29010    2.38760    0.01420    2.99820 2922.00000
 3733.50000    2.90260    2.93770    3.02140    3.02970    2.96090    3.00450    3.08950    3.12040    0.18800  114.90910   99.59160    8.76390    0.00110    0.38580    3.62830    0.28870    2.38850    0.03980    3.00800 2942.00000
