~Version ---------------------------------------------------
VERS     .                                                                         2.0 : CWLS log ASCII Standard -VERSION 2.0
WRAP     .                                                                          NO : One Line per depth step
PROD     .                                                                Schlumberger : LAS Producer
PROG     .                                                      DLIS to ASCII 16C0-147 : LAS Program name and version
CREA     . 2008/03/25 04:07                          :LAS Creation date {YYYY/MM/DD hh : mm}
DLIS_CREA.     2008-Mar-25	03:02			       :DLIS Creation date and time {YYYY-MMM-DD hh : mm}
SOURCE   .                                             AIT_TLD_MCFL_CNL_IS_017PUP.DLIS : DLIS File Name
FILE-ID  .                                                  AIT_TLD_MCFL_CNL_IS_017PUP : File Identification Number
~Well ------------------------------------------------------
STRT.F      2124.0 : START DEPTH
STOP.F     10116.0 : STOP DEPTH
STEP.F         0.5 : STEP
NULL.      -999.25 : NULL VALUE
COMP.              : COMPANY
WELL.              : WELL
FLD .      WILDCAT : FIELD
LOC .              : LOCATION
CNTY.              : COUNTY
STAT.              : STATE
CTRY.              : COUNTRY
API .              : API NUMBER
UWI .              : UNIQUE WELL ID
DATE.              : LOG DATE {DD-MMM-YYYY}
SRVC. Schlumberger : SERVICE COMPANY
LATI.DEG         0 : LATITUDE
LONG.DEG         0 : LONGITUDE
GDAT.              : GeoDetic Datum
SECT.              : Section
RANG.              : Range
TOWN.              : Township
~Curve Information -----------------------------------------
DEPT     .F     : DEPTH (BOREHOLE) {F10.1}
AF20     .OHMM  : Array Induction Four Foot Resistivity A20 {F13.4}
AF30     .OHMM  : Array Induction Four Foot Resistivity A30 {F13.4}
AF60     .OHMM  : Array Induction Four Foot Resistivity A60 {F13.4}
AF90     .OHMM  : Array Induction Four Foot Resistivity A90 {F13.4}
AT20     .OHMM  : Array Induction Two Foot Resistivity A20 {F13.4}
AT30     .OHMM  : Array Induction Two Foot Resistivity A30 {F13.4}
AT60     .OHMM  : Array Induction Two Foot Resistivity A60 {F13.4}
AT90     .OHMM  : Array Induction Two Foot Resistivity A90 {F13.4}
DPHZ     .CFCF  : HRDD Standard Resolution Density Porosity {F13.4}
DTCO3    .US/F  : Compressional Slowness from Measurement 3 {F13.4}
GR       .GAPI  : Gamma-Ray {F13.4}
HCAL     .IN    : HRCC Cal. Caliper {F13.4}
HDRA     .G/C3  : HRDD Density Correction {F13.4}
NPOR     .CFCF  : Enhanced Thermal Neutron Porosity {F13.4}
PEFZ     .      : HRDD Standard Resolution Formation Photoelectric Factor {F13.4}
PXND_HILT.CFCF  : HILT Porosity CrossPlot {F13.4}
RHOZ     .G/C3  : HRDD Standard Resolution Formation Density {F13.4}
RSOZ     .IN    : MCFL Standard Resolution Resistivity Standoff {F13.4}
RT       .OHMM  : True Resistivity {F13.4}
TENS     .LBF   : Cable Tension {F13.4}
~Params ----------------------------------------------------
RUN .           ONE : RUN NUMBER
PDAT.  GROUND LEVEL : Permanent Datum
EPD .               : Elevation of Permanent Datum above Mean Sea Level
LMF . KELLY BUSHING : Logging Measured From (Name of Logging Elevation Reference)
APD .               : Elevation of Depth Reference (LMF) above Permanent Datum
~Other -----------------------------------------------------
~ASCII -----------------------------------------------------
# ...
 5851.50000    0.92900    0.91430    0.89740    0.89320    0.91300    0.89750    0.88210    0.88410    0.17750  112.90910  103.87880    8.71710    0.00190    0.35230    3.77440    0.26510    2.40640    0.02510    0.87200 3551.00000
 5852.00000    0.96090    0.95140    0.93200    0.92720    0.95410    0.93340    0.92230    0.91190    0.17100  110.72730  105.53250    8.72490    0.00430    0.35500    3.83570    0.26700    2.41770    0.02460    0.90370 3475.00000
 5852.50000    1.00620    0.99130    0.97160    0.96650    1.01440    1.00580    0.99490    0.97570    0.16440  105.63640  105.14510    8.69360    0.00550    0.33660    3.80250    0.25820    2.42890    0.02470    0.94050 3584.00000
 5853.00000    1.04860    1.03240    1.01310    1.00650    1.10890    1.10440    1.09310    1.08040    0.16100  102.36360  103.61040    8.71120    0.00550    0.29290    3.68280    0.24780    2.43460    0.00120    0.97960 3518.00000
 5853.50000    1.07940    1.06270    1.03950    1.03340    1.14090    1.12040    1.09040    1.09910    0.15970  102.00000  107.07030    8.73270    0.00700    0.29450    3.57580    0.24240    2.43690    0.00000    1.01600 3475.00000
 5854.00000    1.09400    1.07600    1.05410    1.05070    1.10360    1.07940    1.05750    1.06180    0.16250  102.00000  104.97840    8.76390    0.00630    0.31360    3.47620    0.24870    2.43210    0.00000    1.04410 3541.00000
 5854.50000    1.10360    1.08220    1.06750    1.06000    1.09170    1.06750    1.05950    1.06260    0.16330  104.00000  104.36460    8.77170    0.00510    0.30880    3.38570    0.25360    2.43070    0.00000    1.06220 3567.00000
 5855.00000    1.11310    1.09390    1.08420    1.07420    1.09780    1.07000    1.06950    1.06380    0.16380  102.72730  100.41310    8.77170    0.00320    0.33440    3.32620    0.25650    2.42980    0.01510    1.07370 3477.00000
 5855.50000    1.12850    1.11010    1.10590    1.09280    1.11040    1.09260    1.09030    1.06890    0.16080  103.09090   99.94830    8.77170    0.00470    0.32110    3.40090    0.25710    2.43500    0.02230    1.08430 3524.00000
 5856.00000    1.14310    1.12930    1.13220    1.11550    1.14740    1.12540    1.12590    1.10420    0.15830  102.00000  101.18790    8.79510    0.00700    0.31200    3.64900    0.24900    2.43930    0.04010    1.09860 3541.00000
 5856.50000    1.16230    1.15200    1.15250    1.13300    1.18470    1.17740    1.17720    1.12540    0.15800  101.09090  101.88520    8.72290    0.00960    0.31360    3.96790    0.24800    2.43990    0.02570    1.11590 3519.00000
 5857.00000    1.16020    1.15260    1.15360    1.13410    1.20790    1.19940    1.20940    1.16290    0.15490  104.00000  102.73750    8.74630    0.01460    0.28350    4.21210    0.23730    2.44520    0.01540    1.13050 3558.00000
 5857.50000    1.13090    1.12620    1.12740    1.10990    1.22410    1.24050    1.24730    1.19690    0.15490  106.00000  101.63760    8.80490    0.01820    0.30880    4.28040    0.24660    2.44520    0.01920    1.13290 3502.00000
 5858.00000    1.07900    1.07660    1.07800    1.06160    1.12080    1.13740    1.14740    1.10190    0.15210  110.00000  100.57580    8.84000    0.02250    0.35050    4.24010    0.25240    2.45000    0.00000    1.11540 3511.00000
 5858.50000    1.01990    1.02010    1.02110    1.00550    1.01400    1.00830    0.99940    0.97000    0.15710  111.27270  107.33290    8.88100    0.01690    0.37250    4.14860    0.26260    2.44140    0.00860    1.07790 3588.00000
 5859.00000    0.97000    0.96880    0.96790    0.95710    0.93910    0.94860    0.94890    0.93440    0.16260  112.36360  114.01130    8.87320    0.01110    0.34070    4.03040    0.26730    2.43200    0.00900    1.02890 3566.00000
 5859.50000    0.92680    0.92480    0.92560    0.91460    0.91240    0.90880    0.90740    0.90730    0.17320  114.00000  117.70740    8.87320    0.00250    0.35380    3.87590    0.27400    2.41390    0.02300    0.97940 3525.00000
 5860.00000    0.90020    0.89610    0.89810    0.88550    0.88280    0.87740    0.88490    0.89600    0.17790  115.63640  113.11970    8.87320    0.00050    0.38620    3.70670    0.28050    2.40580    0.01520    0.93810 3555.00000
 5860.50000    0.89100    0.88670    0.89050    0.87420    0.85810    0.85410    0.85680    0.85080    0.18170  115.63640  112.28200    8.88880   -0.00120    0.35590    3.56760    0.27440    2.39930    0.01410    0.90910 3540.00000
 5861.00000    0.89700    0.89290    0.89880    0.88030    0.86120    0.85470    0.86340    0.85410    0.18410  116.00000  109.59390    8.92780   -0.00170    0.37140    3.48700    0.27920    2.39520    0.00390    0.89460 3517.00000
 5861.50000    0.91640    0.91250    0.92050    0.89870    0.89300    0.88620    0.89810    0.88340    0.18520  115.27270  109.63550    8.95120   -0.00090    0.35440    3.48030    0.27230    2.39340    0.00710    0.89560 3529.00000
 5862.00000    0.94650    0.94260    0.95310    0.92700    0.95320    0.93830    0.95290    0.93050    0.18430  111.27270  107.37400    8.97460    0.00030    0.37760    3.54700    0.27650    2.39480    0.00550    0.91130 3568.00000
 5862.50000    0.97910    0.97590    0.98750    0.95920    1.00290    0.99970    1.01790    0.98910    0.17880  108.00000  104.25130    8.69360    0.00270    0.33260    3.61970    0.26610    2.40420    0.00000    0.93900 3539.00000
 5863.00000    1.00820    1.00550    1.01790    0.98790    1.04430    1.04150    1.06410    1.03580    0.16860  106.36360  103.08950    8.72490    0.01240    0.28620    3.70150    0.25540    2.42170    0.00000    0.97310 3551.00000
 5863.50000    1.02750    1.02580    1.03750    1.00850    1.03830    1.04860    1.07380    1.03420    0.16100  108.00000  106.73100    8.70140    0.01820    0.31070    3.73920    0.25360    2.43470    0.00000    1.00580 3561.00000
 5864.00000    1.03320    1.03180    1.04200    1.01660    1.05390    1.06520    1.08440    1.05980    0.16030  113.63640  107.37060    8.67020    0.01850    0.33680    3.74740    0.25490    2.43590    0.01450    1.02900 3506.00000
 5864.50000    1.02810    1.02610    1.03460    1.01280    1.06530    1.07850    1.09940    1.07700    0.16800  113.27270  105.31410    8.68780    0.00980    0.37060    3.72650    0.27110    2.42280    0.03340    1.03740 3525.00000
 5865.00000    1.02130    1.01720    1.02110    1.00400    1.00900    1.00530    1.00730    1.01070    0.17040  113.27270  102.06830    8.67020    0.00670    0.37060    3.73020    0.27080    2.41860    0.08370    1.03140 3514.00000
 5865.50000    1.01350    1.00730    1.01200    0.99810    0.95260    0.94620    0.96500    0.94550    0.16870  112.90910  101.89350    8.67610    0.00840    0.36910    3.77220    0.26760    2.42150    0.07230    1.01790 3479.00000
 5866.00000    1.01980    1.01290    1.01470    1.00310    0.99490    0.98600    0.98760    0.97120    0.16040  110.36360  108.38740    8.67610    0.01300    0.31710    3.81010    0.25210    2.43570    0.06170    1.00500 3544.00000
 5866.50000    1.03060    1.02100    1.02220    1.01290    1.05140    1.03380    1.02640    1.00510    0.15690  107.27270  109.69630    8.63900    0.01210    0.32260    3.76210    0.25130    2.44160    0.01100    0.99980 3534.00000
 5867.00000    1.03990    1.03400    1.03670    1.02320    1.04580    1.03310    1.03780    1.01760    0.15650  104.72730  114.73240    8.66440    0.00800    0.32520    3.62870    0.25240    2.44250    0.00740    1.00540 3451.00000
 5867.50000    1.04970    1.04740    1.04940    1.03070    1.06750    1.05420    1.05240    1.01640    0.16330  103.09090  108.83490    8.67610    0.00040    0.33020    3.47770    0.25890    2.43080    0.00220    1.01890 3495.00000
 5868.00000    1.04300    1.04150    1.04520    1.02620    1.15750    1.16800    1.17520    1.14360    0.16330  102.00000  109.12150    8.69360   -0.00070    0.32130    3.37490    0.25770    2.43070    0.00000    1.03120 3501.00000
 5868.50000    0.99890    0.99720    1.00390    0.99550    1.08890    1.12720    1.15690    1.12890    0.16390  104.72730  107.95930    8.75220   -0.00010    0.31030    3.35800    0.25440    2.42980    0.00000    1.02970 3450.00000
