~Version ---------------------------------------------------
VERS     .                                                                         2.0 : CWLS log ASCII Standard -VERSION 2.0
WRAP     .                                                                          NO : One Line per depth step
PROD     .                                                                Schlumberger : LAS Producer
PROG     .                                                      DLIS to ASCII 16C0-147 : LAS Program name and version
CREA     . 2008/03/25 04:07                          :LAS Creation date {YYYY/MM/DD hh : mm}
DLIS_CREA.     2008-Mar-25	03:02			       :DLIS Creation date and time {YYYY-MMM-DD hh : mm}
SOURCE   .                                             AIT_TLD_MCFL_CNL_IS_017PUP.DLIS : DLIS File Name
FILE-ID  .                                                  AIT_TLD_MCFL_CNL_IS_017PUP : File Identification Number
~Well ------------------------------------------------------
STRT.F      2124.0 : START DEPTH
STOP.F     10116.0 : STOP DEPTH
STEP.F         0.5 : STEP
NULL.      -999.25 : NULL VALUE
COMP.              : COMPANY
WELL.              : WELL
FLD .      WILDCAT : FIELD
LOC .              : LOCATION
CNTY.              : COUNTY
STAT.              : STATE
CTRY.              : COUNTRY
API .              : API NUMBER
UWI .              : UNIQUE WELL ID
DATE.              : LOG DATE {DD-MMM-YYYY}
SRVC. Schlumberger : SERVICE COMPANY
LATI.DEG         0 : LATITUDE
LONG.DEG         0 : LONGITUDE
GDAT.              : GeoDetic Datum
SECT.              : Section
RANG.              : Range
TOWN.              : Township
~Curve Information -----------------------------------------
DEPT     .F     : DEPTH (BOREHOLE) {F10.1}
AF20     .OHMM  : Array Induction Four Foot Resistivity A20 {F13.4}
AF30     .OHMM  : Array Induction Four Foot Resistivity A30 {F13.4}
AF60     .OHMM  : Array Induction Four Foot Resistivity A60 {F13.4}
AF90     .OHMM  : Array Induction Four Foot Resistivity A90 {F13.4}
AT20     .OHMM  : Array Induction Two Foot Resistivity A20 {F13.4}
AT30     .OHMM  : Array Induction Two Foot Resistivity A30 {F13.4}
AT60     .OHMM  : Array Induction Two Foot Resistivity A60 {F13.4}
AT90     .OHMM  : Array Induction Two Foot Resistivity A90 {F13.4}
DPHZ     .CFCF  : HRDD Standard Resolution Density Porosity {F13.4}
DTCO3    .US/F  : Compressional Slowness from Measurement 3 {F13.4}
GR       .GAPI  : Gamma-Ray {F13.4}
HCAL     .IN    : HRCC Cal. Caliper {F13.4}
HDRA     .G/C3  : HRDD Density Correction {F13.4}
NPOR     .CFCF  : Enhanced Thermal Neutron Porosity {F13.4}
PEFZ     .      : HRDD Standard Resolution Formation Photoelectric Factor {F13.4}
PXND_HILT.CFCF  : HILT Porosity CrossPlot {F13.4}
RHOZ     .G/C3  : HRDD Standard Resolution Formation Density {F13.4}
RSOZ     .IN    : MCFL Standard Resolution Resistivity Standoff {F13.4}
RT       .OHMM  : True Resistivity {F13.4}
TENS     .LBF   : Cable Tension {F13.4}
~Params ----------------------------------------------------
RUN .           ONE : RUN NUMBER
PDAT.  GROUND LEVEL : Permanent Datum
EPD .               : Elevation of Permanent Datum above Mean Sea Level
LMF . KELLY BUSHING : Logging Measured From (Name of Logging Elevation Reference)
APD .               : Elevation of Depth Reference (LMF) above Permanent Datum
~Other -----------------------------------------------------
~ASCII -----------------------------------------------------
# ...
 10104.00000    2.81910    2.72500    2.75540    2.92090    2.77430    2.70490    2.75340    2.86660    0.02640   62.72730  107.09490    8.54380   -0.00800    0.16480    4.17340    0.13570    2.66480    0.00260    2.24490 4711.00000
 10104.50000    2.77460    2.72770    2.68100    2.86370    2.84340    2.63170    2.63560    2.74180    0.02610   62.72730  107.09490    8.54140   -0.00790    0.17740    4.15910    0.13580    2.66540    0.00460    2.19370 4928.00000
 10105.00000    2.75320    2.75540    2.66560    2.83450    2.56570    2.50000    2.57820    2.71410    0.01990   62.72730  107.09490    8.54530   -0.00590    0.17120    4.10460    0.13150    2.67600    0.00490    2.18520 4843.00000
 10105.50000    2.76620    2.77380    2.64590    2.80060    2.69300    2.76320    2.58730    2.80590    0.01440   62.72730  107.09490    8.54380   -0.00380    0.16480    4.06220    0.12940    2.68540    0.00490    2.22750 4755.00000
 10106.00000    2.75270    2.80490    2.64460    2.75460    3.02190    3.08760    2.77470    3.07810    0.01440   62.72730  107.09490    8.54380   -0.00360    0.17180    4.06740    0.13120    2.68530    0.00470    2.29590 4838.00000
 10106.50000    2.69570    2.78320    2.60470    2.66150    2.88940    2.99240    2.69810    2.87200    0.01870   62.72730  107.09490    8.54380   -0.00510    0.17030    4.10460    0.13360    2.67800    0.00520    2.33440 4752.00000
 10107.00000    2.62420    2.73680    2.55880    2.54960    2.58210    2.72210    2.48680    2.56120    0.02170   62.72730  107.09490    8.54380   -0.00640    0.17170    4.13370    0.13490    2.67280    0.00540    2.28950 4797.00000
 10107.50000    2.57110    2.67370    2.50430    2.43230    2.35370    2.47500    2.35630    2.32410    0.02210   62.72730  107.09490    8.53910   -0.00660    0.17390    4.13650    0.13560    2.67220    0.00530    2.15210 4838.00000
 10108.00000    2.51250    2.60000    2.44110    2.32070    2.48010    2.54900    2.39780    2.30970    0.02320   62.72730  107.09490    8.54790   -0.00710    0.17390    4.14180    0.13590    2.67030    0.00560    1.96680 4815.00000
 10108.50000    2.47270    2.53680    2.38500    2.23010    2.44580    2.51560    2.42070    2.26390    0.02290   62.72730  107.09490    8.54270   -0.00740    0.17390    4.12820    0.13580    2.67090    0.00500    1.79350 4876.00000
 10109.00000    2.42850    2.48050    2.32670    2.15610    2.41170    2.47080    2.34250    2.16120    0.02180   62.72730  107.09490    8.53230   -0.00730    0.17390    4.11100    0.13550    2.67270    0.00460    1.67340 4783.00000
 10109.50000    2.39960    2.43400    2.27820    2.09880    2.38050    2.46020    2.29710    2.10970    0.02250   62.72730  107.09490    8.53750   -0.00720    0.17390    4.11030    0.13570    2.67150    0.00490    1.62220 4821.00000
 10110.00000    2.38660    2.41410    2.22540    2.06440    2.36780    2.39520    2.23290    2.03500    0.02450   62.72730  107.09490    8.53270   -0.00730    0.17390    4.12600    0.13630    2.66810    0.00680    1.64190 4820.00000
 10110.50000    2.37900    2.40600    2.19940    2.06040    2.35740    2.39330    2.19500    2.02070    0.02440   62.72730  107.09490    8.52710   -0.00700    0.17390    4.13130    0.13630    2.66840    0.00790    1.72270 4940.00000
 10111.00000    2.39210    2.41840    2.19070    2.06710    2.40170    2.39770    2.17640    2.02330    0.02420   62.72730  107.09490    8.53270   -0.00680    0.17390    4.14310    0.13620    2.66860    0.00910    1.84160 4893.00000
 10111.50000    2.40290    2.42610    2.18540    2.07700    2.40780    2.42810    2.17900    2.04900    0.02290   62.72730  107.09490    8.53230   -0.00640    0.17390    4.14330    0.13580    2.67080    0.00730    1.96540 4845.00000
 10112.00000    2.41250    2.43610    2.18600    2.08940    2.43150    2.44720    2.18450    2.07560    0.02370   62.72730  107.09490    8.52970   -0.00670    0.17390    4.15220    0.13610    2.66950    0.00760    2.06300 4958.00000
 10112.50000    2.42360    2.44640    2.19090    2.10080    2.44390    2.45960    2.19240    2.09600    0.02280   62.72730  107.09490    8.53270   -0.00660    0.17390    4.14230    0.13580    2.67100    0.00640    2.12150 4901.00000
 10113.00000    2.42760    2.45090    2.20110    2.10780    2.44240    2.45490    2.20580    2.10170    0.02610   62.72730  107.09490    8.52710   -0.00700    0.17390    4.16270    0.13680    2.66540    0.00590    2.14710 4935.00000
 10113.50000    2.42560    2.44900    2.20460    2.10940    2.43840    2.45150    2.20940    2.10460    0.02860   62.72730  107.09490    8.52680   -0.00650    0.17390    4.17470    0.13750    2.66110    0.00530    2.15330 4971.00000
 10114.00000    2.42680    2.45010    2.20880    2.11200    2.43740    2.45250    2.21270    2.10520    0.02420   62.72730  107.09490    8.52390    0.00910    0.17390    4.12430    0.13620    2.66870    0.00350    2.15200 4898.00000
 10114.50000    2.42710    2.44980    2.21140    2.11130    2.43810    2.45120    2.21390    2.10610    0.01510   62.72730  107.09490    8.53560    0.03080    0.17390    4.03940    0.13350    2.68410    0.00270    2.14900 4946.00000
 10115.00000    2.42680    2.44980    2.21140    2.11190    2.43750    2.45090    2.21270    2.10560    0.01250   62.72730  107.09490    8.52090    0.03820    0.17390    4.01220    0.13270    2.68860    0.00440    2.14780 4976.00000
 10115.50000    2.42640    2.45030    2.20980    2.11260    2.43770    2.45100    2.21090    2.10720    0.00650   62.72730  107.09490    8.52090    0.05070    0.17390    4.00620    0.13090    2.69890    0.00490    2.14790 4932.00000
 10116.00000    2.42610    2.45000    2.20870    2.11300    2.43510    2.45030    2.20890    2.10870    0.00670   62.72730  107.09490    8.52580    0.05720    0.17390    4.01650    0.13090    2.69860    0.00710    2.14870 4894.00000
