~Version ---------------------------------------------------
VERS     .                                                                         2.0 : CWLS log ASCII Standard -VERSION 2.0
WRAP     .                                                                          NO : One Line per depth step
PROD     .                                                                Schlumberger : LAS Producer
PROG     .                                                      DLIS to ASCII 16C0-147 : LAS Program name and version
CREA     . 2008/03/25 04:07                          :LAS Creation date {YYYY/MM/DD hh : mm}
DLIS_CREA.     2008-Mar-25	03:02			       :DLIS Creation date and time {YYYY-MMM-DD hh : mm}
SOURCE   .                                             AIT_TLD_MCFL_CNL_IS_017PUP.DLIS : DLIS File Name
FILE-ID  .                                                  AIT_TLD_MCFL_CNL_IS_017PUP : File Identification Number
~Well ------------------------------------------------------
STRT.F      2124.0 : START DEPTH
STOP.F     10116.0 : STOP DEPTH
STEP.F         0.5 : STEP
NULL.      -999.25 : NULL VALUE
COMP.              : COMPANY
WELL.              : WELL
FLD .      WILDCAT : FIELD
LOC .              : LOCATION
CNTY.              : COUNTY
STAT.              : STATE
CTRY.              : COUNTRY
API .              : API NUMBER
UWI .              : UNIQUE WELL ID
DATE.              : LOG DATE {DD-MMM-YYYY}
SRVC. Schlumberger : SERVICE COMPANY
LATI.DEG         0 : LATITUDE
LONG.DEG         0 : LONGITUDE
GDAT.              : GeoDetic Datum
SECT.              : Section
RANG.              : Range
TOWN.              : Township
~Curve Information -----------------------------------------
DEPT     .F     : DEPTH (BOREHOLE) {F10.1}
AF20     .OHMM  : Array Induction Four Foot Resistivity A20 {F13.4}
AF30     .OHMM  : Array Induction Four Foot Resistivity A30 {F13.4}
AF60     .OHMM  : Array Induction Four Foot Resistivity A60 {F13.4}
AF90     .OHMM  : Array Induction Four Foot Resistivity A90 {F13.4}
AT20     .OHMM  : Array Induction Two Foot Resistivity A20 {F13.4}
AT30     .OHMM  : Array Induction Two Foot Resistivity A30 {F13.4}
AT60     .OHMM  : Array Induction Two Foot Resistivity A60 {F13.4}
AT90     .OHMM  : Array Induction Two Foot Resistivity A90 {F13.4}
DPHZ     .CFCF  : HRDD Standard Resolution Density Porosity {F13.4}
DTCO3    .US/F  : Compressional Slowness from Measurement 3 {F13.4}
GR       .GAPI  : Gamma-Ray {F13.4}
HCAL     .IN    : HRCC Cal. Caliper {F13.4}
HDRA     .G/C3  : HRDD Density Correction {F13.4}
NPOR     .CFCF  : Enhanced Thermal Neutron Porosity {F13.4}
PEFZ     .      : HRDD Standard Resolution Formation Photoelectric Factor {F13.4}
PXND_HILT.CFCF  : HILT Porosity CrossPlot {F13.4}
RHOZ     .G/C3  : HRDD Standard Resolution Formation Density {F13.4}
RSOZ     .IN    : MCFL Standard Resolution Resistivity Standoff {F13.4}
RT       .OHMM  : True Resistivity {F13.4}
TENS     .LBF   : Cable Tension {F13.4}
~Params ----------------------------------------------------
RUN .           ONE : RUN NUMBER
PDAT.  GROUND LEVEL : Permanent Datum
EPD .               : Elevation of Permanent Datum above Mean Sea Level
LMF . KELLY BUSHING : Logging Measured From (Name of Logging Elevation Reference)
APD .               : Elevation of Depth Reference (LMF) above Permanent Datum
~Other -----------------------------------------------------
~ASCII -----------------------------------------------------
 2124.00000    2.17590    2.26520    2.49060    2.57700    2.16930    2.26690    2.49230    2.63960    0.26610  132.36360   91.58040    9.70050    0.00440    0.46880    4.19760    0.35000    2.25500    0.04340    2.65600 2581.00000
 2124.50000    2.17390    2.25870    2.48130    2.57340    2.16950    2.25970    2.47300    2.62140    0.26700  132.72730   91.89030    9.72390    0.01210    0.42980    4.38840    0.34220    2.25340    0.01900    2.65180 2549.00000
 2125.00000    2.17250    2.25430    2.46270    2.56390    2.16600    2.24500    2.44780    2.59680    0.26570  133.09090   94.82230    9.67710    0.01590    0.40590    4.40660    0.33110    2.25560    0.03740    2.63970 2526.00000
 2125.50000    2.17640    2.25510    2.45660    2.55430    2.14520    2.22680    2.41980    2.55400    0.26460  133.63640   92.96280    9.65370    0.01430    0.38840    4.33290    0.32440    2.25750    0.02380    2.62020 2567.00000
 2126.00000    2.18580    2.26190    2.45730    2.54850    2.17190    2.24420    2.42150    2.54860    0.26510  135.63640  100.86570    9.65370    0.00640    0.43520    4.15020    0.33820    2.25660    0.00000    2.59660 2608.00000
 2126.50000    2.19950    2.27390    2.46440    2.55250    2.19890    2.27950    2.45880    2.58020    0.26300  136.00000   99.17330    9.63030    0.00150    0.46150    4.00520    0.34110    2.26020    0.00000    2.57380 2535.00000
 2127.00000    2.21170    2.28580    2.47210    2.55500    2.21360    2.28970    2.46850    2.56140    0.26100  135.09090  100.10310    9.64200    0.00110    0.37040    3.94710    0.32490    2.26370    0.00330    2.55630 2560.00000
 2127.50000    2.22580    2.30090    2.48320    2.55690    2.22480    2.30420    2.48350    2.57220    0.25930  133.09090   94.33040    9.60680    0.00100    0.37480    3.92270    0.32180    2.26660    0.07190    2.54690 2588.00000
 2128.00000    2.23680    2.31260    2.49760    2.56010    2.24030    2.31250    2.49400    2.57480    0.25990  132.72730   91.38610    9.52490   -0.00010    0.37560    3.90050    0.31670    2.26560    0.11810    2.54650 2560.00000
 2128.50000    2.24130    2.31640    2.50180    2.56600    2.24410    2.32640    2.51180    2.57020    0.25970  134.00000   97.11960    9.52490   -0.00070    0.41200    3.85590    0.32810    2.26590    0.10580    2.55290 2538.00000
 2129.00000    2.23940    2.31340    2.49720    2.56780    2.24370    2.32480    2.50830    2.58440    0.25920  135.27270  100.56800    9.54830    0.00040    0.38060    3.86170    0.32360    2.26670    0.02720    2.56090 2550.00000
 2129.50000    2.24020    2.31300    2.49500    2.56740    2.23410    2.30990    2.49630    2.58190    0.25660  135.27270  102.11750    9.60680    0.00290    0.38840    3.95150    0.32660    2.27130    0.03160    2.56520 2584.00000
 2130.00000    2.24010    2.30880    2.49020    2.56590    2.21210    2.28940    2.46420    2.56310    0.25130  135.27270   99.10130    8.91610    0.00490    0.42880    4.05020    0.32460    2.28030    0.03990    2.56480 2574.00000
 2130.50000    2.24170    2.30710    2.48420    2.56880    2.22240    2.29020    2.44350    2.56230    0.25120  134.90910   96.46700    8.92780    0.00350    0.37110    4.11630    0.31310    2.28050    0.03260    2.56290 2541.00000
 2131.00000    2.25120    2.31440    2.48630    2.57710    2.23130    2.29680    2.46690    2.58890    0.25510  136.00000   94.14260    8.97460   -0.00040    0.38000    4.10270    0.31960    2.27380    0.04140    2.56440 2550.00000
 2131.50000    2.26730    2.32410    2.49320    2.58600    2.25680    2.32600    2.48900    2.60580    0.25540  136.00000   89.87580    8.97460   -0.00280    0.40850    4.05720    0.32370    2.27320    0.04850    2.57090 2618.00000
 2132.00000    2.27540    2.33480    2.50090    2.59510    2.28460    2.33450    2.48940    2.61520    0.23710  136.00000   87.24150    8.90440    0.00510    0.42720    4.04940    0.32160    2.30450    0.02230    2.58000 2584.00000
 2132.50000    2.28600    2.34320    2.50690    2.59810    2.32280    2.38510    2.52500    2.65560    0.20930  134.00000   93.22130    8.86930    0.02160    0.40910    4.06880    0.30030    2.35220    0.01210    2.58630 2525.00000
 2133.00000    2.29310    2.34840    2.50750    2.59650    2.30380    2.35240    2.50230    2.59810    0.20400  134.00000   97.87000    8.85750    0.02340    0.38230    4.01620    0.30520    2.36110    0.00750    2.58740 2610.00000
 2133.50000    2.29710    2.35360    2.51270    2.59330    2.25470    2.30800    2.45390    2.52570    0.22140  132.36360  102.20890    8.88100    0.01420    0.44990    3.89010    0.32100    2.33150    0.00000    2.58570 2606.00000
 2134.00000    2.30920    2.36790    2.52420    2.60120    2.24030    2.29170    2.43840    2.50540    0.25000  131.63640   99.17330    8.85750   -0.00340    0.47560    3.80510    0.34140    2.28250    0.00000    2.58780 2521.00000
 2134.50000    2.32220    2.38590    2.54110    2.60700    2.30510    2.36470    2.51060    2.57160    0.24260  127.27270   96.22910    8.88100    0.00380    0.37310    3.85800    0.30640    2.29520    0.00660    2.59910 2583.00000
 2135.00000    2.33290    2.40180    2.56510    2.62630    2.44130    2.53790    2.72140    2.78100    0.22010  125.09090   93.74980    8.88100    0.02480    0.33520    4.00200    0.29050    2.33370    0.03390    2.61940 2612.00000
 2135.50000    2.32680    2.39760    2.56420    2.62160    2.44490    2.52400    2.70070    2.75650    0.21060  124.90910   91.11550    8.83410    0.03120    0.31030    4.04330    0.27230    2.34980    0.04120    2.64290 2532.00000
 2136.00000    2.29600    2.36850    2.53490    2.59570    2.26170    2.32940    2.48290    2.52830    0.22330  128.00000   90.49560    8.88100    0.02350    0.37020    3.97490    0.29740    2.32820    0.03910    2.66310 2569.00000
 2136.50000    2.27520    2.34760    2.51470    2.57150    2.18230    2.25840    2.40450    2.46130    0.24470  134.00000   92.30370    8.90440    0.00500    0.39410    3.85960    0.31410    2.29150    0.02320    2.67780 2603.00000
 2137.00000    2.25970    2.33260    2.50230    2.56070    2.21640    2.29960    2.45880    2.52320    0.25440  134.00000   95.86770    8.91610    0.00090    0.45950    3.88420    0.33380    2.27500    0.01930    2.69060 2532.00000
 2137.50000    2.25930    2.33310    2.50680    2.56850    2.24890    2.33260    2.50050    2.57840    0.25510  132.00000   97.72730    8.85750    0.00090    0.38450    3.97340    0.33190    2.27380    0.02320    2.70570 2526.00000
 2138.00000    2.26990    2.34490    2.52250    2.58920    2.25460    2.34400    2.51640    2.60480    0.25500  134.36360   98.70840    8.88100    0.00000    0.41290    4.04060    0.32670    2.27390    0.04990    2.72500 2561.00000
 2138.50000    2.28990    2.36420    2.54360    2.61290    2.26290    2.34620    2.51850    2.61210    0.25030  134.00000   97.31380    8.88100   -0.00030    0.48800    4.03510    0.33820    2.28200    0.03810    2.74690 2627.00000
 2139.00000    2.30590    2.38150    2.56530    2.63780    2.30320    2.38470    2.56230    2.66190    0.23790  134.00000   99.79320    8.85750    0.00190    0.49240    3.96900    0.33680    2.30310    0.04040    2.76810 2664.00000
 2139.50000    2.32050    2.39590    2.58080    2.65480    2.36650    2.45250    2.64450    2.75190    0.22780  132.00000   97.22920    8.85750    0.00380    0.44270    3.89850    0.32930    2.32040    0.01460    2.78430 2593.00000
 2140.00000    2.32790    2.40130    2.58500    2.65840    2.36020    2.44480    2.62400    2.73930    0.22700  132.00000   97.31520    8.89270    0.00320    0.36240    3.82110    0.31180    2.32180    0.03900    2.79250 2519.00000
 2140.50000    2.32390    2.39580    2.57970    2.65150    2.30130    2.37360    2.54830    2.63830    0.23980  132.90910   94.59630    8.95120   -0.00160    0.40140    3.73870    0.31460    2.29990    0.03330    2.79110 2549.00000
 2141.00000    2.32390    2.39390    2.57720    2.64750    2.29960    2.36970    2.53170    2.63230    0.24990  132.90910   96.69540    8.96290   -0.00530    0.38160    3.65850    0.31340    2.28270    0.04610    2.78370 2572.00000
