~Version ---------------------------------------------------
VERS     .                                                                         2.0 : CWLS log ASCII Standard -VERSION 2.0
WRAP     .                                                                          NO : One Line per depth step
PROD     .                                                                Schlumberger : LAS Producer
PROG     .                                                      DLIS to ASCII 16C0-147 : LAS Program name and version
CREA     . 2008/03/25 04:07                          :LAS Creation date {YYYY/MM/DD hh : mm}
DLIS_CREA.     2008-Mar-25	03:02			       :DLIS Creation date and time {YYYY-MMM-DD hh : mm}
SOURCE   .                                             AIT_TLD_MCFL_CNL_IS_017PUP.DLIS : DLIS File Name
FILE-ID  .                                                  AIT_TLD_MCFL_CNL_IS_017PUP : File Identification Number
~Well ------------------------------------------------------
STRT.F      2124.0 : START DEPTH
STOP.F     10116.0 : STOP DEPTH
STEP.F         0.5 : STEP
NULL.      -999.25 : NULL VALUE
COMP.              : COMPANY
WELL.              : WELL
FLD .      WILDCAT : FIELD
LOC .              : LOCATION
CNTY.              : COUNTY
STAT.              : STATE
CTRY.              : COUNTRY
API .              : API NUMBER
UWI .              : UNIQUE WELL ID
DATE.              : LOG DATE {DD-MMM-YYYY}
SRVC. Schlumberger : SERVICE COMPANY
LATI.DEG         0 : LATITUDE
LONG.DEG         0 : LONGITUDE
GDAT.              : GeoDetic Datum
SECT.              : Section
RANG.              : Range
TOWN.              : Township
~Curve Information -----------------------------------------
DEPT     .F     : DEPTH (BOREHOLE) {F10.1}
AF20     .OHMM  : Array Induction Four Foot Resistivity A20 {F13.4}
AF30     .OHMM  : Array Induction Four Foot Resistivity A30 {F13.4}
AF60     .OHMM  : Array Induction Four Foot Resistivity A60 {F13.4}
AF90     .OHMM  : Array Induction Four Foot Resistivity A90 {F13.4}
AT20     .OHMM  : Array Induction Two Foot Resistivity A20 {F13.4}
AT30     .OHMM  : Array Induction Two Foot Resistivity A30 {F13.4}
AT60     .OHMM  : Array Induction Two Foot Resistivity A60 {F13.4}
AT90     .OHMM  : Array Induction Two Foot Resistivity A90 {F13.4}
DPHZ     .CFCF  : HRDD Standard Resolution Density Porosity {F13.4}
DTCO3    .US/F  : Compressional Slowness from Measurement 3 {F13.4}
GR       .GAPI  : Gamma-Ray {F13.4}
HCAL     .IN    : HRCC Cal. Caliper {F13.4}
HDRA     .G/C3  : HRDD Density Correction {F13.4}
NPOR     .CFCF  : Enhanced Thermal Neutron Porosity {F13.4}
PEFZ     .      : HRDD Standard Resolution Formation Photoelectric Factor {F13.4}
PXND_HILT.CFCF  : HILT Porosity CrossPlot {F13.4}
RHOZ     .G/C3  : HRDD Standard Resolution Formation Density {F13.4}
RSOZ     .IN    : MCFL Standard Resolution Resistivity Standoff {F13.4}
RT       .OHMM  : True Resistivity {F13.4}
TENS     .LBF   : Cable Tension {F13.4}
~Params ----------------------------------------------------
RUN .           ONE : RUN NUMBER
PDAT.  GROUND LEVEL : Permanent Datum
EPD .               : Elevation of Permanent Datum above Mean Sea Level
LMF . KELLY BUSHING : Logging Measured From (Name of Logging Elevation Reference)
APD .               : Elevation of Depth Reference (LMF) above Permanent Datum
~Other -----------------------------------------------------
~ASCII -----------------------------------------------------
# ...
 6376.50000   11.22560   10.34930    9.51990    9.25930   11.63320   10.92580   10.05840   10.77980   -0.08630   60.72730   18.78620    8.59410    0.07330    0.08810    5.69480    0.04670    2.85770    0.04090    7.89610 3694.00000
 6377.00000   11.22840   10.32690    9.75910    9.55910   10.56370    9.31650    9.90100    9.99860   -0.09980   62.00000   22.88890    8.62920    0.07520    0.09590    5.62160    0.04680    2.88070    0.03890    8.71180 3700.00000
 6377.50000   11.30430   10.46390   10.08240    9.84380   11.36820   10.49440   10.09870   10.83050   -0.10770   60.36360   22.63220    8.63120    0.06610    0.07310    5.53830    0.04240    2.89410    0.01610    8.58650 3764.00000
 6378.00000   11.32610   10.37030   10.39920    9.88170   12.36150   11.59610   11.15890   11.13230   -0.10990   59.09090   20.35590    8.68190    0.06570    0.05520    5.46630    0.04130    2.89790    0.01550    9.70290 3704.00000
 6378.50000   11.57360   10.67930   10.37920   10.25450   11.19930   10.29490    9.80610   10.33860   -0.10820   61.09090   19.36410    8.69360    0.07100    0.06920    5.41510    0.04780    2.89510    0.01560    8.58120 3673.00000
 6379.00000   12.25890   11.33670   10.96430   10.82160    9.82000    9.10110    8.71150    9.69570   -0.09760   64.00000   23.95840    8.65850    0.06430    0.11800    5.36880    0.06120    2.87680    0.01610    9.27360 3766.00000
 6379.50000   13.69100   12.68460   12.11480   12.12400   11.17260    9.78500   11.64380   13.51740   -0.09690   62.72730   24.75470    8.65270    0.04710    0.12380    5.39570    0.06050    2.87570    0.00950    8.15560 3742.00000
 6380.00000   16.38440   15.10280   13.96120   14.53040   15.97400   14.14840   12.32780   14.93640   -0.10920   58.90910   21.94690    8.74050    0.03290    0.07040    5.50570    0.03890    2.89670    0.00810    7.97780 3697.00000
 6380.50000   20.56990   18.72950   17.43060   17.50930   24.14550   24.26530   14.86220   19.50030   -0.13740   54.36360   15.94470    8.71710    0.03440    0.02770    5.68420    0.01470    2.94490    0.00680   10.27350 3828.00000
 6381.00000   23.86510   21.54950   19.55510   18.74060   57.15950   28.67890   22.11740   25.53350   -0.14950   52.72730   14.01740    8.72490    0.03420    0.00960    5.82070    0.00190    2.96570    0.01610   13.15360 3766.00000
 6381.50000   22.00790   20.30590   18.15640   17.20070   49.36930   28.65680   21.08400   21.45820   -0.13510   54.00000   12.46780    8.72490    0.02080    0.02090    5.83420    0.00210    2.94100    0.01340   15.21770 3668.00000
 6382.00000   16.50070   16.09830   14.61330   13.54850   18.69450   17.60890   14.79770   13.64680   -0.12140   54.72730   12.61600    8.74630    0.01630    0.01940    5.82050    0.00470    2.91760    0.01240   11.90450 3799.00000
 6382.50000   11.17940   11.09900   10.53420    9.52780   11.78940   10.77020   10.03140    8.16680   -0.09740   56.72730   13.36130    8.68780    0.01910    0.01070    5.57530    0.01420    2.87650    0.01410    6.80630 3743.00000
 6383.00000    7.71050    7.76550    7.37460    6.78430    9.14810    9.02340    8.57930    6.54500   -0.06690   59.09090   19.71680    8.56480    0.03500    0.03650    5.19030    0.03490    2.82450    0.01020    4.95300 3668.00000
 6383.50000    5.55200    5.56340    5.30450    4.85940    6.83830    7.16910    6.43070    6.31610   -0.01940   61.09090   30.76320    8.57660    0.04100    0.12280    4.71270    0.07610    2.74320    0.05480    3.94600 3728.00000
 6384.00000    3.98360    3.94390    3.78660    3.61810    4.86470    5.07450    4.72600    4.42690    0.03170   66.72730   40.84030    8.60000    0.03200    0.18580    4.39680    0.11830    2.65590    0.06260    3.29430 3709.00000
 6384.50000    2.99230    2.98030    2.87310    2.74990    3.00240    3.04320    2.92550    2.76420    0.07430   74.00000   46.10150    8.61560    0.01450    0.19080    4.16950    0.15800    2.58300    0.07520    2.82620 3693.00000
 6385.00000    2.41760    2.37010    2.28640    2.20500    2.31100    2.35800    2.23450    2.12770    0.10810   82.36360   52.22230    8.59410   -0.00100    0.23360    3.94530    0.19420    2.52510    0.02760    2.40270 3765.00000
 6385.50000    2.03140    1.98430    1.92440    1.88530    1.76180    1.77110    1.72290    1.67290    0.11920   88.36360   58.44890    8.61560   -0.00500    0.28960    3.71140    0.21770    2.50610    0.01420    2.10820 3732.00000
 6386.00000    1.84500    1.80130    1.76750    1.73570    1.55190    1.49500    1.47000    1.44320    0.12230   89.27270   64.34250    8.67020   -0.00620    0.31000    3.57830    0.22550    2.50080    0.02370    1.89460 3710.00000
 6386.50000    1.82680    1.77810    1.74570    1.71230    1.60650    1.55040    1.53730    1.47140    0.12480   88.90910   66.67190    8.74050   -0.00560    0.30150    3.55800    0.22500    2.49650    0.02500    1.75630 3759.00000
 6387.00000    1.91300    1.85190    1.82190    1.79310    1.88800    1.76270    1.73980    1.65860    0.13150   83.63640   68.88400    8.69360   -0.00470    0.29710    3.59340    0.22850    2.48520    0.03320    1.69370 3745.00000
 6387.50000    2.07780    1.99780    1.97250    1.93950    2.15480    2.03680    2.00690    1.88190    0.13320   76.90910   68.80650    8.74630   -0.00140    0.31750    3.63900    0.23400    2.48210    0.00410    1.70670 3709.00000
 6388.00000    2.32390    2.22450    2.20710    2.15520    2.36830    2.21400    2.19070    2.02950    0.11800   73.63640   66.57570    8.84580    0.01510    0.26250    3.83790    0.21640    2.50820    0.00000    1.79790 3773.00000
 6388.50000    2.69900    2.57090    2.55360    2.48170    2.41050    2.30570    2.29400    2.17170    0.07120   72.00000   57.61810    8.75220    0.04780    0.25680    4.28490    0.19170    2.58830    0.00000    1.97750 3756.00000
 6389.00000    3.29430    3.15680    3.16350    3.03960    2.98080    2.84320    2.90930    2.82560    0.01890   69.09090   46.15120    8.65850    0.05530    0.27760    4.84400    0.15570    2.67780    0.01480    2.27170 3707.00000
 6389.50000    4.26630    4.12220    4.18390    3.88630    4.43510    4.26660    4.32460    4.10060   -0.04390   63.63640   31.17670    8.73460    0.04550    0.13530    5.27140    0.08370    2.78510    0.00520    2.86710 3770.00000
 6390.00000    5.79140    5.73370    5.95640    5.60870    8.19560    8.47110    8.38050    7.81010   -0.08600   57.09090   24.20880    8.79320    0.02780    0.03190    5.40060    0.03990    2.85700    0.00900    3.98180 3767.00000
 6390.50000    8.08380    8.20920    8.71050    8.16110   11.13890   13.52340   16.14870   15.48970   -0.09670   57.63640   25.93220    8.74050    0.02140    0.01500    5.25730    0.02230    2.87530    0.04230    6.09760 3724.00000
 6391.00000   10.65430   10.87930   11.48040   10.83490   12.31180   13.52690   15.51020   15.99440   -0.07250   57.63640   30.73590    8.72880    0.01530    0.05220    5.08880    0.03630    2.83400    0.03650   11.50950 3757.00000
 6391.50000   12.61790   13.08650   13.84650   13.03550   12.29320   15.01230   18.16010   17.90950   -0.03630   58.36360   33.95480    8.69950    0.00010    0.09210    5.10470    0.05470    2.77200    0.03400   15.07810 3731.00000
 6392.00000   13.88150   14.62900   15.24670   13.94820   14.15680   15.66010   15.83680   14.46120   -0.04010   60.00000   31.73470    8.65270    0.00760    0.06770    5.30010    0.06360    2.77860    0.00690   13.55900 3744.00000
 6392.50000   14.70750   15.98300   15.91760   13.89710   16.52460   16.65990   13.93070   13.35850   -0.05340   60.00000   29.25540    8.62340    0.01990    0.08670    5.42500    0.06730    2.80130    0.00440    9.70120 3806.00000
 6393.00000   13.38840   15.49290   13.82350   11.22870   13.33950   14.02950   13.02500   10.72970   -0.05940   60.36360   26.70090    8.68780    0.02100    0.11370    5.35130    0.06860    2.81150    0.00390    6.11000 3749.00000
 6393.50000   11.98990   14.58840   12.39140    9.14510   12.25800   13.11830   11.27250   10.21000   -0.05420   59.63640   21.31050    8.63510    0.00910    0.11120    5.32560    0.06630    2.80270    0.00350    4.36870 3678.00000
