~Version ---------------------------------------------------
VERS     .                                                                         2.0 : CWLS log ASCII Standard -VERSION 2.0
WRAP     .                                                                          NO : One Line per depth step
PROD     .                                                                Schlumberger : LAS Producer
PROG     .                                                      DLIS to ASCII 16C0-147 : LAS Program name and version
CREA     . 2008/03/25 04:07                          :LAS Creation date {YYYY/MM/DD hh : mm}
DLIS_CREA.     2008-Mar-25	03:02			       :DLIS Creation date and time {YYYY-MMM-DD hh : mm}
SOURCE   .                                             AIT_TLD_MCFL_CNL_IS_017PUP.DLIS : DLIS File Name
FILE-ID  .                                                  AIT_TLD_MCFL_CNL_IS_017PUP : File Identification Number
~Well ------------------------------------------------------
STRT.F      2124.0 : START DEPTH
STOP.F     10116.0 : STOP DEPTH
STEP.F         0.5 : STEP
NULL.      -999.25 : NULL VALUE
COMP.              : COMPANY
WELL.              : WELL
FLD .      WILDCAT : FIELD
LOC .              : LOCATION
CNTY.              : COUNTY
STAT.              : STATE
CTRY.              : COUNTRY
API .              : API NUMBER
UWI .              : UNIQUE WELL ID
DATE.              : LOG DATE {DD-MMM-YYYY}
SRVC. Schlumberger : SERVICE COMPANY
LATI.DEG         0 : LATITUDE
LONG.DEG         0 : LONGITUDE
GDAT.              : GeoDetic Datum
SECT.              : Section
RANG.              : Range
TOWN.              : Township
~Curve Information -----------------------------------------
DEPT     .F     : DEPTH (BOREHOLE) {F10.1}
AF20     .OHMM  : Array Induction Four Foot Resistivity A20 {F13.4}
AF30     .OHMM  : Array Induction Four Foot Resistivity A30 {F13.4}
AF60     .OHMM  : Array Induction Four Foot Resistivity A60 {F13.4}
AF90     .OHMM  : Array Induction Four Foot Resistivity A90 {F13.4}
AT20     .OHMM  : Array Induction Two Foot Resistivity A20 {F13.4}
AT30     .OHMM  : Array Induction Two Foot Resistivity A30 {F13.4}
AT60     .OHMM  : Array Induction Two Foot Resistivity A60 {F13.4}
AT90     .OHMM  : Array Induction Two Foot Resistivity A90 {F13.4}
DPHZ     .CFCF  : HRDD Standard Resolution Density Porosity {F13.4}
DTCO3    .US/F  : Compressional Slowness from Measurement 3 {F13.4}
GR       .GAPI  : Gamma-Ray {F13.4}
HCAL     .IN    : HRCC Cal. Caliper {F13.4}
HDRA     .G/C3  : HRDD Density Correction {F13.4}
NPOR     .CFCF  : Enhanced Thermal Neutron Porosity {F13.4}
PEFZ     .      : HRDD Standard Resolution Formation Photoelectric Factor {F13.4}
PXND_HILT.CFCF  : HILT Porosity CrossPlot {F13.4}
RHOZ     .G/C3  : HRDD Standard Resolution Formation Density {F13.4}
RSOZ     .IN    : MCFL Standard Resolution Resistivity Standoff {F13.4}
RT       .OHMM  : True Resistivity {F13.4}
TENS     .LBF   : Cable Tension {F13.4}
~Params ----------------------------------------------------
RUN .           ONE : RUN NUMBER
PDAT.  GROUND LEVEL : Permanent Datum
EPD .               : Elevation of Permanent Datum above Mean Sea Level
LMF . KELLY BUSHING : Logging Measured From (Name of Logging Elevation Reference)
APD .               : Elevation of Depth Reference (LMF) above Permanent Datum
~Other -----------------------------------------------------
~ASCII -----------------------------------------------------
# ...
 6919.00000    1.61170    1.48190    1.36990    1.37020    1.57460    1.44280    1.32860    1.37310    0.09690   68.36360   73.01500    8.59220    0.00270    0.16170    3.38200    0.13750    2.54430    0.00000    1.33890 3964.00000
 6919.50000    1.56160    1.43720    1.33290    1.33250    1.56460    1.37990    1.27270    1.31560    0.10380   70.36360   74.44180    8.64680   -0.00120    0.16970    3.30910    0.15070    2.53240    0.00000    1.28540 3980.00000
 6920.00000    1.54020    1.42090    1.32160    1.32000    1.49280    1.37120    1.26020    1.30100    0.10670   70.90910   77.55550    8.67020   -0.00350    0.16310    3.28230    0.15540    2.52750    0.00000    1.24600 3908.00000
 6920.50000    1.56070    1.44340    1.34450    1.34170    1.46170    1.34520    1.25050    1.27620    0.10910   72.00000   87.24990    8.67800   -0.00490    0.16810    3.28930    0.15760    2.52340    0.00000    1.23620 3946.00000
 6921.00000    1.64830    1.52610    1.41710    1.40910    1.44490    1.36550    1.27770    1.29240    0.10610   72.36360   88.05730    8.67800   -0.00460    0.18470    3.30660    0.15300    2.52860    0.00000    1.26660 3961.00000
 6921.50000    1.84290    1.69200    1.57940    1.57020    1.62060    1.49440    1.44320    1.36630    0.09470   72.36360   76.79090    8.69360   -0.00470    0.19090    3.31710    0.14210    2.54800    0.00000    1.34380 3912.00000
 6922.00000    2.08040    1.90530    1.74340    1.71600    2.17400    2.02700    1.86130    1.83570    0.07530   69.63640   58.57220    8.69360   -0.00060    0.12570    3.33330    0.11280    2.58120    0.00000    1.46670 3931.00000
 6922.50000    2.33680    2.11320    1.90660    1.87260    3.49840    3.28250    2.88030    2.74560    0.05580   65.63640   47.44480    8.67800   -0.00090    0.06760    3.35320    0.08400    2.61460    0.00000    1.61220 3963.00000
 6923.00000    2.43490    2.18570    1.95430    1.91590    3.43530    2.96020    2.51900    2.46120    0.05200   61.27270   42.52160    8.65460   -0.00050    0.04620    3.34690    0.07150    2.62100    0.00000    1.72140 3967.00000
 6923.50000    2.30330    2.07270    1.85410    1.81640    2.61210    2.32700    2.04230    2.01440    0.06750   61.09090   40.81680    8.64680   -0.00480    0.06150    3.30090    0.07500    2.59450    0.00000    1.72700 3988.00000
 6924.00000    2.04010    1.84650    1.63330    1.59980    2.08380    1.82360    1.63240    1.62520    0.09100   64.72730   43.65820    8.66240   -0.00410    0.11070    3.24380    0.10050    2.55440    0.00000    1.62330 3915.00000
 6924.50000    1.85000    1.67980    1.51360    1.48670    1.63970    1.49220    1.32720    1.32760    0.10440   68.36360   52.55770    8.67020   -0.00290    0.17700    3.22500    0.13280    2.53160    0.00000    1.47540 3887.00000
 6925.00000    1.73770    1.57740    1.42420    1.39570    1.49430    1.35870    1.22780    1.21710    0.10460   70.36360   62.88160    8.60780   -0.00170    0.18580    3.25680    0.15340    2.53110    0.00000    1.34920 3944.00000
 6925.50000    1.71870    1.55260    1.39930    1.36580    1.55270    1.41310    1.27510    1.26580    0.10180   70.36360   66.47180    8.62340   -0.00300    0.15420    3.31940    0.14850    2.53590    0.00000    1.27570 3972.00000
 6926.00000    1.76350    1.58200    1.42160    1.39400    1.74260    1.53700    1.39350    1.37260    0.09800   69.27270   67.86710    8.60780   -0.00470    0.15030    3.36920    0.13850    2.54230    0.02370    1.25750 3971.00000
 6926.50000    1.82510    1.63130    1.46120    1.42360    2.08910    1.80330    1.56350    1.54950    0.09410   66.72730   64.25970    8.62340   -0.00510    0.13890    3.38160    0.12540    2.54910    0.02560    1.28150 3975.00000
 6927.00000    1.84460    1.65120    1.48310    1.42510    2.26160    2.01000    1.73640    1.67300    0.09580   66.00000   63.13220    8.61560   -0.00370    0.10670    3.37520    0.11750    2.54620    0.03300    1.32520 3965.00000
 6927.50000    1.81110    1.63110    1.46870    1.40770    1.88560    1.69770    1.49920    1.43990    0.10480   66.36360   63.15700    8.63120   -0.00120    0.11410    3.34800    0.12520    2.53090    0.00000    1.36070 3942.00000
 6928.00000    1.76730    1.59740    1.44160    1.39540    1.61740    1.47330    1.32030    1.30740    0.11900   68.00000   65.15420    8.63900   -0.00040    0.16100    3.35650    0.14560    2.50650    0.00000    1.37210 3980.00000
 6928.50000    1.74230    1.57840    1.43650    1.39910    1.54390    1.44520    1.31530    1.32370    0.10560   70.72730   69.32160    8.64680    0.01170    0.18150    3.36420    0.15360    2.52950    0.00000    1.36740 3976.00000
 6929.00000    1.79680    1.62320    1.49070    1.46010    1.60790    1.45100    1.38100    1.39520    0.08410   71.27270   67.42810    8.68580    0.01740    0.17290    3.35910    0.14610    2.56620    0.00000    1.37030 3931.00000
 6929.50000    1.96780    1.76380    1.60220    1.57220    1.84990    1.65350    1.60070    1.55330    0.06400   68.90910   63.95080    8.69360    0.01840    0.16780    3.31960    0.13580    2.60050    0.00000    1.40230 3952.00000
 6930.00000    2.22160    1.96310    1.75630    1.72230    2.27780    1.92700    1.69850    1.73260    0.06880   65.63640   55.52120    8.67020    0.00640    0.13100    3.30340    0.12420    2.59230    0.00000    1.47540 3923.00000
 6930.50000    2.56370    2.22640    1.94010    1.90650    2.79740    2.40760    1.99820    2.01260    0.07260   63.63640   47.95270    8.67610   -0.00080    0.10890    3.32580    0.11120    2.58590    0.00000    1.58530 3936.00000
 6931.00000    2.82230    2.40630    2.05080    2.00380    4.18970    3.21880    2.50960    2.52890    0.06270   62.90910   41.57480    8.66240   -0.00130    0.11620    3.33120    0.09810    2.60280    0.00000    1.70260 3979.00000
 6931.50000    2.75630    2.35030    2.00810    1.96250    4.44610    3.75120    2.86830    2.91340    0.05280   60.72730   37.31270    8.63900   -0.00040    0.08010    3.29360    0.08410    2.61970    0.00000    1.77290 3931.00000
 6932.00000    2.44430    2.11490    1.82480    1.78100    2.61580    2.26140    1.87880    1.88380    0.06060   59.63640   42.70350    8.61560   -0.00030    0.05010    3.25590    0.07950    2.60640    0.00000    1.75030 3915.00000
 6932.50000    2.11400    1.86630    1.62680    1.58490    1.89830    1.67410    1.43500    1.43680    0.08920   60.00000   54.73720    8.63120   -0.00340    0.09860    3.26400    0.09990    2.55750    0.00000    1.64160 3975.00000
 6933.00000    1.86950    1.67410    1.48560    1.44540    1.72340    1.58320    1.38770    1.37470    0.10890   67.09090   64.33000    8.60000   -0.00420    0.17510    3.27880    0.13410    2.52370    0.00000    1.49890 3945.00000
 6933.50000    1.70670    1.53890    1.37700    1.34390    1.68100    1.51300    1.33770    1.33890    0.10950   68.72730   69.06380    8.60000   -0.00230    0.17940    3.26160    0.14550    2.52270    0.00000    1.36940 3938.00000
 6934.00000    1.60750    1.45590    1.31110    1.28040    1.60240    1.43750    1.29060    1.26630    0.10490   68.36360   66.73600    8.63900    0.00080    0.13410    3.26060    0.13600    2.53070    0.00000    1.27180 3957.00000
 6934.50000    1.54940    1.40800    1.27240    1.24560    1.51120    1.36580    1.23910    1.19310    0.11170   68.00000   65.18560    8.64680    0.00200    0.12460    3.30600    0.13330    2.51900    0.00000    1.20880 3943.00000
 6935.00000    1.52360    1.38700    1.25570    1.23430    1.42000    1.31050    1.18500    1.16220    0.12470   68.72730   65.65540    8.60000    0.00200    0.15310    3.39990    0.14670    2.49670    0.00580    1.17710 3911.00000
 6935.50000    1.53090    1.39560    1.26300    1.24460    1.43540    1.32750    1.19150    1.17510    0.12520   70.00000   67.88980    8.71710    0.00210    0.16970    3.42680    0.15140    2.49600    0.01870    1.17150 3963.00000
 6936.00000    1.55950    1.41910    1.28040    1.26750    1.57890    1.44970    1.28960    1.27120    0.11820   68.72730   67.51930    8.73270   -0.00020    0.15840    3.39900    0.14110    2.50790    0.00000    1.18540 3970.00000
