~Version ---------------------------------------------------
VERS     .                                                                         2.0 : CWLS log ASCII Standard -VERSION 2.0
WRAP     .                                                                          NO : One Line per depth step
PROD     .                                                                Schlumberger : LAS Producer
PROG     .                                                      DLIS to ASCII 16C0-147 : LAS Program name and version
CREA     . 2008/03/25 04:07                          :LAS Creation date {YYYY/MM/DD hh : mm}
DLIS_CREA.     2008-Mar-25	03:02			       :DLIS Creation date and time {YYYY-MMM-DD hh : mm}
SOURCE   .                                             AIT_TLD_MCFL_CNL_IS_017PUP.DLIS : DLIS File Name
FILE-ID  .                                                  AIT_TLD_MCFL_CNL_IS_017PUP : File Identification Number
~Well ------------------------------------------------------
STRT.F      2124.0 : START DEPTH
STOP.F     10116.0 : STOP DEPTH
STEP.F         0.5 : STEP
NULL.      -999.25 : NULL VALUE
COMP.              : COMPANY
WELL.              : WELL
FLD .      WILDCAT : FIELD
LOC .              : LOCATION
CNTY.              : COUNTY
STAT.              : STATE
CTRY.              : COUNTRY
API .              : API NUMBER
UWI .              : UNIQUE WELL ID
DATE.              : LOG DATE {DD-MMM-YYYY}
SRVC. Schlumberger : SERVICE COMPANY
LATI.DEG         0 : LATITUDE
LONG.DEG         0 : LONGITUDE
GDAT.              : GeoDetic Datum
SECT.              : Section
RANG.              : Range
TOWN.              : Township
~Curve Information -----------------------------------------
DEPT     .F     : DEPTH (BOREHOLE) {F10.1}
AF20     .OHMM  : Array Induction Four Foot Resistivity A20 {F13.4}
AF30     .OHMM  : Array Induction Four Foot Resistivity A30 {F13.4}
AF60     .OHMM  : Array Induction Four Foot Resistivity A60 {F13.4}
AF90     .OHMM  : Array Induction Four Foot Resistivity A90 {F13.4}
AT20     .OHMM  : Array Induction Two Foot Resistivity A20 {F13.4}
AT30     .OHMM  : Array Induction Two Foot Resistivity A30 {F13.4}
AT60     .OHMM  : Array Induction Two Foot Resistivity A60 {F13.4}
AT90     .OHMM  : Array Induction Two Foot Resistivity A90 {F13.4}
DPHZ     .CFCF  : HRDD Standard Resolution Density Porosity {F13.4}
DTCO3    .US/F  : Compressional Slowness from Measurement 3 {F13.4}
GR       .GAPI  : Gamma-Ray {F13.4}
HCAL     .IN    : HRCC Cal. Caliper {F13.4}
HDRA     .G/C3  : HRDD Density Correction {F13.4}
NPOR     .CFCF  : Enhanced Thermal Neutron Porosity {F13.4}
PEFZ     .      : HRDD Standard Resolution Formation Photoelectric Factor {F13.4}
PXND_HILT.CFCF  : HILT Porosity CrossPlot {F13.4}
RHOZ     .G/C3  : HRDD Standard Resolution Formation Density {F13.4}
RSOZ     .IN    : MCFL Standard Resolution Resistivity Standoff {F13.4}
RT       .OHMM  : True Resistivity {F13.4}
TENS     .LBF   : Cable Tension {F13.4}
~Params ----------------------------------------------------
RUN .           ONE : RUN NUMBER
PDAT.  GROUND LEVEL : Permanent Datum
EPD .               : Elevation of Permanent Datum above Mean Sea Level
LMF . KELLY BUSHING : Logging Measured From (Name of Logging Elevation Reference)
APD .               : Elevation of Depth Reference (LMF) above Permanent Datum
~Other -----------------------------------------------------
~ASCII -----------------------------------------------------
# ...
 4259.00000    1.95700    1.93970    1.97550    1.97130    1.94850    1.93780    1.97540    1.97610    0.20220  122.00000  205.47500    8.60000    0.00490    0.42100    4.47190    0.30110    2.36420    0.03400    1.98590 3158.00000
 4259.50000    1.94020    1.92510    1.96090    1.95770    1.93330    1.92890    1.97230    1.97440    0.20250  122.00000  204.85520    8.62340    0.00530    0.39890    4.56540    0.29580    2.36370    0.03670    1.97280 3128.00000
 4260.00000    1.92420    1.91190    1.94960    1.94610    1.93040    1.92570    1.96390    1.96540    0.19850  120.90910  212.29320    8.64680    0.00520    0.39010    4.59680    0.29340    2.37050    0.03730    1.96210 3122.00000
 4260.50000    1.90920    1.89860    1.94060    1.93930    1.92580    1.91800    1.96200    1.96750    0.19030  120.00000  223.91510    8.63510    0.00360    0.40420    4.57840    0.29400    2.38450    0.01600    1.95160 3131.00000
 4261.00000    1.89590    1.88580    1.93010    1.93300    1.88370    1.88810    1.93550    1.94860    0.18490  120.00000  227.01420    8.64680    0.00160    0.41790    4.61030    0.29980    2.39390    0.01340    1.93970 3102.00000
 4261.50000    1.88620    1.87580    1.91760    1.92490    1.83610    1.83160    1.88540    1.89450    0.19150  120.00000  223.45020    8.68190   -0.00100    0.45170    4.62510    0.30510    2.38260    0.01330    1.92680 3113.00000
 4262.00000    1.88170    1.87060    1.90530    1.91750    1.84630    1.84480    1.88390    1.90300    0.20470  122.00000  217.25180    8.69360   -0.00130    0.47070    4.58240    0.31620    2.36000    0.03770    1.91450 3137.00000
 4262.50000    1.88150    1.86910    1.89760    1.91230    1.88820    1.88230    1.90950    1.93190    0.21570  123.27270  221.48810    8.72880    0.00060    0.42520    4.49450    0.31740    2.34110    0.03340    1.90380 3122.00000
 4263.00000    1.88290    1.86830    1.89170    1.90650    1.91750    1.90520    1.92570    1.95240    0.22090  124.36360  225.11250    8.74050    0.00280    0.43490    4.43460    0.31840    2.33220    0.01430    1.89410 3107.00000
 4263.50000    1.88550    1.86560    1.88980    1.89910    1.89570    1.87560    1.90010    1.91480    0.22660  125.63640  231.62070    8.71710    0.00200    0.45370    4.44490    0.31940    2.32240    0.01530    1.88430 3111.00000
 4264.00000    1.88360    1.86660    1.88860    1.89450    1.86500    1.84680    1.87310    1.87600    0.22380  125.63640  229.86380    8.69360    0.00250    0.44050    4.44520    0.32510    2.32740    0.00000    1.87460 3100.00000
 4264.50000    1.88300    1.86650    1.88850    1.89100    1.85420    1.84220    1.86980    1.86580    0.21790  124.72730  227.00310    8.72880    0.00380    0.48110    4.37570    0.32410    2.33740    0.02870    1.86790 3105.00000
 4265.00000    1.88790    1.86990    1.89130    1.88680    1.87900    1.86750    1.89760    1.88600    0.21280  123.27270  220.95970    8.67020    0.00530    0.41800    4.19630    0.31550    2.34610    0.03370    1.86720 3121.00000
 4265.50000    1.89590    1.87930    1.89970    1.89510    1.92000    1.90550    1.93660    1.91840    0.21890  121.63640  211.66220    8.65850    0.00410    0.41940    3.98810    0.31550    2.33580    0.04650    1.87240 3114.00000
 4266.00000    1.89310    1.87650    1.89620    1.89090    1.93090    1.91850    1.95200    1.93260    0.23100  121.63640  207.79940    8.64680    0.00190    0.43400    3.84360    0.31860    2.31500    0.03240    1.87920 3119.00000
 4266.50000    1.87530    1.85940    1.87780    1.87330    1.90410    1.89630    1.93180    1.91350    0.23340  121.27270  200.36140    8.63510    0.00370    0.43020    3.79280    0.32310    2.31090    0.03270    1.88040 3123.00000
 4267.00000    1.84030    1.82520    1.84180    1.83850    1.88710    1.87640    1.90750    1.89300    0.22860  119.63640  201.13620    8.62340    0.00610    0.41830    3.71470    0.31350    2.31910    0.03550    1.86830 3124.00000
 4267.50000    1.79790    1.78280    1.79790    1.79360    1.82860    1.82710    1.86110    1.84660    0.22170  119.63640  188.62300    8.64680    0.00710    0.44040    3.55230    0.31590    2.33090    0.02540    1.84040 3095.00000
 4268.00000    1.75360    1.73730    1.74920    1.75140    1.70500    1.69300    1.71910    1.71430    0.22460  119.63640  184.90400    8.67020    0.00430    0.39200    3.37810    0.31610    2.32590    0.01150    1.80230 3098.00000
 4268.50000    1.73050    1.71250    1.72260    1.72850    1.60630    1.58560    1.60330    1.60190    0.23100  122.00000  172.19740    8.74050    0.00160    0.38850    3.27290    0.31500    2.31500    0.00980    1.76530 3128.00000
 4269.00000    1.73450    1.71440    1.72320    1.72670    1.66340    1.64920    1.66700    1.66610    0.23340  121.63640  176.80770    8.72880    0.00070    0.41820    3.23580    0.30890    2.31090    0.00430    1.74110 3114.00000
 4269.50000    1.75790    1.73540    1.74370    1.74640    1.79250    1.77260    1.79320    1.79390    0.23070  120.72730  178.91140    8.74050    0.00020    0.37530    3.23520    0.29640    2.31560    0.00160    1.73530 3121.00000
 4270.00000    1.78660    1.76030    1.76850    1.77050    1.85950    1.82540    1.84350    1.84220    0.22130  120.00000  186.50440    8.74050    0.00030    0.36280    3.21130    0.29940    2.33150    0.00000    1.74560 3112.00000
 4270.50000    1.81150    1.78540    1.79450    1.79550    1.83090    1.79790    1.81680    1.80880    0.21460  118.72730  185.48250    8.72880   -0.00090    0.38880    3.23080    0.30590    2.34310    0.00000    1.76580 3090.00000
 4271.00000    1.83440    1.81130    1.82310    1.82300    1.77850    1.75600    1.78080    1.77850    0.20810  118.72730  195.62050    8.74050   -0.00060    0.40200    3.26820    0.30670    2.35420    0.00980    1.79110 3119.00000
 4271.50000    1.86470    1.84350    1.85800    1.85630    1.79340    1.77890    1.80430    1.79760    0.21130  120.00000  203.83330    8.74050    0.00110    0.39550    3.49600    0.30470    2.34880    0.01710    1.82150 3130.00000
 4272.00000    1.90530    1.88520    1.90320    1.90100    1.90110    1.88430    1.91940    1.91300    0.22270  122.36360  215.54730    8.67020    0.00430    0.40610    3.89120    0.30910    2.32910    0.01940    1.85960 3108.00000
 4272.50000    1.94830    1.92870    1.94950    1.94650    2.00700    1.98370    2.02270    2.01230    0.22690  125.09090  219.26630    8.78730    0.01500    0.40370    4.44730    0.31240    2.32190    0.01360    1.90550 3138.00000
 4273.00000    1.98390    1.96520    1.98890    1.98610    2.01730    1.99970    2.04190    2.03560    0.22380  126.36360  231.74720    8.71710    0.02120    0.48900    4.85360    0.32580    2.32730    0.07300    1.95370 3134.00000
 4273.50000    2.00540    1.98840    2.01470    2.01290    2.01510    2.00640    2.05020    2.04810    0.21690  127.09090  239.64080    8.61170    0.01940    0.52530    4.96600    0.32950    2.33910    0.07530    1.99520 3099.00000
 4274.00000    2.01340    1.99750    2.02590    2.02310    2.01240    2.00370    2.04520    2.03760    0.21740  126.00000  245.29040    8.61170    0.00890    0.46160    4.83350    0.32940    2.33830    0.07500    2.02370 3127.00000
 4274.50000    2.01570    1.99960    2.02920    2.02790    2.00420    1.99320    2.03200    2.04000    0.21930  126.00000  245.67100    8.60000    0.00140    0.43960    4.60630    0.32200    2.33510    0.05830    2.03860 3134.00000
 4275.00000    2.02230    2.00560    2.03610    2.03460    1.98560    1.96770    2.00460    2.02520    0.21980  124.36360  244.59560    8.62340   -0.00000    0.45540    4.43080    0.32100    2.33410    0.04160    2.04480 3076.00000
 4275.50000    2.04070    2.02290    2.05340    2.05390    1.98270    1.96480    2.00660    2.03440    0.22290  124.72730  244.21460    8.64680   -0.00140    0.44620    4.27700    0.32290    2.32880    0.03240    2.05050 3111.00000
 4276.00000    2.07270    2.05370    2.08470    2.08470    2.03860    2.02200    2.06160    2.07930    0.22790  125.09090  247.46870    8.69360   -0.00240    0.50790    4.21340    0.32950    2.32030    0.00970    2.06270 3112.00000
