~Version ---------------------------------------------------
VERS     .                                                                         2.0 : CWLS log ASCII Standard -VERSION 2.0
WRAP     .                                                                          NO : One Line per depth step
PROD     .                                                                Schlumberger : LAS Producer
PROG     .                                                      DLIS to ASCII 16C0-147 : LAS Program name and version
CREA     . 2008/03/25 04:07                          :LAS Creation date {YYYY/MM/DD hh : mm}
DLIS_CREA.     2008-Mar-25	03:02			       :DLIS Creation date and time {YYYY-MMM-DD hh : mm}
SOURCE   .                                             AIT_TLD_MCFL_CNL_IS_017PUP.DLIS : DLIS File Name
FILE-ID  .                                                  AIT_TLD_MCFL_CNL_IS_017PUP : File Identification Number
~Well ------------------------------------------------------
STRT.F      2124.0 : START DEPTH
STOP.F     10116.0 : STOP DEPTH
STEP.F         0.5 : STEP
NULL.      -999.25 : NULL VALUE
COMP.              : COMPANY
WELL.              : WELL
FLD .      WILDCAT : FIELD
LOC .              : LOCATION
CNTY.              : COUNTY
STAT.              : STATE
CTRY.              : COUNTRY
API .              : API NUMBER
UWI .              : UNIQUE WELL ID
DATE.              : LOG DATE {DD-MMM-YYYY}
SRVC. Schlumberger : SERVICE COMPANY
LATI.DEG         0 : LATITUDE
LONG.DEG         0 : LONGITUDE
GDAT.              : GeoDetic Datum
SECT.              : Section
RANG.              : Range
TOWN.              : Township
~Curve Information -----------------------------------------
DEPT     .F     : DEPTH (BOREHOLE) {F10.1}
AF20     .OHMM  : Array Induction Four Foot Resistivity A20 {F13.4}
AF30     .OHMM  : Array Induction Four Foot Resistivity A30 {F13.4}
AF60     .OHMM  : Array Induction Four Foot Resistivity A60 {F13.4}
AF90     .OHMM  : Array Induction Four Foot Resistivity A90 {F13.4}
AT20     .OHMM  : Array Induction Two Foot Resistivity A20 {F13.4}
AT30     .OHMM  : Array Induction Two Foot Resistivity A30 {F13.4}
AT60     .OHMM  : Array Induction Two Foot Resistivity A60 {F13.4}
AT90     .OHMM  : Array Induction Two Foot Resistivity A90 {F13.4}
DPHZ     .CFCF  : HRDD Standard Resolution Density Porosity {F13.4}
DTCO3    .US/F  : Compressional Slowness from Measurement 3 {F13.4}
GR       .GAPI  : Gamma-Ray {F13.4}
HCAL     .IN    : HRCC Cal. Caliper {F13.4}
HDRA     .G/C3  : HRDD Density Correction {F13.4}
NPOR     .CFCF  : Enhanced Thermal Neutron Porosity {F13.4}
PEFZ     .      : HRDD Standard Resolution Formation Photoelectric Factor {F13.4}
PXND_HILT.CFCF  : HILT Porosity CrossPlot {F13.4}
RHOZ     .G/C3  : HRDD Standard Resolution Formation Density {F13.4}
RSOZ     .IN    : MCFL Standard Resolution Resistivity Standoff {F13.4}
RT       .OHMM  : True Resistivity {F13.4}
TENS     .LBF   : Cable Tension {F13.4}
~Params ----------------------------------------------------
RUN .           ONE : RUN NUMBER
PDAT.  GROUND LEVEL : Permanent Datum
EPD .               : Elevation of Permanent Datum above Mean Sea Level
LMF . KELLY BUSHING : Logging Measured From (Name of Logging Elevation Reference)
APD .               : Elevation of Depth Reference (LMF) above Permanent Datum
~Other -----------------------------------------------------
~ASCII -----------------------------------------------------
# ...
 7444.00000    1.59140    1.57350    1.53440    1.53190    1.34170    1.34470    1.31630    1.32270    0.05620   82.36360   87.16060    8.60780    0.00130    0.35910    4.65160    0.19800    2.61390    0.00000    1.58590 4098.00000
 7444.50000    1.43090    1.39860    1.35910    1.35340    1.38830    1.33280    1.29520    1.29970    0.07880   80.36360   88.20250    8.64680   -0.00290    0.26690    4.74580    0.20110    2.57520    0.00000    1.30390 4123.00000
 7445.00000    1.33010    1.28990    1.25040    1.24590    1.44160    1.33970    1.29650    1.29170    0.06470   76.90910   82.53190    8.61560    0.01800    0.25580    4.98060    0.18900    2.59940    0.00000    1.14020 4089.00000
 7445.50000    1.24670    1.20670    1.17170    1.16900    1.32620    1.24550    1.20450    1.19630    0.04090   75.63640   73.20600    8.64680    0.04600    0.24430    5.19120    0.18190    2.64000    0.00000    1.05130 4040.00000
 7446.00000    1.17680    1.14400    1.11240    1.11160    1.17580    1.14100    1.10680    1.09660    0.02250   80.00000   67.52310    8.63120    0.07150    0.26450    5.31010    0.17170    2.67160    0.00000    1.01440 4074.00000
 7446.50000    1.12440    1.09780    1.06950    1.07010    1.05940    1.03970    1.02020    1.01560    0.03380   81.63640   69.75740    8.56880    0.07330    0.29160    5.33120    0.18430    2.65220    0.00000    1.01160 4119.00000
 7447.00000    1.10750    1.08480    1.05250    1.05100    1.03430    1.02150    0.99450    0.99590    0.04350   80.72730   72.87960    8.53750    0.07120    0.28820    5.33390    0.18740    2.63560    0.00730    1.02960 4106.00000
 7447.50000    1.13820    1.11660    1.08720    1.10980    1.01880    1.01370    0.99450    1.00920    0.03870   80.36360   70.77270    8.42830    0.07020    0.27710    5.28660    0.18400    2.64380    0.01330    1.06380 4104.00000
 7448.00000    1.23080    1.20590    1.18160    1.21220    1.08710    1.05130    1.05670    1.08310    0.03010   75.63640   67.24420    8.49460    0.06220    0.27220    5.10730    0.17530    2.65850    0.01140    1.11630 4081.00000
 7448.50000    1.37370    1.34760    1.30810    1.30010    1.29920    1.28730    1.27360    1.24720    0.02100   71.27270   64.92490    8.55310    0.05060    0.25570    4.87670    0.16400    2.67400    0.01790    1.19130 4075.00000
 7449.00000    1.58290    1.54270    1.48780    1.46760    1.92260    1.92920    1.85680    1.83020    0.01890   66.90910   65.98080    8.42830    0.03200    0.17870    4.64440    0.14310    2.67770    0.02000    1.28720 4085.00000
 7449.50000    1.75080    1.69930    1.63330    1.55310    2.71800    2.55330    2.47490    2.32600    0.02120   67.27270   72.48440    8.45950    0.01730    0.13020    4.47660    0.13280    2.67370    0.01840    1.38600 4064.00000
 7450.00000    1.77890    1.72330    1.64620    1.55160    2.29180    2.15430    2.05970    1.94350    0.03400   72.72730   81.00740    8.53750    0.00380    0.17300    4.34110    0.14070    2.65190    0.01470    1.45750 4063.00000
 7450.50000    1.69000    1.63700    1.56300    1.48680    1.70250    1.62650    1.59590    1.46620    0.04740   80.00000   91.05630    8.53750   -0.00070    0.21740    4.23730    0.15800    2.62900    0.02310    1.48080 4151.00000
 7451.00000    1.59530    1.54640    1.49630    1.44190    1.43300    1.40190    1.38800    1.32300    0.05420   84.72730   99.84890    8.54530   -0.00120    0.22180    4.16380    0.16770    2.61740    0.02670    1.46390 4164.00000
 7451.50000    1.51940    1.47770    1.43700    1.38410    1.35880    1.31580    1.29960    1.24470    0.05350   86.00000  105.02300    8.63120   -0.00180    0.23600    4.08600    0.17140    2.61850    0.00470    1.43400 4148.00000
 7452.00000    1.50190    1.45970    1.42260    1.38370    1.44800    1.40720    1.39000    1.32660    0.05330   85.27270  101.13960    8.62340   -0.00360    0.23460    4.07100    0.17670    2.61890    0.00000    1.41770 4182.00000
 7452.50000    1.55390    1.50970    1.48200    1.43290    1.48080    1.44010    1.44130    1.38350    0.04950   84.00000   88.35850    8.61560   -0.00250    0.23250    4.11990    0.17380    2.62540    0.00000    1.43200 4156.00000
 7453.00000    1.66050    1.61500    1.59660    1.54100    1.56450    1.49730    1.52500    1.43340    0.04360   80.00000   77.93980    8.60000    0.00010    0.24020    4.26830    0.17150    2.63540    0.00000    1.48750 4114.00000
 7453.50000    1.82560    1.77660    1.76390    1.71300    1.77800    1.73960    1.73180    1.67450    0.03490   75.63640   74.34070    8.53750    0.00250    0.23680    4.43650    0.16280    2.65040    0.00940    1.59370 4121.00000
 7454.00000    2.03830    1.97720    1.95750    1.91460    2.09230    2.06350    1.95210    1.87690    0.02670   70.72730   72.25780    8.50630    0.00420    0.20950    4.58560    0.15690    2.66430    0.01590    1.75470 4101.00000
 7454.50000    2.27190    2.18700    2.17160    2.11650    2.53130    2.37950    2.36020    2.36370    0.02940   70.00000   69.42800    8.52190    0.00200    0.18210    4.63990    0.14970    2.65980    0.00000    1.95860 4108.00000
 7455.00000    2.47610    2.37860    2.36930    2.30420    2.70060    2.53700    2.50030    2.56330    0.03200   70.00000   67.81780    8.54530    0.00100    0.17980    4.56320    0.14980    2.65530    0.00000    2.17080 4116.00000
 7455.50000    2.57680    2.48350    2.47780    2.44400    2.64980    2.53220    2.51930    2.61940    0.03750   68.72730   69.53230    8.52190   -0.00030    0.20170    4.42480    0.14250    2.64580    0.00550    2.34480 4089.00000
 7456.00000    2.65030    2.53490    2.53550    2.47790    2.58220    2.55580    2.54880    2.58350    0.03630   68.90910   67.33410    8.43610    0.00240    0.16400    4.30220    0.13560    2.64800    0.02990    2.45020 4091.00000
 7456.50000    2.73270    2.68460    2.72900    2.64270    2.72800    2.62880    2.69320    2.62820    0.03270   70.00000   66.48170    8.51410    0.01050    0.15450    4.28910    0.12510    2.65400    0.01970    2.50090 4103.00000
 7457.00000    2.83820    2.80170    2.87420    2.77040    2.68820    2.66260    2.69470    2.67450    0.02400   68.36360   61.08290    8.52390    0.02330    0.15980    4.36960    0.12610    2.66890    0.00000    2.54260 4063.00000
 7457.50000    3.02520    3.01750    3.11930    2.98380    2.69000    2.63520    2.60110    2.59810    0.02280   70.00000   68.75160    8.52970    0.02600    0.15820    4.51070    0.11190    2.67090    0.00000    2.61340 4062.00000
 7458.00000    3.23910    3.25170    3.35990    3.20790    3.20980    3.44110    3.59620    3.36240    0.01060   59.63640   74.81340    8.46730    0.03460    0.11020    4.66330    0.08630    2.69200    0.00000    2.72750 4112.00000
 7458.50000    3.37140    3.40340    3.49340    3.39640    4.90650    5.53890    5.32310    5.02290    0.00310   58.36360   82.58000    8.42050    0.03610    0.04790    4.67940    0.07370    2.70480    0.00000    2.85690 4086.00000
 7459.00000    3.29290    3.32330    3.38710    3.35060    4.00340    4.28240    4.19180    3.93620   -0.00400   59.09090   79.92910    8.55310    0.03790    0.07970    4.53730    0.07470    2.71690    0.00000    2.94760 4108.00000
 7459.50000    3.00890    3.00660    3.04590    2.97840    3.05880    3.12230    3.09050    2.93370    0.00800   63.09090   75.57220    8.54530    0.02290    0.12730    4.25190    0.09500    2.69620    0.00000    2.86780 4174.00000
 7460.00000    2.66210    2.62840    2.62960    2.58880    2.74530    2.68180    2.59030    2.63930    0.02370   69.09090   72.88150    8.60000    0.00820    0.11970    3.99480    0.10410    2.66940    0.00000    2.63680 4119.00000
 7460.50000    2.37680    2.31460    2.27810    2.31050    2.56810    2.39920    2.27620    2.29960    0.03290   73.09090   73.55480    8.63900    0.00140    0.14540    3.81330    0.12680    2.65380    0.00000    2.32800 4094.00000
 7461.00000    2.15540    2.10160    2.07650    2.06430    1.95540    2.02020    1.90030    2.04390    0.03450   76.00000   78.27870    8.67020    0.00060    0.18950    3.72190    0.14310    2.65110    0.00000    2.03290 4162.00000
