~Version ---------------------------------------------------
VERS     .                                                                         2.0 : CWLS log ASCII Standard -VERSION 2.0
WRAP     .                                                                          NO : One Line per depth step
PROD     .                                                                Schlumberger : LAS Producer
PROG     .                                                      DLIS to ASCII 16C0-147 : LAS Program name and version
CREA     . 2008/03/25 04:07                          :LAS Creation date {YYYY/MM/DD hh : mm}
DLIS_CREA.     2008-Mar-25	03:02			       :DLIS Creation date and time {YYYY-MMM-DD hh : mm}
SOURCE   .                                             AIT_TLD_MCFL_CNL_IS_017PUP.DLIS : DLIS File Name
FILE-ID  .                                                  AIT_TLD_MCFL_CNL_IS_017PUP : File Identification Number
~Well ------------------------------------------------------
STRT.F      2124.0 : START DEPTH
STOP.F     10116.0 : STOP DEPTH
STEP.F         0.5 : STEP
NULL.      -999.25 : NULL VALUE
COMP.              : COMPANY
WELL.              : WELL
FLD .      WILDCAT : FIELD
LOC .              : LOCATION
CNTY.              : COUNTY
STAT.              : STATE
CTRY.              : COUNTRY
API .              : API NUMBER
UWI .              : UNIQUE WELL ID
DATE.              : LOG DATE {DD-MMM-YYYY}
SRVC. Schlumberger : SERVICE COMPANY
LATI.DEG         0 : LATITUDE
LONG.DEG         0 : LONGITUDE
GDAT.              : GeoDetic Datum
SECT.              : Section
RANG.              : Range
TOWN.              : Township
~Curve Information -----------------------------------------
DEPT     .F     : DEPTH (BOREHOLE) {F10.1}
AF20     .OHMM  : Array Induction Four Foot Resistivity A20 {F13.4}
AF30     .OHMM  : Array Induction Four Foot Resistivity A30 {F13.4}
AF60     .OHMM  : Array Induction Four Foot Resistivity A60 {F13.4}
AF90     .OHMM  : Array Induction Four Foot Resistivity A90 {F13.4}
AT20     .OHMM  : Array Induction Two Foot Resistivity A20 {F13.4}
AT30     .OHMM  : Array Induction Two Foot Resistivity A30 {F13.4}
AT60     .OHMM  : Array Induction Two Foot Resistivity A60 {F13.4}
AT90     .OHMM  : Array Induction Two Foot Resistivity A90 {F13.4}
DPHZ     .CFCF  : HRDD Standard Resolution Density Porosity {F13.4}
DTCO3    .US/F  : Compressional Slowness from Measurement 3 {F13.4}
GR       .GAPI  : Gamma-Ray {F13.4}
HCAL     .IN    : HRCC Cal. Caliper {F13.4}
HDRA     .G/C3  : HRDD Density Correction {F13.4}
NPOR     .CFCF  : Enhanced Thermal Neutron Porosity {F13.4}
PEFZ     .      : HRDD Standard Resolution Formation Photoelectric Factor {F13.4}
PXND_HILT.CFCF  : HILT Porosity CrossPlot {F13.4}
RHOZ     .G/C3  : HRDD Standard Resolution Formation Density {F13.4}
RSOZ     .IN    : MCFL Standard Resolution Resistivity Standoff {F13.4}
RT       .OHMM  : True Resistivity {F13.4}
TENS     .LBF   : Cable Tension {F13.4}
~Params ----------------------------------------------------
RUN .           ONE : RUN NUMBER
PDAT.  GROUND LEVEL : Permanent Datum
EPD .               : Elevation of Permanent Datum above Mean Sea Level
LMF . KELLY BUSHING : Logging Measured From (Name of Logging Elevation Reference)
APD .               : Elevation of Depth Reference (LMF) above Permanent Datum
~Other -----------------------------------------------------
~ASCII -----------------------------------------------------
# ...
 2649.00000    1.83190    1.85590    1.95650    1.99720    1.81780    1.84870    1.94500    2.00480    0.26020  130.00000   78.80270    8.78730   -0.00450    0.42410    3.27600    0.33080    2.26500    0.02600    1.95790 2692.00000
 2649.50000    1.84260    1.86750    1.97040    2.01170    1.82250    1.85180    1.94830    2.01070    0.26420  130.00000   82.52180    8.83410   -0.00570    0.41340    3.26120    0.33070    2.25830    0.02220    1.96940 2718.00000
 2650.00000    1.85600    1.88160    1.98440    2.02660    1.83840    1.87100    1.97050    2.03080    0.27030  128.90910   82.25500    8.82240   -0.00440    0.46660    3.25520    0.34720    2.24790    0.00600    1.98160 2654.00000
 2650.50000    1.87050    1.89680    2.00210    2.04410    1.87940    1.91290    2.01700    2.08300    0.27370  128.90910   83.95950    8.90440   -0.00200    0.41370    3.23180    0.34380    2.24200    0.00000    1.99430 2631.00000
 2651.00000    1.88110    1.90760    2.01320    2.05750    1.90800    1.94130    2.04600    2.11280    0.27730  128.90910   85.50260    9.03320   -0.00370    0.41940    3.23920    0.34980    2.23580    0.00000    2.00550 2656.00000
 2651.50000    1.88620    1.91260    2.01710    2.06550    1.89580    1.92900    2.01950    2.08790    0.27780  130.00000   88.16460    9.13850   -0.00630    0.44360    3.26200    0.34600    2.23490    0.00000    2.01340 2664.00000
 2652.00000    1.88730    1.91340    2.01640    2.06710    1.87820    1.90530    2.00350    2.06270    0.27220  130.00000   86.62580    9.19710   -0.00580    0.48470    3.28900    0.35280    2.24450    0.00490    2.01700 2617.00000
 2652.50000    1.88680    1.91320    2.01470    2.06670    1.86530    1.89370    1.99690    2.05040    0.26290  130.00000   87.56220    9.17370   -0.00280    0.46570    3.28120    0.35150    2.26040    0.00000    2.01760 2631.00000
 2653.00000    1.88620    1.91300    2.01310    2.06580    1.88340    1.91430    2.00550    2.06190    0.25490  130.00000   81.75860    9.16190   -0.00110    0.46050    3.24660    0.34390    2.27410    0.00000    2.01680 2654.00000
 2653.50000    1.88270    1.91030    2.00880    2.06080    1.90110    1.93150    2.01970    2.07560    0.25720  130.00000   81.28290    9.16190   -0.00310    0.50760    3.25330    0.35140    2.27020    0.00000    2.01410 2640.00000
 2654.00000    1.87000    1.89900    1.99610    2.04730    1.91330    1.94280    2.03280    2.08120    0.26200  130.90910   79.36990    9.11510   -0.00530    0.43290    3.25710    0.34020    2.26190    0.02080    2.00710 2631.00000
 2654.50000    1.84530    1.87590    1.97180    2.01660    1.87290    1.90970    2.00140    2.04480    0.27170  132.00000   82.38420    9.12680   -0.00380    0.43160    3.30150    0.34660    2.24540    0.02830    1.99270 2636.00000
 2655.00000    1.81200    1.84390    1.93810    1.97600    1.80730    1.84150    1.93370    1.96040    0.27470  132.00000   82.55890    8.97460   -0.00290    0.48160    3.29790    0.34940    2.24030    0.02320    1.97010 2626.00000
 2655.50000    1.77520    1.80810    1.90010    1.93550    1.76540    1.80320    1.89570    1.93080    0.27690  132.90910   80.44290    8.90440   -0.00320    0.46730    3.29290    0.35910    2.23640    0.02030    1.94060 2637.00000
 2656.00000    1.73740    1.77000    1.85910    1.89290    1.73770    1.77120    1.85720    1.88510    0.27610  132.90910   80.42810    8.90440   -0.00630    0.44460    3.28670    0.35980    2.23790    0.01660    1.90690 2649.00000
 2656.50000    1.69570    1.72590    1.81160    1.84390    1.69880    1.74190    1.82660    1.86270    0.27360  137.63640   83.04260    8.86930   -0.00540    0.45160    3.30010    0.35010    2.24220    0.02090    1.87020 2618.00000
 2657.00000    1.65160    1.68330    1.76560    1.79280    1.67260    1.70670    1.78870    1.82630    0.27440  135.63640   90.67970    8.88100   -0.00400    0.43980    3.33210    0.33810    2.24080    0.02200    1.82850 2626.00000
 2657.50000    1.60970    1.63390    1.71280    1.74070    1.64840    1.68140    1.75770    1.79980    0.28050  134.00000   98.59740    8.89270   -0.00420    0.39790    3.35960    0.34230    2.23030    0.01950    1.78170 2642.00000
 2658.00000    1.57590    1.59660    1.67290    1.70510    1.51210    1.53540    1.60440    1.63770    0.28900  134.00000  106.03550    8.88100   -0.00580    0.46460    3.36520    0.35730    2.21580    0.01590    1.73590 2612.00000
 2658.50000    1.57060    1.59070    1.66610    1.70310    1.41550    1.42180    1.47350    1.50710    0.28900  134.00000  107.05110    8.95120   -0.00580    0.48520    3.35020    0.35390    2.21580    0.00680    1.70310 2649.00000
 2659.00000    1.61070    1.63180    1.71210    1.74170    1.51600    1.54490    1.61460    1.65620    0.28350  133.63640  100.38790    9.00970   -0.00610    0.40190    3.32850    0.34990    2.22530    0.01200    1.69590 2656.00000
 2659.50000    1.67980    1.69660    1.78400    1.81950    1.69730    1.73700    1.82980    1.89190    0.27650  132.00000   91.61340    9.04490   -0.00630    0.41690    3.31910    0.34100    2.23730    0.01800    1.72030 2621.00000
 2660.00000    1.73900    1.76180    1.85700    1.89180    1.86930    1.87840    1.97990    2.03770    0.27510  130.90910   81.56610    9.00970   -0.00810    0.46030    3.30200    0.35430    2.23960    0.02650    1.77130 2615.00000
 2660.50000    1.79700    1.82110    1.92340    1.95560    1.89710    1.92290    2.02860    2.07210    0.27100  130.00000   75.21280    8.96290   -0.00820    0.42240    3.26300    0.33550    2.24650    0.01750    1.83450 2658.00000
 2661.00000    1.81500    1.83880    1.94400    1.97920    1.86440    1.89540    2.00640    2.04330    0.26590  130.00000   72.67260    8.93950   -0.00780    0.39790    3.21630    0.33340    2.25530    0.01290    1.89010 2644.00000
 2661.50000    1.79980    1.82570    1.93010    1.96380    1.81860    1.85160    1.95730    2.00230    0.25980  130.90910   77.32140    8.89270   -0.00570    0.39940    3.21200    0.33350    2.26570    0.00740    1.92340 2657.00000
 2662.00000    1.78500    1.81350    1.91690    1.94700    1.77270    1.80980    1.91510    1.95510    0.26190  132.00000   82.12510    8.88100   -0.00490    0.47930    3.27490    0.34790    2.26220    0.02060    1.93210 2639.00000
 2662.50000    1.77170    1.80180    1.90580    1.93820    1.70610    1.73290    1.83640    1.88080    0.26550  132.00000   81.68300    8.78730   -0.00340    0.46800    3.39130    0.35420    2.25610    0.03030    1.92560 2649.00000
 2663.00000    1.77530    1.80770    1.91050    1.94520    1.69100    1.72730    1.82180    1.85550    0.26970  131.63640   82.76770    8.75220   -0.00290    0.43390    3.53380    0.33650    2.24880    0.03000    1.91770 2656.00000
 2663.50000    1.79860    1.83240    1.93810    1.97250    1.79730    1.82000    1.92300    1.96250    0.26790  130.00000   84.62590    8.68190   -0.00170    0.40070    3.63640    0.32820    2.25190    0.06320    1.91860 2643.00000
 2664.00000    1.82070    1.85610    1.96470    2.00180    1.87620    1.91280    2.02000    2.06420    0.26540  128.72730   88.32480    8.61170   -0.00190    0.37060    3.67890    0.32060    2.25620    0.06660    1.93120 2614.00000
 2664.50000    1.83800    1.87300    1.98240    2.01640    1.91680    1.95640    2.06730    2.10940    0.26220  128.00000   89.77680    8.67020   -0.00270    0.39520    3.64670    0.33030    2.26170    0.07040    1.94880 2646.00000
 2665.00000    1.82790    1.86200    1.97130    2.00240    1.89070    1.93400    2.04180    2.08550    0.26170  128.90910   88.69340    8.65850   -0.00360    0.41880    3.60930    0.32770    2.26250    0.02250    1.95890 2661.00000
 2665.50000    1.79600    1.82980    1.93590    1.96490    1.81520    1.85330    1.95730    1.99260    0.26160  130.90910   87.14180    8.74050   -0.00310    0.38420    3.57070    0.32740    2.26270    0.02340    1.95220 2635.00000
 2666.00000    1.75730    1.79110    1.89170    1.91940    1.74460    1.78240    1.87740    1.90350    0.26520  130.36360   83.36540    8.79900   -0.00240    0.41480    3.58740    0.33260    2.25660    0.00280    1.92770 2627.00000
