~Version ---------------------------------------------------
VERS     .                                                                         2.0 : CWLS log ASCII Standard -VERSION 2.0
WRAP     .                                                                          NO : One Line per depth step
PROD     .                                                                Schlumberger : LAS Producer
PROG     .                                                      DLIS to ASCII 16C0-147 : LAS Program name and version
CREA     . 2008/03/25 04:07                          :LAS Creation date {YYYY/MM/DD hh : mm}
DLIS_CREA.     2008-Mar-25	03:02			       :DLIS Creation date and time {YYYY-MMM-DD hh : mm}
SOURCE   .                                             AIT_TLD_MCFL_CNL_IS_017PUP.DLIS : DLIS File Name
FILE-ID  .                                                  AIT_TLD_MCFL_CNL_IS_017PUP : File Identification Number
~Well ------------------------------------------------------
STRT.F      2124.0 : START DEPTH
STOP.F     10116.0 : STOP DEPTH
STEP.F         0.5 : STEP
NULL.      -999.25 : NULL VALUE
COMP.              : COMPANY
WELL.              : WELL
FLD .      WILDCAT : FIELD
LOC .              : LOCATION
CNTY.              : COUNTY
STAT.              : STATE
CTRY.              : COUNTRY
API .              : API NUMBER
UWI .              : UNIQUE WELL ID
DATE.              : LOG DATE {DD-MMM-YYYY}
SRVC. Schlumberger : SERVICE COMPANY
LATI.DEG         0 : LATITUDE
LONG.DEG         0 : LONGITUDE
GDAT.              : GeoDetic Datum
SECT.              : Section
RANG.              : Range
TOWN.              : Township
~Curve Information -----------------------------------------
DEPT     .F     : DEPTH (BOREHOLE) {F10.1}
AF20     .OHMM  : Array Induction Four Foot Resistivity A20 {F13.4}
AF30     .OHMM  : Array Induction Four Foot Resistivity A30 {F13.4}
AF60     .OHMM  : Array Induction Four Foot Resistivity A60 {F13.4}
AF90     .OHMM  : Array Induction Four Foot Resistivity A90 {F13.4}
AT20     .OHMM  : Array Induction Two Foot Resistivity A20 {F13.4}
AT30     .OHMM  : Array Induction Two Foot Resistivity A30 {F13.4}
AT60     .OHMM  : Array Induction Two Foot Resistivity A60 {F13.4}
AT90     .OHMM  : Array Induction Two Foot Resistivity A90 {F13.4}
DPHZ     .CFCF  : HRDD Standard Resolution Density Porosity {F13.4}
DTCO3    .US/F  : Compressional Slowness from Measurement 3 {F13.4}
GR       .GAPI  : Gamma-Ray {F13.4}
HCAL     .IN    : HRCC Cal. Caliper {F13.4}
HDRA     .G/C3  : HRDD Density Correction {F13.4}
NPOR     .CFCF  : Enhanced Thermal Neutron Porosity {F13.4}
PEFZ     .      : HRDD Standard Resolution Formation Photoelectric Factor {F13.4}
PXND_HILT.CFCF  : HILT Porosity CrossPlot {F13.4}
RHOZ     .G/C3  : HRDD Standard Resolution Formation Density {F13.4}
RSOZ     .IN    : MCFL Standard Resolution Resistivity Standoff {F13.4}
RT       .OHMM  : True Resistivity {F13.4}
TENS     .LBF   : Cable Tension {F13.4}
~Params ----------------------------------------------------
RUN .           ONE : RUN NUMBER
PDAT.  GROUND LEVEL : Permanent Datum
EPD .               : Elevation of Permanent Datum above Mean Sea Level
LMF . KELLY BUSHING : Logging Measured From (Name of Logging Elevation Reference)
APD .               : Elevation of Depth Reference (LMF) above Permanent Datum
~Other -----------------------------------------------------
~ASCII -----------------------------------------------------
# ...
 4784.00000    1.53420    1.52240    1.52780    1.52440    1.42630    1.41720    1.40820    1.43780    0.17270  105.09090  123.76640    8.64680   -0.00390    0.32860    3.02460    0.26200    2.41470    0.01720    1.55830 3262.00000
 4784.50000    1.56800    1.55490    1.56070    1.55560    1.46740    1.45610    1.45390    1.48230    0.16210  102.00000  121.79630    8.69360   -0.00140    0.35890    3.13500    0.25880    2.43270    0.00410    1.55640 3318.00000
 4785.00000    1.63520    1.61990    1.62620    1.62030    1.61160    1.58610    1.57350    1.60490    0.14040   98.00000  110.76180    8.67020    0.01820    0.35780    3.24300    0.25090    2.46990    0.00000    1.57620 3294.00000
 4785.50000    1.72850    1.71060    1.71810    1.71410    1.77410    1.75990    1.73300    1.74930    0.13880   94.36360   94.56510    8.67020    0.02550    0.27980    3.25350    0.22940    2.47260    0.00340    1.62300 3260.00000
 4786.00000    1.81940    1.80690    1.81230    1.80570    1.82980    1.81160    1.78870    1.81400    0.14360   91.63640   80.54600    8.64680    0.02740    0.22150    3.27650    0.21710    2.46440    0.00000    1.69680 3302.00000
 4786.50000    1.93060    1.92760    1.93380    1.91730    1.88760    1.87700    1.84550    1.86310    0.16250   91.09090   72.98550    8.68190    0.01110    0.25400    3.42170    0.21380    2.43210    0.00000    1.79310 3299.00000
 4787.00000    2.02320    2.03050    2.04600    2.01830    2.09340    2.11040    2.08200    2.08090    0.15380   87.09090   63.91400    8.67020    0.00990    0.24340    3.91080    0.21240    2.44700    0.00300    1.89920 3298.00000
 4787.50000    2.04500    2.05970    2.08410    2.06960    2.40030    2.48980    2.46520    2.48850    0.11910   86.00000   54.92640    8.35410    0.02420    0.25390    4.46800    0.20340    2.50640    0.02690    1.99010 3350.00000
 4788.00000    1.98690    2.00480    2.02940    2.01110    2.31880    2.36340    2.33370    2.35430    0.07460   88.36360   59.11030    8.47120    0.05310    0.22330    4.68760    0.18300    2.58250    0.02360    2.03270 3311.00000
 4788.50000    1.88230    1.90410    1.93090    1.91400    1.85280    1.87550    1.88220    1.89710    0.07990   91.63640   65.08260    8.64680    0.05660    0.22040    4.33950    0.19070    2.57330    0.02260    2.00800 3270.00000
 4789.00000    1.79340    1.81340    1.84160    1.83130    1.60820    1.63530    1.63370    1.65600    0.12030  100.00000   78.56400    8.69360    0.03860    0.31070    3.74060    0.21950    2.50430    0.01920    1.93060 3305.00000
 4789.50000    1.71660    1.73020    1.75260    1.74240    1.63320    1.66260    1.65670    1.68660    0.16210  100.72730   83.52270    8.64680    0.00880    0.30020    3.26020    0.24140    2.43280    0.00950    1.83480 3295.00000
 4790.00000    1.66440    1.67490    1.69570    1.69090    1.70520    1.73330    1.72650    1.76370    0.16840  101.84710   94.29770    8.67020   -0.00080    0.26680    3.01670    0.24040    2.42210    0.00000    1.74710 3294.00000
 4790.50000    1.62750    1.63240    1.65090    1.64890    1.66880    1.68050    1.67210    1.70040    0.15960  102.00000   96.33430    8.70530    0.00040    0.29940    2.91600    0.23980    2.43700    0.00000    1.67660 3333.00000
 4791.00000    1.59270    1.59520    1.61290    1.61380    1.56850    1.57020    1.56360    1.58740    0.16090  104.00000  105.94170    8.67020    0.00060    0.31620    2.89740    0.24650    2.43480    0.01570    1.62300 3289.00000
 4791.50000    1.56730    1.56910    1.58520    1.58830    1.46710    1.46600    1.45770    1.47990    0.16280  106.00000  108.64800    8.67020    0.00150    0.29910    2.94110    0.24110    2.43150    0.01000    1.58530 3278.00000
 4792.00000    1.55630    1.55780    1.57530    1.58200    1.49910    1.50900    1.50240    1.51540    0.15930  104.00000  108.00620    8.72880    0.00310    0.28220    2.99760    0.23820    2.43770    0.00000    1.56410 3304.00000
 4792.50000    1.55680    1.55770    1.56990    1.57680    1.57460    1.59250    1.59270    1.60430    0.15490  102.00000   99.51490    8.75220    0.00360    0.29880    3.03440    0.23600    2.44510    0.00680    1.55750 3268.00000
 4793.00000    1.54610    1.54530    1.55510    1.56140    1.62610    1.63350    1.62210    1.64530    0.15720  100.00000   92.23190    8.70530    0.00200    0.26440    3.07260    0.23640    2.44120    0.01280    1.55520 3289.00000
 4793.50000    1.51060    1.50810    1.51470    1.52060    1.62660    1.63620    1.62420    1.64270    0.16410  100.00000   90.37240    8.63510    0.00130    0.26720    3.13740    0.23600    2.42940    0.02360    1.54200 3347.00000
 4794.00000    1.44930    1.44550    1.44870    1.45420    1.53940    1.54540    1.52610    1.53900    0.16890  102.00000   87.86150    8.61170    0.00450    0.31110    3.28950    0.24750    2.42110    0.01710    1.50470 3311.00000
 4794.50000    1.38610    1.38000    1.37900    1.38270    1.36450    1.37510    1.35530    1.37030    0.16820  104.72730   91.42560    8.55310    0.00990    0.29370    3.46160    0.25070    2.42230    0.03670    1.44540 3305.00000
 4795.00000    1.33400    1.32850    1.33040    1.32990    1.21180    1.21120    1.19870    1.21380    0.16820  108.00000   93.91780    8.52970    0.00790    0.34400    3.57130    0.25580    2.42240    0.03180    1.38030 3326.00000
 4795.50000    1.31270    1.30630    1.30660    1.30360    1.19570    1.19550    1.19040    1.19460    0.14290  106.72730   94.84750    8.58830    0.00110    0.36280    3.76470    0.24910    2.46570    0.03170    1.32690 3295.00000
 4796.00000    1.30160    1.28940    1.29000    1.28600    1.31380    1.30510    1.28390    1.29420    0.09980  103.63640   90.97360    8.56480    0.00030    0.35320    4.08810    0.23710    2.53930    0.06480    1.29310 3287.00000
 4796.50000    1.28980    1.28060    1.28280    1.27590    1.50420    1.50050    1.49330    1.48260    0.04440  101.27270   84.29750    8.69360    0.01120    0.31760    4.31510    0.21110    2.63420    0.05730    1.27450 3311.00000
 4797.00000    1.26160    1.25050    1.25070    1.24380    1.32410    1.30530    1.29420    1.28900    0.05490  103.63640   89.25620    8.65850    0.01710    0.34070    4.13340    0.21710    2.61620    0.05610    1.26000 3289.00000
 4797.50000    1.22350    1.21810    1.21940    1.20910    1.16840    1.15890    1.14590    1.13760    0.09920  109.09090   92.58060    8.81070    0.01330    0.37780    3.61230    0.23130    2.54030    0.02420    1.24030 3290.00000
 4798.00000    1.18960    1.18080    1.18110    1.17200    1.11770    1.12110    1.11680    1.11250    0.15900  110.90910  100.01860    8.76390    0.00190    0.32800    3.18700    0.25890    2.43800    0.01250    1.21480 3310.00000
 4798.50000    1.16460    1.15650    1.15540    1.14800    1.14480    1.14340    1.13800    1.13800    0.17900  111.27270   97.09650    8.75220   -0.00290    0.33360    2.99770    0.26310    2.40400    0.00000    1.18930 3302.00000
 4799.00000    1.15550    1.14790    1.14820    1.13880    1.16220    1.15580    1.14750    1.14940    0.18470  111.63640   98.42080    8.72880   -0.00480    0.33910    2.98180    0.27070    2.39420    0.00000    1.16920 3300.00000
 4799.50000    1.15740    1.14850    1.14890    1.13870    1.15030    1.14390    1.13770    1.13970    0.18840  112.90910   99.81540    8.71710   -0.00650    0.32960    2.99530    0.27270    2.38780    0.00000    1.15660 3300.00000
 4800.00000    1.16520    1.15440    1.15540    1.14460    1.13900    1.13110    1.12940    1.12860    0.18900  112.90910  100.78010    8.69360   -0.00540    0.34640    3.04980    0.27730    2.38670    0.00000    1.15180 3307.00000
 4800.50000    1.17930    1.16750    1.16880    1.15730    1.15920    1.14940    1.14690    1.14570    0.18930  111.63640  104.80900    8.69360   -0.00240    0.35690    3.17690    0.27900    2.38630    0.00000    1.15400 3307.00000
 4801.00000    1.19290    1.18060    1.18410    1.16900    1.20480    1.19550    1.19680    1.18810    0.18540  110.00000   99.38550    8.64680    0.00840    0.36300    3.40970    0.27770    2.39300    0.00920    1.16270 3309.00000
