~Version ---------------------------------------------------
VERS     .                                                                         2.0 : CWLS log ASCII Standard -VERSION 2.0
WRAP     .                                                                          NO : One Line per depth step
PROD     .                                                                Schlumberger : LAS Producer
PROG     .                                                      DLIS to ASCII 16C0-147 : LAS Program name and version
CREA     . 2008/03/25 04:07                          :LAS Creation date {YYYY/MM/DD hh : mm}
DLIS_CREA.     2008-Mar-25	03:02			       :DLIS Creation date and time {YYYY-MMM-DD hh : mm}
SOURCE   .                                             AIT_TLD_MCFL_CNL_IS_017PUP.DLIS : DLIS File Name
FILE-ID  .                                                  AIT_TLD_MCFL_CNL_IS_017PUP : File Identification Number
~Well ------------------------------------------------------
STRT.F      2124.0 : START DEPTH
STOP.F     10116.0 : STOP DEPTH
STEP.F         0.5 : STEP
NULL.      -999.25 : NULL VALUE
COMP.              : COMPANY
WELL.              : WELL
FLD .      WILDCAT : FIELD
LOC .              : LOCATION
CNTY.              : COUNTY
STAT.              : STATE
CTRY.              : COUNTRY
API .              : API NUMBER
UWI .              : UNIQUE WELL ID
DATE.              : LOG DATE {DD-MMM-YYYY}
SRVC. Schlumberger : SERVICE COMPANY
LATI.DEG         0 : LATITUDE
LONG.DEG         0 : LONGITUDE
GDAT.              : GeoDetic Datum
SECT.              : Section
RANG.              : Range
TOWN.              : Township
~Curve Information -----------------------------------------
DEPT     .F     : DEPTH (BOREHOLE) {F10.1}
AF20     .OHMM  : Array Induction Four Foot Resistivity A20 {F13.4}
AF30     .OHMM  : Array Induction Four Foot Resistivity A30 {F13.4}
AF60     .OHMM  : Array Induction Four Foot Resistivity A60 {F13.4}
AF90     .OHMM  : Array Induction Four Foot Resistivity A90 {F13.4}
AT20     .OHMM  : Array Induction Two Foot Resistivity A20 {F13.4}
AT30     .OHMM  : Array Induction Two Foot Resistivity A30 {F13.4}
AT60     .OHMM  : Array Induction Two Foot Resistivity A60 {F13.4}
AT90     .OHMM  : Array Induction Two Foot Resistivity A90 {F13.4}
DPHZ     .CFCF  : HRDD Standard Resolution Density Porosity {F13.4}
DTCO3    .US/F  : Compressional Slowness from Measurement 3 {F13.4}
GR       .GAPI  : Gamma-Ray {F13.4}
HCAL     .IN    : HRCC Cal. Caliper {F13.4}
HDRA     .G/C3  : HRDD Density Correction {F13.4}
NPOR     .CFCF  : Enhanced Thermal Neutron Porosity {F13.4}
PEFZ     .      : HRDD Standard Resolution Formation Photoelectric Factor {F13.4}
PXND_HILT.CFCF  : HILT Porosity CrossPlot {F13.4}
RHOZ     .G/C3  : HRDD Standard Resolution Formation Density {F13.4}
RSOZ     .IN    : MCFL Standard Resolution Resistivity Standoff {F13.4}
RT       .OHMM  : True Resistivity {F13.4}
TENS     .LBF   : Cable Tension {F13.4}
~Params ----------------------------------------------------
RUN .           ONE : RUN NUMBER
PDAT.  GROUND LEVEL : Permanent Datum
EPD .               : Elevation of Permanent Datum above Mean Sea Level
LMF . KELLY BUSHING : Logging Measured From (Name of Logging Elevation Reference)
APD .               : Elevation of Depth Reference (LMF) above Permanent Datum
~Other -----------------------------------------------------
~ASCII -----------------------------------------------------
# ...
 9579.00000   46.76030   45.45700   43.24330   43.06490   46.82170   45.23050   42.74330   42.60300   -0.00160   54.72730   28.42760    8.62340    0.00500    0.05820    4.62540    0.04910    2.71280    0.00000   41.70990 4891.00000
 9579.50000   49.21130   47.82820   46.00470   45.17850   48.01680   46.44010   44.96960   44.00120    0.00700   54.36360   25.32260    8.62340    0.00180    0.05220    4.60970    0.04820    2.69800    0.00000   41.31270 4853.00000
 9580.00000   51.99510   50.62820   48.85420   47.56620   53.16270   51.84220   49.63210   47.95630    0.01320   54.36360   25.83510    8.61560   -0.00080    0.04880    4.63320    0.04730    2.68740    0.00000   52.68430 4970.00000
 9580.50000   55.12170   53.67090   52.10770   50.27710   57.69050   56.70180   53.77020   51.98780    0.01400   53.63640   22.64350    8.59220   -0.00290    0.04640    4.60860    0.04580    2.68610    0.00000   54.80920 4977.00000
 9581.00000   58.97740   57.37430   55.34710   53.75910   56.77050   55.77360   54.69390   51.61560    0.01670   54.36360   25.47930    8.59220   -0.00550    0.04280    4.59250    0.04400    2.68140    0.00000   53.70150 4947.00000
 9581.50000   64.51130   62.60970   59.59630   58.90750   55.48500   53.63790   50.93590   49.53780    0.01880   54.36360   24.49250    8.60000   -0.00630    0.05320    4.58970    0.04650    2.67780    0.00000   42.89220 4820.00000
 9582.00000   72.66110   70.29580   65.62750   65.97110   66.66070   65.08820   61.53120   60.26780    0.01880   53.63640   22.60840    8.59220   -0.00510    0.05350    4.62210    0.04450    2.67790    0.00000   56.80380 4889.00000
 9582.50000   83.89880   80.84260   73.60920   74.70410   95.97290   92.46810   81.71200   80.44770    0.01200   53.27270   19.02190    8.58830   -0.00170    0.03560    4.64100    0.04000    2.68940    0.00000   88.28540 4849.00000
 9583.00000   97.74200   93.89320   83.11750   85.25210  116.13330  111.43850   95.40430   96.84130    0.00820   52.72730   16.59820    8.60000    0.00000    0.03100    4.65040    0.03450    2.69590    0.00000   94.78330 4917.00000
 9583.50000  113.57850  108.74810   94.00640   97.22250  121.45230  113.71150   93.76310   97.17830    0.01070   52.72730   16.41880    8.58830   -0.00080    0.03440    4.66170    0.03400    2.69170    0.00000  100.93250 4932.00000
 9584.00000  130.85050  124.64110  106.99000  111.40240  132.55670  125.61800  107.33610  108.73170    0.01320   52.72730   17.40350    8.59220   -0.00160    0.04100    4.62100    0.03300    2.68740    0.00000  115.09590 4811.00000
 9584.50000  148.57860  140.54010  122.86640  127.15860  157.40390  148.64990  120.81950  132.90600    0.01250   52.72730   17.04600    8.60780   -0.00120    0.03160    4.55230    0.03210    2.68860    0.00870  134.99340 4923.00000
 9585.00000  162.29180  152.95840  134.65000  137.31470  187.31560  171.36460  149.35730  150.72270    0.01010   52.36360   17.31520    8.62340    0.00020    0.02900    4.46580    0.02930    2.69280    0.00140  170.22860 4957.00000
 9585.50000  171.86710  162.63770  143.42260  145.55550  193.70710  177.75670  157.85370  158.66690    0.01260   52.00000   15.16200    8.60780    0.00010    0.02600    4.40090    0.02740    2.68850    0.00000  159.41660 4965.00000
 9586.00000  176.85270  168.83460  148.80200  150.27440  180.91790  171.68940  157.62020  155.57440    0.01350   52.36360   14.53400    8.61750    0.00040    0.02500    4.34590    0.02650    2.68690    0.00000  140.26880 4978.00000
 9586.50000  176.86670  170.13740  150.36900  151.15130  164.74950  160.92980  147.56660  148.90540    0.01340   52.36360   13.81620    8.61750    0.00040    0.02750    4.33820    0.02750    2.68700    0.00000  142.62850 4820.00000
 9587.00000  172.73620  166.62070  145.97310  144.18210  175.49300  171.19660  146.95460  148.39580    0.01130   51.63640   14.44620    8.62340    0.00030    0.03180    4.38820    0.03090    2.69070    0.00000  143.94930 4789.00000
 9587.50000  162.22000  156.71570  135.66600  135.84010  210.21780  197.44930  148.47170  169.29960    0.00860   52.00000   14.89470    8.59220   -0.00030    0.03340    4.46950    0.02970    2.69530    0.00200  172.63550 4917.00000
 9588.00000  146.67690  142.29990  124.44830  126.15990  197.64030  178.57570  151.14360  151.58600    0.01000   51.63640   17.58620    8.60780   -0.00270    0.02790    4.55640    0.03030    2.69300    0.00000  190.45820 4820.00000
 9588.50000  130.13010  126.98370  113.18550  113.93650  137.20550  132.90460  115.77570  115.95800    0.01550   52.72730   20.27580    8.60000   -0.00600    0.02630    4.65170    0.02980    2.68350    0.00000  112.40470 4861.00000
 9589.00000  116.58100  114.23610  103.37660  104.41840   99.45940   99.05450   90.33420   90.78870    0.02310   52.72730   23.32610    8.60780   -0.00910    0.03450    4.73150    0.03440    2.67060    0.00000   86.02610 4882.00000
 9589.50000  107.14990  105.15950   95.80490   96.13470   87.93920   86.24330   80.37170   80.41430    0.02040   52.36360   21.44210    8.60000   -0.00750    0.04240    4.73300    0.03560    2.67520    0.00000   71.99420 4950.00000
 9590.00000  100.07730   98.24190   89.65090   89.47040  102.09910   99.99170   90.86410   89.46940    0.01610   52.36360   20.27580    8.60000   -0.00470    0.04010    4.74790    0.03550    2.68250    0.00580   91.82220 4864.00000
 9590.50000   92.66030   90.89470   83.54770   82.49320  121.16930  117.43250  102.79850  101.10590    0.00920   52.36360   17.94320    8.58440   -0.00110    0.03470    4.74610    0.03360    2.69430    0.00210  128.63340 4836.00000
 9591.00000   83.70920   82.23510   75.90500   74.79980  106.97290  101.22620   92.74640   89.22210    0.00510   52.36360   17.67400    8.60000    0.00100    0.03390    4.72930    0.03520    2.70130    0.00000   87.81480 4856.00000
 9591.50000   74.49140   73.41450   68.94180   68.34720   77.47600   75.70610   69.86800   69.00500    0.00530   52.90910   20.36550    8.59410    0.00060    0.03430    4.69400    0.03770    2.70100    0.00000   65.79640 4935.00000
 9592.00000   67.17460   66.43650   63.10000   62.27080   55.84810   55.79900   53.50180   53.03250    0.00500   53.27270   23.69130    8.58440   -0.00010    0.04800    4.62440    0.04290    2.70150    0.00000   48.58720 4992.00000
 9592.50000   62.64740   62.05560   59.30940   58.72340   49.91100   48.98180   47.82090   46.49080    0.01110   53.63640   24.76790    8.59410   -0.00260    0.05730    4.63930    0.04700    2.69100    0.00000   37.14990 4860.00000
 9593.00000   60.35500   59.82770   57.68990   57.28280   61.97170   61.28660   59.31730   57.30510    0.01020   53.27270   21.44840    8.60000   -0.00210    0.04790    4.61820    0.04680    2.69260    0.00000   60.18840 4865.00000
 9593.50000   58.96150   58.46140   56.73630   56.26910   72.64340   71.37770   66.69490   64.72870    0.00770   53.27270   20.54500    8.60000   -0.00010    0.03770    4.61690    0.04450    2.69680    0.00000   78.38590 4863.00000
 9594.00000   57.36950   56.90010   55.28120   55.29420   59.57040   58.80100   57.24760   55.68750    0.00620   53.63640   24.13360    8.61750    0.00160    0.04870    4.58410    0.04540    2.69950    0.00000   54.07370 4919.00000
 9594.50000   55.97370   55.37660   53.98530   54.40280   49.67620   50.13800   50.09470   48.68570    0.00740   54.36360   27.99140    8.59220    0.00190    0.06210    4.56460    0.04930    2.69730    0.00000   42.23730 4856.00000
 9595.00000   54.79710   53.94380   52.15330   53.44080   51.06530   50.35140   51.27030   48.30950    0.00950   54.36360   30.88390    8.60000    0.00080    0.05450    4.53320    0.05010    2.69380    0.00000   52.57020 4851.00000
 9595.50000   54.10110   52.99240   50.58920   51.47250   54.20350   53.13470   50.57370   50.64380    0.00200   54.00000   28.46150    8.61560    0.00340    0.04900    4.50590    0.04860    2.70660    0.00000   55.56580 4822.00000
 9596.00000   53.82830   52.59210   50.36580   51.20300   55.96970   55.31150   49.31640   52.81500   -0.00350   54.36360   27.92320    8.60580    0.00490    0.05040    4.46430    0.04610    2.71600    0.00000   62.04440 4777.00000
