~Version ---------------------------------------------------
VERS     .                                                                         2.0 : CWLS log ASCII Standard -VERSION 2.0
WRAP     .                                                                          NO : One Line per depth step
PROD     .                                                                Schlumberger : LAS Producer
PROG     .                                                      DLIS to ASCII 15C0-309 : LAS Program name and version
CREA     . 2008/02/21 06:17                          :LAS Creation date {YYYY/MM/DD hh : mm}
DLIS_CREA.     2008-Feb-21	03:10			       :DLIS Creation date and time {YYYY-MMM-DD hh : mm}
SOURCE   .                                                             CMR_058LUP.DLIS : DLIS File Name
FILE-ID  .                                                                  CMR_058LUP : File Identification Number
~Well ------------------------------------------------------
STRT.F     10520.0 : START DEPTH
STOP.F      9849.0 : STOP DEPTH
STEP.F        -0.5 : STEP
NULL.      -999.25 : NULL VALUE
COMP.              : COMPANY
WELL.       Bakken : WELL
FLD .              : FIELD
LOC .              : LOCATION
CNTY.              : COUNTY
STAT.    N. DAKOTA : STATE
CTRY.              : COUNTRY
API .              : API NUMBER
UWI .              : UNIQUE WELL ID
DATE.              : LOG DATE {DD-MMM-YYYY}
SRVC. Schlumberger : SERVICE COMPANY
LATI.DEG         0 : LATITUDE
LONG.DEG         0 : LONGITUDE
GDAT.              : GeoDetic Datum
SECT.           28 : Section
RANG.          92W : Range
TOWN.         154N : Township
~Curve Information -----------------------------------------
DEPT          .F     : DEPTH (BOREHOLE) {F10.1}
BS            .IN    : Bit Size {F13.4}
TENS          .LBF   : Cable Tension {F13.4}
GR_EDTC       .GAPI  : Gamma Ray {F13.4}
CMRP_3MS      .CFCF  : CMR 3ms Porosity {F13.4}
CMFF          .CFCF  : CMR Free Fluid {F13.4}
KSDR          .MD    : Permeability from CMR - SDR Model {F13.4}
KTIM          .MD    : Permeability from CMR - Timur Model {F13.4}
T2LM          .MS    : T2 Logarithmic Mean {F13.4}
TCMR          .CFCF  : Total CMR Porosity {F13.4}
CMRP_3MS_MW[0].CFCF  : CMR 3ms Porosity - Multi Wait {AF13.4}
CBP1          .CFCF  : CMR Bin Porosity 1 {F13.4}
CBP2          .CFCF  : CMR Bin Porosity 2 {F13.4}
CBP3          .CFCF  : CMR Bin Porosity 3 {F13.4}
CBP4          .CFCF  : CMR Bin Porosity 4 {F13.4}
CBP5          .CFCF  : CMR Bin Porosity 5 {F13.4}
CBP6          .CFCF  : CMR Bin Porosity 6 {F13.4}
CBP7          .CFCF  : CMR Bin Porosity 7 {F13.4}
CBP8          .CFCF  : CMR Bin Porosity 8 {F13.4}
CFF2          .CFCF  : CMR Free Fluid Porosity for T2 Cutoff 2 {F13.4}
T2_DIST_MW[0] .CFCF  : T2 Distribution - Multi Wait {AF13.4}
T2CUTOFF      .MS    : T2 Cutoff {F13.4}
~Params ----------------------------------------------------
RUN .           ONE : RUN NUMBER
PDAT.  GROUND LEVEL : Permanent Datum
EPD .F       2111.0 : Elevation of Permanent Datum above Mean Sea Level
LMF . KELLY BUSHING : Logging Measured From (Name of Logging Elevation Reference)
APD .F         18.0 : Elevation of Depth Reference (LMF) above Permanent Datum
~Other -----------------------------------------------------
~ASCII -----------------------------------------------------
# ...
 10124.00000    8.75000 3461.00000   77.70790    0.05560    0.02410    0.02480    0.06360   17.74730    0.06660    0.05660    0.00870    0.00230    0.02350    0.00790    0.00000    0.01350    0.01070    0.00000    0.05560    0.00000   33.00000
 10123.50000    8.75000 3461.00000   71.51840    0.05060    0.02500    0.01680    0.06990   15.20770    0.06520    0.05190    0.00890    0.00580    0.02120    0.00440    0.00150    0.01710    0.00640    0.00000    0.05060    0.00000   33.00000
 10123.00000    8.75000 3485.00000   64.07510    0.04380    0.01810    0.00630    0.02280   12.30770    0.05680    0.04020    0.00460    0.00850    0.02130    0.00440    0.00110    0.01560    0.00140    0.00000    0.04380    0.00060   33.00000
 10122.50000    8.75000 3429.00000   61.05440    0.04050    0.00880    0.00260    0.00260   11.69520    0.04670    0.03470    0.00070    0.00550    0.02070    0.01110    0.00000    0.00760    0.00120    0.00000    0.04050    0.00140   33.00000
 10122.00000    8.75000 3446.00000   65.25030    0.04290    0.00840    0.00390    0.00200   16.69320    0.04320    0.04180    0.00000    0.00030    0.01930    0.01520    0.00000    0.00590    0.00250    0.00000    0.04290    0.00040   33.00000
 10121.50000    8.75000 3461.00000   73.69490    0.04760    0.01360    0.01460    0.00820   26.58900    0.04760    0.04970    0.00000    0.00000    0.01390    0.02020    0.00000    0.00900    0.00460    0.00000    0.04760    0.00010   33.00000
 10121.00000    8.75000 3453.00000   81.23410    0.05570    0.01850    0.04740    0.02360   35.04130    0.05570    0.05540    0.00000    0.00010    0.01050    0.02670    0.00260    0.00690    0.00830    0.00070    0.05570    0.00000   33.00000
 10120.50000    8.75000 3461.00000   78.05710    0.05880    0.02420    0.12420    0.05860   50.91400    0.05880    0.06160    0.00000    0.00000    0.00990    0.02470    0.01140    0.00040    0.00050    0.01190    0.05880    0.00000   33.00000
 10120.00000    8.75000 3469.00000   73.49340    0.06300    0.02240    0.11210    0.04770   42.11520    0.06300    0.06760    0.00000    0.00000    0.01730    0.02330    0.00870    0.00000    0.00030    0.01340    0.06300    0.00020   33.00000
 10119.50000    8.75000 3451.00000   67.72280    0.06150    0.02110    0.05300    0.03980   28.91390    0.06310    0.06230    0.00060    0.00100    0.02410    0.01640    0.00670    0.00270    0.00330    0.00830    0.06150    0.00160   33.00000
 10119.00000    8.75000 3470.00000   68.18880    0.04870    0.02060    0.01570    0.03610   16.75750    0.06110    0.04630    0.00660    0.00570    0.01950    0.00860    0.00510    0.00600    0.00440    0.00500    0.04870    0.00220   33.00000
 10118.50000    8.75000 3472.00000   68.82810    0.04170    0.02550    0.01810    0.07330   16.85800    0.06320    0.03740    0.00870    0.01280    0.01300    0.00310    0.01240    0.00120    0.00030    0.01170    0.04170    0.00150   33.00000
 10118.00000    8.75000 3463.00000   69.09640    0.04430    0.02600    0.02580    0.08140   17.68190    0.06740    0.03650    0.01080    0.01230    0.01300    0.00530    0.01090    0.00050    0.00040    0.01420    0.04430    0.00010   33.00000
 10117.50000    8.75000 3476.00000   74.81140    0.05110    0.02790    0.03680    0.10530   19.98280    0.06930    0.04620    0.00820    0.01000    0.01910    0.00400    0.00740    0.00650    0.00400    0.01000    0.05110    0.00000   33.00000
 10117.00000    8.75000 3474.00000   76.21920    0.04840    0.02630    0.02280    0.08590   15.94630    0.06880    0.04870    0.00760    0.01280    0.01360    0.00850    0.00750    0.00920    0.00660    0.00310    0.04840    0.00000   33.00000
 10116.50000    8.75000 3464.00000   79.59520    0.04840    0.02250    0.01940    0.05330   14.38440    0.06960    0.04950    0.00650    0.01470    0.00990    0.01610    0.00820    0.00570    0.00620    0.00240    0.04840    0.00000   33.00000
 10116.00000    8.75000 3471.00000   79.10530    0.05340    0.02080    0.03800    0.04190   20.94090    0.06820    0.05160    0.00510    0.00970    0.00930    0.02330    0.00720    0.00070    0.00590    0.00700    0.05340    0.00000   33.00000
 10115.50000    8.75000 3482.00000   80.34570    0.06150    0.01820    0.04360    0.02930   21.50030    0.06970    0.05740    0.00520    0.00300    0.02010    0.02320    0.00110    0.00250    0.00930    0.00530    0.06150    0.00180   33.00000
 10115.00000    8.75000 3448.00000   77.33860    0.06550    0.01730    0.04340    0.02420   23.30050    0.06690    0.06300    0.00000    0.00140    0.03070    0.01750    0.00000    0.00350    0.01010    0.00360    0.06550    0.00230   33.00000
 10114.50000    8.75000 3467.00000   71.50230    0.05490    0.01520    0.01750    0.01490   18.42590    0.05990    0.05380    0.00000    0.00490    0.03030    0.00940    0.00160    0.00390    0.00450    0.00520    0.05490    0.00140   33.00000
 10114.00000    8.75000 3452.00000   69.01190    0.04490    0.01310    0.01100    0.00930   16.37320    0.05660    0.04410    0.00120    0.01050    0.02500    0.00670    0.00250    0.00000    0.00000    0.01060    0.04490    0.00070   33.00000
 10113.50000    8.75000 3490.00000   73.66610    0.04190    0.01230    0.00540    0.00900    9.60470    0.06190    0.03960    0.00600    0.01390    0.02300    0.00660    0.00350    0.00000    0.00080    0.00790    0.04190    0.00130   33.00000
 10113.00000    8.75000 3480.00000   79.32520    0.05030    0.01730    0.01250    0.02640   11.01440    0.07120    0.04900    0.01230    0.00860    0.02050    0.01260    0.00000    0.00400    0.01190    0.00150    0.05030    0.00140   33.00000
 10112.50000    8.75000 3498.00000   82.92130    0.05620    0.02360    0.02720    0.06720   14.41780    0.07560    0.05650    0.01860    0.00080    0.01360    0.01900    0.00000    0.00800    0.01560    0.00000    0.05620    0.00150   33.00000
 10112.00000    8.75000 3495.00000   82.06050    0.05510    0.02570    0.05080    0.07930   24.16800    0.06830    0.05350    0.01320    0.00000    0.00820    0.02120    0.00000    0.00570    0.02000    0.00010    0.05510    0.00140   33.00000
 10111.50000    8.75000 3491.00000   81.09990    0.04930    0.02080    0.03050    0.03780   22.38220    0.06250    0.04740    0.01270    0.00050    0.00530    0.02320    0.00000    0.00400    0.01510    0.00160    0.04930    0.00190   33.00000
 10111.00000    8.75000 3482.00000   69.61200    0.04370    0.01780    0.05120    0.01950   42.38290    0.05170    0.04390    0.00660    0.00140    0.00760    0.01840    0.00000    0.00000    0.00330    0.01440    0.04370    0.00190   33.00000
 10110.50000    8.75000 3508.00000   55.08230    0.04270    0.01700    0.08490    0.01500   73.98300    0.04440    0.04580    0.00050    0.00120    0.01320    0.01250    0.00000    0.00000    0.00000    0.01700    0.04270    0.00050   33.00000
 10110.00000    8.75000 3465.00000   38.87230    0.03610    0.01380    0.02000    0.00800   35.05020    0.04490    0.03990    0.00370    0.00510    0.01070    0.01160    0.00000    0.00000    0.00000    0.01380    0.03610    0.00000   33.00000
 10109.50000    8.75000 3522.00000   33.72540    0.03070    0.00950    0.00760    0.00250   26.91180    0.04020    0.03300    0.00180    0.00770    0.00480    0.01630    0.00000    0.00000    0.00000    0.00950    0.03070    0.00000   33.00000
 10109.00000    8.75000 3489.00000   32.04850    0.02690    0.00680    0.00210    0.00090   16.97310    0.03690    0.02850    0.00430    0.00570    0.00220    0.01790    0.00000    0.00000    0.00240    0.00440    0.02690    0.00000   33.00000
 10108.50000    8.75000 3520.00000   32.86810    0.02690    0.00680    0.00210    0.00090   16.97310    0.03690    0.02850    0.00430    0.00570    0.00220    0.01790    0.00000    0.00000    0.00240    0.00440    0.02690    0.00000   33.00000
 10108.00000    8.75000 3504.00000   33.28350    0.02730    0.01020    0.00200    0.00210   24.51540    0.03020    0.02450    0.00190    0.00100    0.00790    0.00930    0.00000    0.00470    0.00540    0.00000    0.02730    0.00000   33.00000
