~Version ---------------------------------------------------
VERS     .                                                                         2.0 : CWLS log ASCII Standard -VERSION 2.0
WRAP     .                                                                          NO : One Line per depth step
PROD     .                                                                Schlumberger : LAS Producer
PROG     .                                                      DLIS to ASCII 15C0-309 : LAS Program name and version
CREA     . 2008/02/21 06:17                          :LAS Creation date {YYYY/MM/DD hh : mm}
DLIS_CREA.     2008-Feb-21	03:10			       :DLIS Creation date and time {YYYY-MMM-DD hh : mm}
SOURCE   .                                                             CMR_058LUP.DLIS : DLIS File Name
FILE-ID  .                                                                  CMR_058LUP : File Identification Number
~Well ------------------------------------------------------
STRT.F     10520.0 : START DEPTH
STOP.F      9849.0 : STOP DEPTH
STEP.F        -0.5 : STEP
NULL.      -999.25 : NULL VALUE
COMP.              : COMPANY
WELL.       Bakken : WELL
FLD .              : FIELD
LOC .              : LOCATION
CNTY.              : COUNTY
STAT.    N. DAKOTA : STATE
CTRY.              : COUNTRY
API .              : API NUMBER
UWI .              : UNIQUE WELL ID
DATE.              : LOG DATE {DD-MMM-YYYY}
SRVC. Schlumberger : SERVICE COMPANY
LATI.DEG         0 : LATITUDE
LONG.DEG         0 : LONGITUDE
GDAT.              : GeoDetic Datum
SECT.           28 : Section
RANG.          92W : Range
TOWN.         154N : Township
~Curve Information -----------------------------------------
DEPT          .F     : DEPTH (BOREHOLE) {F10.1}
BS            .IN    : Bit Size {F13.4}
TENS          .LBF   : Cable Tension {F13.4}
GR_EDTC       .GAPI  : Gamma Ray {F13.4}
CMRP_3MS      .CFCF  : CMR 3ms Porosity {F13.4}
CMFF          .CFCF  : CMR Free Fluid {F13.4}
KSDR          .MD    : Permeability from CMR - SDR Model {F13.4}
KTIM          .MD    : Permeability from CMR - Timur Model {F13.4}
T2LM          .MS    : T2 Logarithmic Mean {F13.4}
TCMR          .CFCF  : Total CMR Porosity {F13.4}
CMRP_3MS_MW[0].CFCF  : CMR 3ms Porosity - Multi Wait {AF13.4}
CBP1          .CFCF  : CMR Bin Porosity 1 {F13.4}
CBP2          .CFCF  : CMR Bin Porosity 2 {F13.4}
CBP3          .CFCF  : CMR Bin Porosity 3 {F13.4}
CBP4          .CFCF  : CMR Bin Porosity 4 {F13.4}
CBP5          .CFCF  : CMR Bin Porosity 5 {F13.4}
CBP6          .CFCF  : CMR Bin Porosity 6 {F13.4}
CBP7          .CFCF  : CMR Bin Porosity 7 {F13.4}
CBP8          .CFCF  : CMR Bin Porosity 8 {F13.4}
CFF2          .CFCF  : CMR Free Fluid Porosity for T2 Cutoff 2 {F13.4}
T2_DIST_MW[0] .CFCF  : T2 Distribution - Multi Wait {AF13.4}
T2CUTOFF      .MS    : T2 Cutoff {F13.4}
~Params ----------------------------------------------------
RUN .           ONE : RUN NUMBER
PDAT.  GROUND LEVEL : Permanent Datum
EPD .F       2111.0 : Elevation of Permanent Datum above Mean Sea Level
LMF . KELLY BUSHING : Logging Measured From (Name of Logging Elevation Reference)
APD .F         18.0 : Elevation of Depth Reference (LMF) above Permanent Datum
~Other -----------------------------------------------------
~ASCII -----------------------------------------------------
# ...
 9909.50000    8.75000 3439.00000   31.30230    0.01700    0.00310    0.00010    0.00010    7.57130    0.02270    0.01840    0.00060    0.00510    0.00980    0.00410    0.00030    0.00270    0.00010    0.00000    0.01700    0.00000   33.00000
 9909.00000    8.75000 3442.00000   32.30840    0.00690    0.00080    0.00000    0.00000    2.17340    0.02360    0.00710    0.00390    0.01280    0.00610    0.00000    0.00000    0.00080    0.00000    0.00000    0.00690    0.00000   33.00000
 9908.50000    8.75000 3476.00000   32.22430    0.00380    0.00000    0.00000    0.00000    1.61840    0.02220    0.00200    0.00460    0.01370    0.00380    0.00000    0.00000    0.00000    0.00000    0.00000    0.00380    0.00010   33.00000
 9908.00000    8.75000 3439.00000   30.75320    0.01000    0.00370    0.00000    0.00010    3.79900    0.02630    0.00750    0.00320    0.01310    0.00640    0.00000    0.00000    0.00260    0.00100    0.00000    0.01000    0.00000   33.00000
 9907.50000    8.75000 3443.00000   29.66850    0.01580    0.00830    0.00020    0.00120    8.13730    0.03070    0.01680    0.00370    0.01120    0.00350    0.00410    0.00510    0.00050    0.00040    0.00230    0.01580    0.00000   33.00000
 9907.00000    8.75000 3445.00000   29.33380    0.02190    0.00400    0.00030    0.00020    7.68080    0.03450    0.02460    0.00470    0.00790    0.00650    0.01140    0.00020    0.00020    0.00270    0.00080    0.02190    0.00000   33.00000
 9906.50000    8.75000 3409.00000   30.84590    0.02540    0.00410    0.00040    0.00040    5.63590    0.04270    0.02630    0.00650    0.01080    0.01230    0.00900    0.00010    0.00050    0.00260    0.00090    0.02540    0.00090   33.00000
 9906.00000    8.75000 3433.00000   33.93950    0.02190    0.00500    0.00040    0.00060    5.20620    0.04250    0.02120    0.00640    0.01410    0.01170    0.00520    0.00100    0.00000    0.00120    0.00270    0.02190    0.00100   33.00000
 9905.50000    8.75000 3417.00000   36.26840    0.01780    0.00380    0.00020    0.00020    6.79040    0.03200    0.01810    0.00490    0.00940    0.00820    0.00570    0.00000    0.00000    0.00000    0.00380    0.01780    0.00000   33.00000
 9905.00000    8.75000 3414.00000   34.84740    0.01660    0.00350    0.00020    0.00010   11.72420    0.02430    0.01660    0.00150    0.00620    0.00620    0.00700    0.00000    0.00000    0.00000    0.00350    0.01660    0.00000   33.00000
 9904.50000    8.75000 3483.00000   29.65200    0.01690    0.00420    0.00070    0.00010   36.92910    0.01910    0.01520    0.00000    0.00220    0.00210    0.01060    0.00000    0.00000    0.00000    0.00420    0.01690    0.00000   33.00000
 9904.00000    8.75000 3415.00000   26.20180    0.01750    0.00790    0.00150    0.00020   59.29930    0.01800    0.01590    0.00000    0.00050    0.00020    0.00940    0.00440    0.00000    0.00000    0.00350    0.01750    0.00110   33.00000
 9903.50000    8.75000 3424.00000   25.33930    0.01630    0.00880    0.00070    0.00010   47.42320    0.01660    0.01550    0.00000    0.00030    0.00030    0.00710    0.00290    0.00560    0.00040    0.00000    0.01630    0.00150   33.00000
 9903.00000    8.75000 3461.00000   25.18680    0.01900    0.00810    0.00030    0.00080   11.29730    0.02660    0.01770    0.00030    0.00730    0.00750    0.00330    0.00170    0.00640    0.00000    0.00000    0.01900    0.00140   33.00000
 9902.50000    8.75000 3429.00000   24.23800    0.02140    0.00740    0.00030    0.00110    6.67380    0.03540    0.02320    0.00210    0.01190    0.01230    0.00170    0.00060    0.00680    0.00000    0.00000    0.02140    0.00120   33.00000
 9902.00000    8.75000 3439.00000   22.51290    0.02120    0.00420    0.00020    0.00030    5.23600    0.03660    0.02310    0.00420    0.01130    0.01420    0.00270    0.00000    0.00090    0.00320    0.00010    0.02120    0.00190   33.00000
 9901.50000    8.75000 3467.00000   21.04200    0.02090    0.00240    0.00010    0.00010    5.19760    0.03290    0.02080    0.00240    0.00960    0.01570    0.00280    0.00000    0.00000    0.00150    0.00090    0.02090    0.00070   33.00000
 9901.00000    8.75000 3402.00000   19.57560    0.01800    0.00250    0.00010    0.00000   10.79730    0.01850    0.01810    0.00000    0.00060    0.01040    0.00510    0.00070    0.00190    0.00000    0.00000    0.01800    0.00000   33.00000
 9900.50000    8.75000 3453.00000   20.81880    0.01730    0.00130    0.00000    0.00000   10.47880    0.01730    0.01840    0.00000    0.00000    0.00970    0.00630    0.00010    0.00120    0.00000    0.00000    0.01730    0.00000   33.00000
 9900.00000    8.75000 3431.00000   23.49730    0.01360    0.00100    0.00000    0.00000   10.92750    0.01560    0.01320    0.00000    0.00190    0.00650    0.00620    0.00000    0.00000    0.00000    0.00090    0.01360    0.00000   33.00000
 9899.50000    8.75000 3415.00000   25.22240    0.01140    0.00270    0.00010    0.00010    4.10290    0.03200    0.01520    0.00910    0.01150    0.00050    0.00820    0.00020    0.00000    0.00000    0.00240    0.01140    0.00000   33.00000
 9899.00000    8.75000 3424.00000   23.03170    0.01190    0.00520    0.00010    0.00070    2.63960    0.04480    0.01640    0.01780    0.01510    0.00040    0.00640    0.00320    0.00000    0.00000    0.00200    0.01190    0.00060   33.00000
 9898.50000    8.75000 3417.00000   20.88030    0.01580    0.00520    0.00020    0.00050    4.22840    0.03850    0.01850    0.01220    0.01050    0.00180    0.00880    0.00290    0.00000    0.00000    0.00230    0.01580    0.00060   33.00000
 9898.00000    8.75000 3417.00000   19.58100    0.01510    0.00740    0.00010    0.00070    8.34410    0.02630    0.01560    0.00750    0.00370    0.00060    0.00700    0.00530    0.00000    0.00000    0.00210    0.01510    0.00060   33.00000
 9897.50000    8.75000 3417.00000   20.90780    0.01560    0.01050    0.00020    0.00060   13.42220    0.02180    0.01360    0.00600    0.00020    0.00180    0.00330    0.00880    0.00010    0.00000    0.00160    0.01560    0.00170   33.00000
 9897.00000    8.75000 3376.00000   24.69810    0.01860    0.01100    0.00040    0.00070   20.43240    0.02220    0.01750    0.00350    0.00000    0.00460    0.00310    0.00840    0.00020    0.00000    0.00230    0.01860    0.00240   33.00000
 9896.50000    8.75000 3436.00000   29.69690    0.02610    0.00760    0.00050    0.00090   14.63970    0.02790    0.02370    0.00000    0.00180    0.01550    0.00300    0.00490    0.00040    0.00020    0.00220    0.02610    0.00150   33.00000
 9896.00000    8.75000 3351.00000   33.49880    0.02700    0.00330    0.00040    0.00020    8.33380    0.03350    0.02670    0.00000    0.00650    0.01950    0.00420    0.00000    0.00000    0.00160    0.00170    0.02700    0.00040   33.00000
 9895.50000    8.75000 3497.00000   33.32630    0.02460    0.00320    0.00030    0.00020    5.45390    0.03890    0.02570    0.00200    0.01230    0.01870    0.00270    0.00000    0.00000    0.00210    0.00110    0.02460    0.00000   33.00000
 9895.00000    8.75000 3372.00000   31.80230    0.02230    0.00400    0.00020    0.00030    5.52680    0.03500    0.02300    0.00240    0.01030    0.01500    0.00330    0.00000    0.00340    0.00060    0.00000    0.02230    0.00010   33.00000
 9894.50000    8.75000 3397.00000   30.47390    0.02080    0.00540    0.00020    0.00040    6.95450    0.03060    0.01980    0.00300    0.00680    0.01050    0.00500    0.00090    0.00440    0.00000    0.00000    0.02080    0.00110   33.00000
 9894.00000    8.75000 3382.00000   30.82760    0.02340    0.00650    0.00020    0.00070    7.00670    0.03270    0.02100    0.00480    0.00450    0.00990    0.00690    0.00450    0.00200    0.00000    0.00000    0.02340    0.00200   33.00000
 9893.50000    8.75000 3403.00000   31.80250    0.02750    0.00610    0.00040    0.00080    6.27420    0.04070    0.02250    0.00690    0.00640    0.01410    0.00740    0.00390    0.00000    0.00000    0.00220    0.02750    0.00320   33.00000
