~Version ---------------------------------------------------
VERS     .                                                                         2.0 : CWLS log ASCII Standard -VERSION 2.0
WRAP     .                                                                          NO : One Line per depth step
PROD     .                                                                Schlumberger : LAS Producer
PROG     .                                                      DLIS to ASCII 15C0-309 : LAS Program name and version
CREA     . 2008/02/21 06:17                          :LAS Creation date {YYYY/MM/DD hh : mm}
DLIS_CREA.     2008-Feb-21	03:10			       :DLIS Creation date and time {YYYY-MMM-DD hh : mm}
SOURCE   .                                                             CMR_058LUP.DLIS : DLIS File Name
FILE-ID  .                                                                  CMR_058LUP : File Identification Number
~Well ------------------------------------------------------
STRT.F     10520.0 : START DEPTH
STOP.F      9849.0 : STOP DEPTH
STEP.F        -0.5 : STEP
NULL.      -999.25 : NULL VALUE
COMP.              : COMPANY
WELL.       Bakken : WELL
FLD .              : FIELD
LOC .              : LOCATION
CNTY.              : COUNTY
STAT.    N. DAKOTA : STATE
CTRY.              : COUNTRY
API .              : API NUMBER
UWI .              : UNIQUE WELL ID
DATE.              : LOG DATE {DD-MMM-YYYY}
SRVC. Schlumberger : SERVICE COMPANY
LATI.DEG         0 : LATITUDE
LONG.DEG         0 : LONGITUDE
GDAT.              : GeoDetic Datum
SECT.           28 : Section
RANG.          92W : Range
TOWN.         154N : Township
~Curve Information -----------------------------------------
DEPT          .F     : DEPTH (BOREHOLE) {F10.1}
BS            .IN    : Bit Size {F13.4}
TENS          .LBF   : Cable Tension {F13.4}
GR_EDTC       .GAPI  : Gamma Ray {F13.4}
CMRP_3MS      .CFCF  : CMR 3ms Porosity {F13.4}
CMFF          .CFCF  : CMR Free Fluid {F13.4}
KSDR          .MD    : Permeability from CMR - SDR Model {F13.4}
KTIM          .MD    : Permeability from CMR - Timur Model {F13.4}
T2LM          .MS    : T2 Logarithmic Mean {F13.4}
TCMR          .CFCF  : Total CMR Porosity {F13.4}
CMRP_3MS_MW[0].CFCF  : CMR 3ms Porosity - Multi Wait {AF13.4}
CBP1          .CFCF  : CMR Bin Porosity 1 {F13.4}
CBP2          .CFCF  : CMR Bin Porosity 2 {F13.4}
CBP3          .CFCF  : CMR Bin Porosity 3 {F13.4}
CBP4          .CFCF  : CMR Bin Porosity 4 {F13.4}
CBP5          .CFCF  : CMR Bin Porosity 5 {F13.4}
CBP6          .CFCF  : CMR Bin Porosity 6 {F13.4}
CBP7          .CFCF  : CMR Bin Porosity 7 {F13.4}
CBP8          .CFCF  : CMR Bin Porosity 8 {F13.4}
CFF2          .CFCF  : CMR Free Fluid Porosity for T2 Cutoff 2 {F13.4}
T2_DIST_MW[0] .CFCF  : T2 Distribution - Multi Wait {AF13.4}
T2CUTOFF      .MS    : T2 Cutoff {F13.4}
~Params ----------------------------------------------------
RUN .           ONE : RUN NUMBER
PDAT.  GROUND LEVEL : Permanent Datum
EPD .F       2111.0 : Elevation of Permanent Datum above Mean Sea Level
LMF . KELLY BUSHING : Logging Measured From (Name of Logging Elevation Reference)
APD .F         18.0 : Elevation of Depth Reference (LMF) above Permanent Datum
~Other -----------------------------------------------------
~ASCII -----------------------------------------------------
# ...
 10470.50000    8.75000 3618.00000   31.71390    0.01600    0.00290    0.00000    0.00010    4.35380    0.02830    0.01450    0.00570    0.00660    0.00720    0.00600    0.00120    0.00160    0.00000    0.00000    0.01600    0.00090   33.00000
 10470.00000    8.75000 3669.00000   39.17800    0.01580    0.00280    0.00000    0.00010    3.88990    0.02990    0.01660    0.00720    0.00700    0.00540    0.00760    0.00280    0.00000    0.00000    0.00000    0.01580    0.00060   33.00000
 10469.50000    8.75000 3540.00000   44.32580    0.01970    0.00160    0.00010    0.00000    4.50000    0.03300    0.02160    0.00630    0.00700    0.00710    0.01100    0.00160    0.00000    0.00000    0.00000    0.01970    0.00030   33.00000
 10469.00000    8.75000 3595.00000   44.22310    0.02380    0.00080    0.00020    0.00000    4.99310    0.03610    0.02600    0.00550    0.00670    0.00970    0.01330    0.00080    0.00000    0.00000    0.00000    0.02380    0.00000   33.00000
 10468.50000    8.75000 3574.00000   38.91390    0.02820    0.00110    0.00030    0.00000    6.04050    0.03750    0.03030    0.00470    0.00460    0.01480    0.01230    0.00000    0.00000    0.00000    0.00110    0.02820    0.00000   33.00000
 10468.00000    8.75000 3548.00000   31.20040    0.03070    0.00310    0.00050    0.00020    7.68490    0.03810    0.03250    0.00520    0.00220    0.01780    0.00980    0.00000    0.00000    0.00030    0.00290    0.03070    0.00000   33.00000
 10467.50000    8.75000 3603.00000   23.12120    0.02820    0.00750    0.00120    0.00120   13.20250    0.03590    0.02870    0.00640    0.00130    0.00740    0.01340    0.00170    0.00030    0.00320    0.00230    0.02820    0.00030   33.00000
 10467.00000    8.75000 3594.00000   16.65190    0.02530    0.01700    0.00420    0.01080   26.43020    0.03500    0.02630    0.00640    0.00330    0.00000    0.00830    0.01020    0.00000    0.00000    0.00680    0.02530    0.00000   33.00000
 10466.50000    8.75000 3586.00000   15.23430    0.02220    0.02030    0.00350    0.01380   25.40100    0.03410    0.02340    0.00660    0.00520    0.00000    0.00200    0.01330    0.00000    0.00000    0.00690    0.02220    0.00000   33.00000
 10466.00000    8.75000 3577.00000   11.60430    0.01500    0.01460    0.00090    0.00260   20.99140    0.02660    0.01610    0.00610    0.00550    0.00000    0.00040    0.00840    0.00000    0.00000    0.00620    0.01500    0.00000   33.00000
 10465.50000    8.75000 3587.00000   10.88530    0.00850    0.00680    0.00010    0.00010   12.33510    0.01800    0.00780    0.00290    0.00660    0.00160    0.00000    0.00290    0.00030    0.00020    0.00340    0.00850    0.00120   33.00000
 10465.00000    8.75000 3578.00000   10.75650    0.00940    0.00370    0.00000    0.00000   14.75590    0.01150    0.00580    0.00000    0.00210    0.00580    0.00000    0.00000    0.00200    0.00160    0.00000    0.00940    0.00160   33.00000
 10464.50000    8.75000 3570.00000   11.64120    0.02060    0.01480    0.01360    0.00110  129.28640    0.02130    0.01510    0.00000    0.00070    0.00580    0.00000    0.00000    0.00260    0.00890    0.00320    0.02060    0.00330   33.00000
 10464.00000    8.75000 3582.00000   11.29750    0.03790    0.02840    0.25630    0.04550  168.51390    0.03880    0.03370    0.00000    0.00080    0.00950    0.00000    0.00000    0.00480    0.01620    0.00750    0.03790    0.00230   33.00000
 10463.50000    8.75000 3608.00000    9.22740    0.04080    0.03100    0.19180    0.11310  101.03550    0.04660    0.04190    0.00160    0.00420    0.00890    0.00090    0.00000    0.00730    0.01630    0.00750    0.04080    0.00020   33.00000
 10463.00000    8.75000 3603.00000   13.03830    0.03040    0.01980    0.01040    0.02310   33.24870    0.03920    0.03420    0.00690    0.00190    0.00900    0.00160    0.00000    0.00660    0.01010    0.00320    0.03040    0.00000   33.00000
 10462.50000    8.75000 3624.00000   18.90230    0.01570    0.00500    0.00010    0.00030    6.03960    0.02590    0.01750    0.00800    0.00220    0.00760    0.00310    0.00000    0.00160    0.00340    0.00000    0.01570    0.00000   33.00000
 10462.00000    8.75000 3613.00000   25.11270    0.01330    0.00340    0.00000    0.00010    4.64390    0.02480    0.01680    0.00860    0.00290    0.00600    0.00390    0.00000    0.00010    0.00280    0.00050    0.01330    0.00120   33.00000
 10461.50000    8.75000 3603.00000   24.31290    0.01090    0.00460    0.00000    0.00010    5.82070    0.01930    0.00990    0.00580    0.00260    0.00570    0.00060    0.00000    0.00300    0.00160    0.00000    0.01090    0.00260   33.00000
 10461.00000    8.75000 3609.00000   20.31070    0.00580    0.00580    0.00000    0.00010    5.24160    0.01710    0.00560    0.00720    0.00410    0.00000    0.00000    0.00000    0.00520    0.00060    0.00000    0.00580    0.00250   33.00000
 10460.50000    8.75000 3601.00000   17.20550    0.00540    0.00530    0.00000    0.00000   10.71220    0.01340    0.00530    0.00290    0.00510    0.00010    0.00000    0.00000    0.00260    0.00280    0.00000    0.00540    0.00050   33.00000
 10460.00000    8.75000 3599.00000   15.96570    0.00660    0.00640    0.00000    0.00000   19.40610    0.01280    0.00660    0.00100    0.00530    0.00020    0.00000    0.00000    0.00390    0.00240    0.00000    0.00660    0.00000   33.00000
 10459.50000    8.75000 3578.00000   14.87880    0.01700    0.01200    0.00070    0.00050   35.69400    0.01950    0.01790    0.00000    0.00250    0.00500    0.00000    0.00050    0.01150    0.00000    0.00000    0.01700    0.00000   33.00000
 10459.00000    8.75000 3609.00000   12.55350    0.02760    0.01800    0.00540    0.00520   45.84980    0.02840    0.02860    0.00000    0.00080    0.00960    0.00000    0.00010    0.01780    0.00000    0.00000    0.02760    0.00000   33.00000
 10458.50000    8.75000 3603.00000   11.39080    0.03130    0.01950    0.01100    0.00910   53.27090    0.03130    0.03260    0.00000    0.00010    0.01120    0.00060    0.00000    0.01580    0.00370    0.00000    0.03130    0.00000   33.00000
 10458.00000    8.75000 3630.00000    9.81880    0.02580    0.01580    0.00480    0.00360   45.45100    0.02760    0.02700    0.00000    0.00180    0.00960    0.00040    0.00310    0.00670    0.00400    0.00200    0.02580    0.00000   33.00000
 10457.50000    8.75000 3594.00000   10.97200    0.01240    0.01040    0.00160    0.00010  126.30670    0.01260    0.01140    0.00000    0.00020    0.00200    0.00000    0.00380    0.00290    0.00090    0.00290    0.01240    0.00000   33.00000
 10457.00000    8.75000 3620.00000   16.14580    0.00930    0.00390    0.00010    0.00000   48.62690    0.00930    0.00880    0.00000    0.00000    0.00040    0.00490    0.00000    0.00320    0.00080    0.00000    0.00930    0.00000   33.00000
 10456.50000    8.75000 3605.00000   20.48530    0.01570    0.00170    0.00000    0.00000   12.62750    0.01660    0.01440    0.00000    0.00090    0.00730    0.00670    0.00000    0.00010    0.00160    0.00000    0.01570    0.00000   33.00000
 10456.00000    8.75000 3601.00000   19.50100    0.01790    0.00390    0.00040    0.00000   31.32680    0.01790    0.01880    0.00000    0.00000    0.00290    0.01110    0.00000    0.00000    0.00290    0.00090    0.01790    0.00000   33.00000
 10455.50000    8.75000 3590.00000   13.18720    0.01970    0.00880    0.00240    0.00030   62.98370    0.01980    0.02010    0.00000    0.00000    0.00000    0.01090    0.00320    0.00040    0.00350    0.00170    0.01970    0.00000   33.00000
 10455.00000    8.75000 3613.00000    9.29300    0.02140    0.01720    0.00980    0.00150  108.05870    0.02140    0.02110    0.00000    0.00000    0.00010    0.00420    0.01170    0.00030    0.00000    0.00510    0.02140    0.00000   33.00000
 10454.50000    8.75000 3595.00000    9.03290    0.01920    0.01440    0.00360    0.00090   72.55200    0.02030    0.01930    0.00000    0.00100    0.00000    0.00480    0.01030    0.00000    0.00000    0.00410    0.01920    0.00000   33.00000
