~Version ---------------------------------------------------
VERS     .                                                                         2.0 : CWLS log ASCII Standard -VERSION 2.0
WRAP     .                                                                          NO : One Line per depth step
PROD     .                                                                Schlumberger : LAS Producer
PROG     .                                                      DLIS to ASCII 15C0-309 : LAS Program name and version
CREA     . 2008/02/21 06:17                          :LAS Creation date {YYYY/MM/DD hh : mm}
DLIS_CREA.     2008-Feb-21	03:10			       :DLIS Creation date and time {YYYY-MMM-DD hh : mm}
SOURCE   .                                                             CMR_058LUP.DLIS : DLIS File Name
FILE-ID  .                                                                  CMR_058LUP : File Identification Number
~Well ------------------------------------------------------
STRT.F     10520.0 : START DEPTH
STOP.F      9849.0 : STOP DEPTH
STEP.F        -0.5 : STEP
NULL.      -999.25 : NULL VALUE
COMP.              : COMPANY
WELL.       Bakken : WELL
FLD .              : FIELD
LOC .              : LOCATION
CNTY.              : COUNTY
STAT.    N. DAKOTA : STATE
CTRY.              : COUNTRY
API .              : API NUMBER
UWI .              : UNIQUE WELL ID
DATE.              : LOG DATE {DD-MMM-YYYY}
SRVC. Schlumberger : SERVICE COMPANY
LATI.DEG         0 : LATITUDE
LONG.DEG         0 : LONGITUDE
GDAT.              : GeoDetic Datum
SECT.           28 : Section
RANG.          92W : Range
TOWN.         154N : Township
~Curve Information -----------------------------------------
DEPT          .F     : DEPTH (BOREHOLE) {F10.1}
BS            .IN    : Bit Size {F13.4}
TENS          .LBF   : Cable Tension {F13.4}
GR_EDTC       .GAPI  : Gamma Ray {F13.4}
CMRP_3MS      .CFCF  : CMR 3ms Porosity {F13.4}
CMFF          .CFCF  : CMR Free Fluid {F13.4}
KSDR          .MD    : Permeability from CMR - SDR Model {F13.4}
KTIM          .MD    : Permeability from CMR - Timur Model {F13.4}
T2LM          .MS    : T2 Logarithmic Mean {F13.4}
TCMR          .CFCF  : Total CMR Porosity {F13.4}
CMRP_3MS_MW[0].CFCF  : CMR 3ms Porosity - Multi Wait {AF13.4}
CBP1          .CFCF  : CMR Bin Porosity 1 {F13.4}
CBP2          .CFCF  : CMR Bin Porosity 2 {F13.4}
CBP3          .CFCF  : CMR Bin Porosity 3 {F13.4}
CBP4          .CFCF  : CMR Bin Porosity 4 {F13.4}
CBP5          .CFCF  : CMR Bin Porosity 5 {F13.4}
CBP6          .CFCF  : CMR Bin Porosity 6 {F13.4}
CBP7          .CFCF  : CMR Bin Porosity 7 {F13.4}
CBP8          .CFCF  : CMR Bin Porosity 8 {F13.4}
CFF2          .CFCF  : CMR Free Fluid Porosity for T2 Cutoff 2 {F13.4}
T2_DIST_MW[0] .CFCF  : T2 Distribution - Multi Wait {AF13.4}
T2CUTOFF      .MS    : T2 Cutoff {F13.4}
~Params ----------------------------------------------------
RUN .           ONE : RUN NUMBER
PDAT.  GROUND LEVEL : Permanent Datum
EPD .F       2111.0 : Elevation of Permanent Datum above Mean Sea Level
LMF . KELLY BUSHING : Logging Measured From (Name of Logging Elevation Reference)
APD .F         18.0 : Elevation of Depth Reference (LMF) above Permanent Datum
~Other -----------------------------------------------------
~ASCII -----------------------------------------------------
# ...
 10388.00000    8.75000 3554.00000   73.53540    0.02870    0.00630    0.00110    0.00300    2.47240    0.08130    0.03220    0.01970    0.03290    0.01810    0.00430    0.00590    0.00000    0.00000    0.00040    0.02870    0.00220   33.00000
 10387.50000    8.75000 3600.00000   70.37850    0.02410    0.00600    0.00100    0.00290    2.26450    0.08420    0.02780    0.02910    0.03100    0.00870    0.00940    0.00420    0.00000    0.00000    0.00170    0.02410    0.00290   33.00000
 10387.00000    8.75000 3564.00000   72.35070    0.01830    0.00250    0.00040    0.00040    1.74340    0.07650    0.02110    0.03220    0.02610    0.00390    0.01190    0.00240    0.00000    0.00000    0.00000    0.01830    0.00280   33.00000
 10386.50000    8.75000 3618.00000   66.33010    0.01560    0.00350    0.00030    0.00070    1.73920    0.07260    0.02080    0.02890    0.02810    0.00340    0.00860    0.00350    0.00000    0.00000    0.00000    0.01560    0.00130   33.00000
 10386.00000    8.75000 3594.00000   62.36680    0.01730    0.00460    0.00050    0.00120    2.29200    0.06950    0.02400    0.02490    0.02730    0.00280    0.00990    0.00210    0.00000    0.00100    0.00150    0.01730    0.00030   33.00000
 10385.50000    8.75000 3541.00000   54.89740    0.01860    0.00430    0.00040    0.00080    2.71830    0.06200    0.02150    0.01920    0.02420    0.00250    0.01180    0.00270    0.00000    0.00000    0.00150    0.01860    0.00060   33.00000
 10385.00000    8.75000 3566.00000   53.89360    0.01900    0.00320    0.00030    0.00030    3.40810    0.05010    0.02010    0.01470    0.01650    0.00220    0.01360    0.00150    0.00000    0.00000    0.00160    0.01900    0.00070   33.00000
 10384.50000    8.75000 3617.00000   48.79220    0.02060    0.00190    0.00020    0.00010    3.85740    0.04270    0.02230    0.01220    0.00990    0.00520    0.01340    0.00050    0.00000    0.00000    0.00140    0.02060    0.00030   33.00000
 10384.00000    8.75000 3580.00000   48.70380    0.02310    0.00230    0.00020    0.00010    3.02050    0.05080    0.02630    0.01460    0.01310    0.01250    0.00830    0.00060    0.00000    0.00040    0.00130    0.02310    0.00040   33.00000
 10383.50000    8.75000 3585.00000   50.67750    0.02670    0.00230    0.00040    0.00020    3.07640    0.05530    0.02880    0.01210    0.01650    0.02050    0.00390    0.00000    0.00000    0.00090    0.00140    0.02670    0.00080   33.00000
 10383.00000    8.75000 3533.00000   57.19260    0.02550    0.00300    0.00030    0.00030    2.77630    0.05720    0.02600    0.01390    0.01780    0.02070    0.00170    0.00000    0.00020    0.00240    0.00050    0.02550    0.00150   33.00000
 10382.50000    8.75000 3593.00000   68.33460    0.01840    0.00380    0.00010    0.00050    2.16680    0.05280    0.01960    0.01880    0.01570    0.01380    0.00080    0.00000    0.00240    0.00140    0.00000    0.01840    0.00130   33.00000
 10382.00000    8.75000 3569.00000   85.96240    0.00790    0.00240    0.00000    0.00020    1.07890    0.05520    0.00980    0.03290    0.01440    0.00550    0.00000    0.00050    0.00160    0.00020    0.00010    0.00790    0.00210   33.00000
 10381.50000    8.75000 3577.00000   97.50610    0.00330    0.00290    0.00000    0.00020    1.30830    0.04400    0.00660    0.02500    0.01570    0.00040    0.00000    0.00060    0.00000    0.00000    0.00230    0.00330    0.00130   33.00000
 10381.00000    8.75000 3589.00000  101.93750    0.00560    0.00510    0.00010    0.00080    1.64470    0.04920    0.00570    0.02630    0.01730    0.00050    0.00000    0.00190    0.00000    0.00000    0.00320    0.00560    0.00210   33.00000
 10380.50000    8.75000 3597.00000   92.09280    0.00750    0.00560    0.00010    0.00090    1.89840    0.04820    0.00730    0.02260    0.01800    0.00150    0.00040    0.00280    0.00000    0.00000    0.00290    0.00750    0.00190   33.00000
 10380.00000    8.75000 3568.00000   77.68060    0.00750    0.00340    0.00000    0.00020    1.84910    0.04230    0.00950    0.01840    0.01640    0.00240    0.00170    0.00140    0.00000    0.00000    0.00200    0.00750    0.00110   33.00000
 10379.50000    8.75000 3600.00000   62.85240    0.00590    0.00090    0.00000    0.00000    1.27190    0.05040    0.01000    0.02500    0.01950    0.00200    0.00300    0.00000    0.00000    0.00000    0.00090    0.00590    0.00150   33.00000
 10379.00000    8.75000 3557.00000   54.28070    0.00890    0.00090    0.00010    0.00000    1.41960    0.05400    0.01730    0.02520    0.01990    0.00330    0.00470    0.00000    0.00000    0.00000    0.00090    0.00890    0.00120   33.00000
 10378.50000    8.75000 3616.00000   54.58520    0.01180    0.00150    0.00010    0.00010    1.98960    0.04820    0.01860    0.01770    0.01870    0.00510    0.00520    0.00000    0.00000    0.00000    0.00150    0.01180    0.00090   33.00000
 10378.00000    8.75000 3570.00000   53.36270    0.01170    0.00270    0.00010    0.00020    2.42750    0.04670    0.01740    0.01480    0.02030    0.00270    0.00620    0.00090    0.00000    0.00000    0.00180    0.01170    0.00160   33.00000
 10377.50000    8.75000 3591.00000   53.23640    0.01370    0.00440    0.00010    0.00040    3.79080    0.04020    0.01470    0.00870    0.01780    0.00310    0.00620    0.00190    0.00000    0.00040    0.00210    0.01370    0.00190   33.00000
 10377.00000    8.75000 3572.00000   51.63260    0.01370    0.00440    0.00020    0.00040    3.79080    0.04020    0.01470    0.00870    0.01780    0.00310    0.00620    0.00190    0.00000    0.00040    0.00210    0.01370    0.00190   33.00000
 10376.50000    8.75000 3575.00000   47.77200    0.01630    0.00340    0.00020    0.00030    2.99060    0.04610    0.01580    0.01220    0.01760    0.00690    0.00600    0.00000    0.00080    0.00250    0.00010    0.01630    0.00210   33.00000
 10376.00000    8.75000 3587.00000   41.29840    0.01770    0.00400    0.00020    0.00050    2.76180    0.04900    0.01950    0.01530    0.01600    0.00880    0.00490    0.00000    0.00130    0.00270    0.00000    0.01770    0.00170   33.00000
 10375.50000    8.75000 3575.00000   37.18260    0.01220    0.00420    0.00010    0.00030    2.97860    0.03510    0.01640    0.01030    0.01260    0.00710    0.00090    0.00000    0.00140    0.00280    0.00000    0.01220    0.00050   33.00000
 10375.00000    8.75000 3580.00000   38.89600    0.00830    0.00350    0.00000    0.00010    3.39520    0.02280    0.00840    0.00490    0.00960    0.00470    0.00000    0.00000    0.00340    0.00010    0.00000    0.00830    0.00000   33.00000
 10374.50000    8.75000 3571.00000   46.02660    0.00940    0.00540    0.00000    0.00040    3.62270    0.02930    0.01230    0.00780    0.01210    0.00400    0.00000    0.00000    0.00370    0.00170    0.00000    0.00940    0.00000   33.00000
 10374.00000    8.75000 3575.00000   54.78050    0.00800    0.00670    0.00010    0.00130    1.86350    0.04650    0.01400    0.02370    0.01480    0.00020    0.00110    0.00110    0.00490    0.00070    0.00000    0.00800    0.00070   33.00000
 10373.50000    8.75000 3562.00000   64.04620    0.01180    0.00570    0.00010    0.00100    2.07230    0.05050    0.01600    0.02160    0.01710    0.00140    0.00480    0.00450    0.00010    0.00020    0.00090    0.01180    0.00110   33.00000
 10373.00000    8.75000 3552.00000   70.83090    0.02300    0.00250    0.00040    0.00030    2.64880    0.06210    0.02510    0.01700    0.02210    0.01470    0.00570    0.00000    0.00000    0.00000    0.00250    0.02300    0.00120   33.00000
 10372.50000    8.75000 3556.00000   69.80590    0.03670    0.00340    0.00160    0.00080    3.21750    0.07920    0.03840    0.01360    0.02890    0.03010    0.00320    0.00000    0.00000    0.00000    0.00340    0.03670    0.00170   33.00000
 10372.00000    8.75000 3529.00000   67.45240    0.04090    0.00310    0.00230    0.00090    2.85920    0.09170    0.04370    0.01840    0.03230    0.03470    0.00320    0.00000    0.00000    0.00000    0.00310    0.04090    0.00220   33.00000
