~Version ---------------------------------------------------
VERS     .                                                                         2.0 : CWLS log ASCII Standard -VERSION 2.0
WRAP     .                                                                          NO : One Line per depth step
PROD     .                                                                Schlumberger : LAS Producer
PROG     .                                                      DLIS to ASCII 15C0-309 : LAS Program name and version
CREA     . 2008/02/21 06:17                          :LAS Creation date {YYYY/MM/DD hh : mm}
DLIS_CREA.     2008-Feb-21	03:10			       :DLIS Creation date and time {YYYY-MMM-DD hh : mm}
SOURCE   .                                                             CMR_058LUP.DLIS : DLIS File Name
FILE-ID  .                                                                  CMR_058LUP : File Identification Number
~Well ------------------------------------------------------
STRT.F     10520.0 : START DEPTH
STOP.F      9849.0 : STOP DEPTH
STEP.F        -0.5 : STEP
NULL.      -999.25 : NULL VALUE
COMP.              : COMPANY
WELL.       Bakken : WELL
FLD .              : FIELD
LOC .              : LOCATION
CNTY.              : COUNTY
STAT.    N. DAKOTA : STATE
CTRY.              : COUNTRY
API .              : API NUMBER
UWI .              : UNIQUE WELL ID
DATE.              : LOG DATE {DD-MMM-YYYY}
SRVC. Schlumberger : SERVICE COMPANY
LATI.DEG         0 : LATITUDE
LONG.DEG         0 : LONGITUDE
GDAT.              : GeoDetic Datum
SECT.           28 : Section
RANG.          92W : Range
TOWN.         154N : Township
~Curve Information -----------------------------------------
DEPT          .F     : DEPTH (BOREHOLE) {F10.1}
BS            .IN    : Bit Size {F13.4}
TENS          .LBF   : Cable Tension {F13.4}
GR_EDTC       .GAPI  : Gamma Ray {F13.4}
CMRP_3MS      .CFCF  : CMR 3ms Porosity {F13.4}
CMFF          .CFCF  : CMR Free Fluid {F13.4}
KSDR          .MD    : Permeability from CMR - SDR Model {F13.4}
KTIM          .MD    : Permeability from CMR - Timur Model {F13.4}
T2LM          .MS    : T2 Logarithmic Mean {F13.4}
TCMR          .CFCF  : Total CMR Porosity {F13.4}
CMRP_3MS_MW[0].CFCF  : CMR 3ms Porosity - Multi Wait {AF13.4}
CBP1          .CFCF  : CMR Bin Porosity 1 {F13.4}
CBP2          .CFCF  : CMR Bin Porosity 2 {F13.4}
CBP3          .CFCF  : CMR Bin Porosity 3 {F13.4}
CBP4          .CFCF  : CMR Bin Porosity 4 {F13.4}
CBP5          .CFCF  : CMR Bin Porosity 5 {F13.4}
CBP6          .CFCF  : CMR Bin Porosity 6 {F13.4}
CBP7          .CFCF  : CMR Bin Porosity 7 {F13.4}
CBP8          .CFCF  : CMR Bin Porosity 8 {F13.4}
CFF2          .CFCF  : CMR Free Fluid Porosity for T2 Cutoff 2 {F13.4}
T2_DIST_MW[0] .CFCF  : T2 Distribution - Multi Wait {AF13.4}
T2CUTOFF      .MS    : T2 Cutoff {F13.4}
~Params ----------------------------------------------------
RUN .           ONE : RUN NUMBER
PDAT.  GROUND LEVEL : Permanent Datum
EPD .F       2111.0 : Elevation of Permanent Datum above Mean Sea Level
LMF . KELLY BUSHING : Logging Measured From (Name of Logging Elevation Reference)
APD .F         18.0 : Elevation of Depth Reference (LMF) above Permanent Datum
~Other -----------------------------------------------------
~ASCII -----------------------------------------------------
# ...
 10305.50000    8.75000 3507.00000  108.69410    0.01500    0.00660    0.00020    0.00200    2.15240    0.06040    0.01860    0.02340    0.02210    0.00550    0.00290    0.00370    0.00090    0.00080    0.00120    0.01500    0.00120   33.00000
 10305.00000    8.75000 3483.00000  110.77410    0.01870    0.00700    0.00030    0.00210    2.49180    0.05730    0.02080    0.01910    0.01950    0.01140    0.00040    0.00020    0.00680    0.00000    0.00000    0.01870    0.00100   33.00000
 10304.50000    8.75000 3521.00000  111.29060    0.01490    0.00690    0.00020    0.00180    2.41140    0.05370    0.01870    0.01990    0.01900    0.00780    0.00020    0.00000    0.00500    0.00190    0.00000    0.01490    0.00070   33.00000
 10304.00000    8.75000 3488.00000  105.68210    0.00340    0.00280    0.00000    0.00020    1.53290    0.04150    0.00500    0.02080    0.01730    0.00060    0.00000    0.00000    0.00000    0.00000    0.00270    0.00340    0.00070   33.00000
 10303.50000    8.75000 3502.00000   99.08560    0.00170    0.00160    0.00000    0.00000    1.19810    0.03750    0.00190    0.02070    0.01510    0.00000    0.00000    0.00000    0.00000    0.00000    0.00160    0.00170    0.00050   33.00000
 10303.00000    8.75000 3528.00000   93.54610    0.00900    0.00210    0.00000    0.00000    4.36790    0.01800    0.00770    0.00050    0.00850    0.00690    0.00000    0.00000    0.00190    0.00020    0.00000    0.00900    0.00060   33.00000
 10302.50000    8.75000 3511.00000   94.06360    0.01170    0.00350    0.00000    0.00020    2.88100    0.03230    0.01150    0.00510    0.01560    0.00820    0.00000    0.00150    0.00190    0.00000    0.00000    0.01170    0.00070   33.00000
 10302.00000    8.75000 3509.00000   99.88380    0.01070    0.00650    0.00010    0.00120    2.23190    0.04440    0.01490    0.01590    0.01780    0.00420    0.00000    0.00270    0.00380    0.00000    0.00000    0.01070    0.00070   33.00000
 10301.50000    8.75000 3497.00000  101.61520    0.01140    0.00570    0.00010    0.00150    1.51650    0.06180    0.02260    0.03470    0.01580    0.00340    0.00220    0.00000    0.00450    0.00130    0.00000    0.01140    0.00040   33.00000
 10301.00000    8.75000 3513.00000   94.28350    0.01980    0.00480    0.00040    0.00090    2.76290    0.05870    0.03040    0.02210    0.01680    0.01050    0.00450    0.00000    0.00000    0.00000    0.00480    0.01980    0.00000   33.00000
 10300.50000    8.75000 3497.00000   91.52330    0.02130    0.00470    0.00040    0.00090    3.23750    0.05660    0.02690    0.01480    0.02050    0.01590    0.00070    0.00000    0.00000    0.00000    0.00470    0.02130    0.00010   33.00000
 10300.00000    8.75000 3498.00000   92.98330    0.01710    0.00270    0.00020    0.00020    2.23610    0.05630    0.01940    0.01600    0.02320    0.01440    0.00000    0.00000    0.00000    0.00000    0.00260    0.01710    0.00100   33.00000
 10299.50000    8.75000 3513.00000  101.86760    0.01230    0.00440    0.00010    0.00050    1.99960    0.04690    0.01470    0.01640    0.01820    0.00800    0.00000    0.00020    0.00410    0.00000    0.00000    0.01230    0.00100   33.00000
 10299.00000    8.75000 3484.00000  108.66870    0.00710    0.00310    0.00000    0.00020    1.60520    0.04220    0.00920    0.01670    0.01840    0.00400    0.00000    0.00000    0.00310    0.00000    0.00000    0.00710    0.00130   33.00000
 10298.50000    8.75000 3491.00000  112.00250    0.00810    0.00320    0.00010    0.00020    2.12970    0.04440    0.01300    0.01540    0.02090    0.00490    0.00000    0.00000    0.00000    0.00000    0.00320    0.00810    0.00090   33.00000
 10298.00000    8.75000 3511.00000  113.21010    0.00720    0.00590    0.00020    0.00140    2.35830    0.05530    0.01510    0.02300    0.02510    0.00120    0.00000    0.00000    0.00000    0.00000    0.00590    0.00720    0.00100   33.00000
 10297.50000    8.75000 3498.00000  111.84320    0.00560    0.00550    0.00010    0.00110    1.90340    0.05430    0.01450    0.02830    0.02030    0.00010    0.00000    0.00000    0.00000    0.00000    0.00550    0.00560    0.00050   33.00000
 10297.00000    8.75000 3491.00000  110.88970    0.00710    0.00540    0.00010    0.00070    2.58740    0.04360    0.01400    0.01900    0.01750    0.00050    0.00120    0.00060    0.00000    0.00000    0.00480    0.00710    0.00030   33.00000
 10296.50000    8.75000 3506.00000  109.50970    0.00990    0.00430    0.00000    0.00030    2.34240    0.03690    0.01400    0.01270    0.01420    0.00530    0.00030    0.00060    0.00250    0.00120    0.00000    0.00990    0.00050   33.00000
 10296.00000    8.75000 3496.00000  111.16900    0.00570    0.00400    0.00010    0.00050    1.62660    0.05170    0.01640    0.01740    0.02850    0.00170    0.00000    0.00330    0.00070    0.00000    0.00000    0.00570    0.00080   33.00000
 10295.50000    8.75000 3516.00000  119.22540    0.01100    0.00440    0.00030    0.00100    1.89060    0.06600    0.01640    0.01540    0.03960    0.00660    0.00000    0.00380    0.00060    0.00000    0.00000    0.01100    0.00090   33.00000
 10295.00000    8.75000 3529.00000  127.59220    0.01900    0.00550    0.00080    0.00230    2.15290    0.08190    0.01660    0.01550    0.04740    0.01350    0.00000    0.00350    0.00200    0.00000    0.00000    0.01900    0.00140   33.00000
 10294.50000    8.75000 3519.00000  129.18890    0.02270    0.00580    0.00070    0.00220    2.27240    0.07510    0.01830    0.02000    0.03240    0.01670    0.00030    0.00060    0.00450    0.00060    0.00000    0.02270    0.00140   33.00000
 10294.00000    8.75000 3517.00000  125.50230    0.01280    0.00650    0.00020    0.00190    1.96440    0.05970    0.01390    0.02730    0.01960    0.00380    0.00250    0.00370    0.00010    0.00020    0.00260    0.01280    0.00170   33.00000
 10293.50000    8.75000 3527.00000  128.40590    0.01040    0.00670    0.00020    0.00200    2.12400    0.05840    0.01200    0.02670    0.02130    0.00120    0.00250    0.00280    0.00000    0.00000    0.00390    0.01040    0.00160   33.00000
 10293.00000    8.75000 3521.00000  132.89540    0.01440    0.00530    0.00050    0.00180    1.98680    0.07450    0.01640    0.02930    0.03080    0.00710    0.00210    0.00110    0.00000    0.00000    0.00420    0.01440    0.00180   33.00000
 10292.50000    8.75000 3548.00000  133.58390    0.02830    0.00440    0.00130    0.00160    2.33790    0.08790    0.03020    0.02360    0.03600    0.02020    0.00370    0.00180    0.00000    0.00000    0.00250    0.02830    0.00170   33.00000
 10292.00000    8.75000 3548.00000  125.78360    0.05020    0.00390    0.00400    0.00160    3.31220    0.09760    0.05250    0.01450    0.03290    0.03520    0.01110    0.00210    0.00150    0.00020    0.00020    0.05020    0.00130   33.00000
 10291.50000    8.75000 3544.00000  106.74620    0.06750    0.00480    0.00980    0.00260    4.78270    0.10170    0.07190    0.00560    0.02860    0.04540    0.01730    0.00200    0.00280    0.00000    0.00000    0.06750    0.00010   33.00000
 10291.00000    8.75000 3557.00000   89.12010    0.05950    0.00910    0.00810    0.00760    6.02780    0.08630    0.06150    0.00670    0.02010    0.03140    0.01900    0.00760    0.00010    0.00000    0.00130    0.05950    0.00070   33.00000
 10290.50000    8.75000 3514.00000   72.72690    0.05250    0.01000    0.00570    0.00910    5.34310    0.08410    0.04790    0.01270    0.01890    0.02350    0.01890    0.00840    0.00000    0.00000    0.00160    0.05250    0.00120   33.00000
 10290.00000    8.75000 3542.00000   69.62740    0.05670    0.00890    0.00680    0.00770    5.26010    0.08870    0.05610    0.01550    0.01640    0.02720    0.02070    0.00650    0.00000    0.00000    0.00240    0.05670    0.00080   33.00000
 10289.50000    8.75000 3564.00000   71.18650    0.06450    0.00430    0.00830    0.00160    5.68890    0.08950    0.06680    0.01500    0.01000    0.03420    0.02610    0.00110    0.00000    0.00000    0.00320    0.06450    0.00030   33.00000
