~Version ---------------------------------------------------
VERS     .                                                                         2.0 : CWLS log ASCII Standard -VERSION 2.0
WRAP     .                                                                          NO : One Line per depth step
PROD     .                                                                Schlumberger : LAS Producer
PROG     .                                                      DLIS to ASCII 15C0-309 : LAS Program name and version
CREA     . 2008/02/21 06:17                          :LAS Creation date {YYYY/MM/DD hh : mm}
DLIS_CREA.     2008-Feb-21	03:10			       :DLIS Creation date and time {YYYY-MMM-DD hh : mm}
SOURCE   .                                                             CMR_058LUP.DLIS : DLIS File Name
FILE-ID  .                                                                  CMR_058LUP : File Identification Number
~Well ------------------------------------------------------
STRT.F     10520.0 : START DEPTH
STOP.F      9849.0 : STOP DEPTH
STEP.F        -0.5 : STEP
NULL.      -999.25 : NULL VALUE
COMP.              : COMPANY
WELL.       Bakken : WELL
FLD .              : FIELD
LOC .              : LOCATION
CNTY.              : COUNTY
STAT.    N. DAKOTA : STATE
CTRY.              : COUNTRY
API .              : API NUMBER
UWI .              : UNIQUE WELL ID
DATE.              : LOG DATE {DD-MMM-YYYY}
SRVC. Schlumberger : SERVICE COMPANY
LATI.DEG         0 : LATITUDE
LONG.DEG         0 : LONGITUDE
GDAT.              : GeoDetic Datum
SECT.           28 : Section
RANG.          92W : Range
TOWN.         154N : Township
~Curve Information -----------------------------------------
DEPT          .F     : DEPTH (BOREHOLE) {F10.1}
BS            .IN    : Bit Size {F13.4}
TENS          .LBF   : Cable Tension {F13.4}
GR_EDTC       .GAPI  : Gamma Ray {F13.4}
CMRP_3MS      .CFCF  : CMR 3ms Porosity {F13.4}
CMFF          .CFCF  : CMR Free Fluid {F13.4}
KSDR          .MD    : Permeability from CMR - SDR Model {F13.4}
KTIM          .MD    : Permeability from CMR - Timur Model {F13.4}
T2LM          .MS    : T2 Logarithmic Mean {F13.4}
TCMR          .CFCF  : Total CMR Porosity {F13.4}
CMRP_3MS_MW[0].CFCF  : CMR 3ms Porosity - Multi Wait {AF13.4}
CBP1          .CFCF  : CMR Bin Porosity 1 {F13.4}
CBP2          .CFCF  : CMR Bin Porosity 2 {F13.4}
CBP3          .CFCF  : CMR Bin Porosity 3 {F13.4}
CBP4          .CFCF  : CMR Bin Porosity 4 {F13.4}
CBP5          .CFCF  : CMR Bin Porosity 5 {F13.4}
CBP6          .CFCF  : CMR Bin Porosity 6 {F13.4}
CBP7          .CFCF  : CMR Bin Porosity 7 {F13.4}
CBP8          .CFCF  : CMR Bin Porosity 8 {F13.4}
CFF2          .CFCF  : CMR Free Fluid Porosity for T2 Cutoff 2 {F13.4}
T2_DIST_MW[0] .CFCF  : T2 Distribution - Multi Wait {AF13.4}
T2CUTOFF      .MS    : T2 Cutoff {F13.4}
~Params ----------------------------------------------------
RUN .           ONE : RUN NUMBER
PDAT.  GROUND LEVEL : Permanent Datum
EPD .F       2111.0 : Elevation of Permanent Datum above Mean Sea Level
LMF . KELLY BUSHING : Logging Measured From (Name of Logging Elevation Reference)
APD .F         18.0 : Elevation of Depth Reference (LMF) above Permanent Datum
~Other -----------------------------------------------------
~ASCII -----------------------------------------------------
# ...
 10041.50000    8.75000 3463.00000   51.45410    0.02120    0.00790    0.00030    0.00100   10.02380    0.03020    0.02050    0.00020    0.00880    0.01300    0.00040    0.00000    0.00590    0.00200    0.00000    0.02120    0.00000   33.00000
 10041.00000    8.75000 3458.00000   68.89480    0.02370    0.00970    0.00050    0.00240    7.95540    0.03700    0.02410    0.00200    0.01120    0.01350    0.00050    0.00350    0.00530    0.00050    0.00040    0.02370    0.00020   33.00000
 10040.50000    8.75000 3465.00000   79.80020    0.02050    0.01350    0.00040    0.00760    5.08660    0.04540    0.02350    0.00950    0.01540    0.00680    0.00020    0.00870    0.00460    0.00000    0.00020    0.02050    0.00000   33.00000
 10040.00000    8.75000 3437.00000   75.80270    0.02130    0.01420    0.00070    0.01060    4.71740    0.05300    0.02740    0.01380    0.01800    0.00330    0.00370    0.00900    0.00390    0.00060    0.00070    0.02130    0.00000   33.00000
 10039.50000    8.75000 3442.00000   63.02220    0.01890    0.01070    0.00040    0.00420    4.45620    0.04710    0.02250    0.01540    0.01280    0.00130    0.00700    0.00690    0.00120    0.00090    0.00160    0.01890    0.00000   33.00000
 10039.00000    8.75000 3473.00000   49.90080    0.01450    0.00950    0.00010    0.00180    5.32850    0.03080    0.01250    0.00810    0.00820    0.00480    0.00020    0.00660    0.00190    0.00000    0.00110    0.01450    0.00000   33.00000
 10038.50000    8.75000 3432.00000   42.07420    0.01430    0.00890    0.00010    0.00160    5.63500    0.03250    0.01100    0.00570    0.01250    0.00530    0.00000    0.00320    0.00480    0.00000    0.00080    0.01430    0.00000   33.00000
 10038.00000    8.75000 3467.00000   34.92990    0.01720    0.01050    0.00030    0.00300    6.50190    0.03740    0.01490    0.00640    0.01390    0.00660    0.00000    0.00480    0.00310    0.00000    0.00270    0.01720    0.00000   33.00000
 10037.50000    8.75000 3435.00000   30.54210    0.01560    0.01060    0.00030    0.00340    4.86140    0.04050    0.01330    0.01000    0.01480    0.00510    0.00000    0.00630    0.00180    0.00000    0.00250    0.01560    0.00110   33.00000
 10037.00000    8.75000 3471.00000   27.33560    0.01100    0.00860    0.00010    0.00180    3.03830    0.03890    0.00890    0.01250    0.01540    0.00240    0.00000    0.00490    0.00350    0.00000    0.00020    0.01100    0.00160   33.00000
 10036.50000    8.75000 3457.00000   25.68890    0.00890    0.00860    0.00000    0.00140    3.04280    0.03130    0.00840    0.01230    0.01010    0.00030    0.00000    0.00640    0.00200    0.00000    0.00010    0.00890    0.00150   33.00000
 10036.00000    8.75000 3453.00000   25.97170    0.01220    0.00700    0.00000    0.00070    3.99680    0.02950    0.01140    0.01200    0.00530    0.00000    0.00510    0.00600    0.00010    0.00000    0.00090    0.01220    0.00190   33.00000
 10035.50000    8.75000 3476.00000   26.11320    0.01640    0.00410    0.00010    0.00030    3.31270    0.03890    0.01430    0.01180    0.01070    0.00430    0.00800    0.00220    0.00110    0.00070    0.00000    0.01640    0.00220   33.00000
 10035.00000    8.75000 3454.00000   27.75880    0.01420    0.00270    0.00000    0.00010    2.46450    0.03690    0.01320    0.01600    0.00660    0.00440    0.00710    0.00090    0.00100    0.00080    0.00000    0.01420    0.00170   33.00000
 10034.50000    8.75000 3412.00000   28.13990    0.01210    0.00480    0.00000    0.00030    2.45210    0.03270    0.00850    0.01490    0.00570    0.00480    0.00250    0.00150    0.00330    0.00000    0.00000    0.01210    0.00110   33.00000
 10034.00000    8.75000 3446.00000   28.13990    0.01450    0.00760    0.00010    0.00070    5.20040    0.02610    0.00850    0.00790    0.00370    0.00630    0.00050    0.00390    0.00370    0.00000    0.00000    0.01450    0.00090   33.00000
 10033.50000    8.75000 3433.00000   26.34440    0.01260    0.00800    0.00010    0.00090    4.74450    0.02760    0.01200    0.00760    0.00730    0.00220    0.00240    0.00720    0.00080    0.00000    0.00000    0.01260    0.00120   33.00000
 10033.00000    8.75000 3446.00000   29.34920    0.01280    0.00570    0.00010    0.00060    3.01570    0.03740    0.01350    0.01460    0.01000    0.00020    0.00680    0.00490    0.00000    0.00000    0.00070    0.01280    0.00080   33.00000
 10032.50000    8.75000 3416.00000   30.56680    0.01630    0.00470    0.00010    0.00050    3.04790    0.04440    0.01760    0.02080    0.00720    0.00000    0.01170    0.00260    0.00000    0.00000    0.00200    0.01630    0.00020   33.00000
 10032.00000    8.75000 3451.00000   31.73140    0.02040    0.00450    0.00020    0.00050    3.97830    0.04400    0.02250    0.02060    0.00290    0.00070    0.01520    0.00160    0.00000    0.00000    0.00280    0.02040    0.00000   33.00000
 10031.50000    8.75000 3464.00000   31.74040    0.02610    0.00230    0.00030    0.00010    7.64340    0.03370    0.02690    0.00760    0.00000    0.01040    0.01340    0.00000    0.00000    0.00000    0.00230    0.02610    0.00000   33.00000
 10031.00000    8.75000 3440.00000   32.39120    0.02860    0.00150    0.00030    0.00000    7.60440    0.03250    0.02930    0.00240    0.00150    0.01820    0.00890    0.00000    0.00000    0.00000    0.00150    0.02860    0.00010   33.00000
 10030.50000    8.75000 3454.00000   29.43520    0.02710    0.00060    0.00020    0.00000    4.36330    0.03920    0.02690    0.00460    0.00760    0.01930    0.00720    0.00000    0.00000    0.00000    0.00060    0.02710    0.00100   33.00000
 10030.00000    8.75000 3466.00000   26.70820    0.02760    0.00170    0.00020    0.00010    3.68390    0.04480    0.02720    0.00560    0.01160    0.02310    0.00280    0.00000    0.00130    0.00040    0.00000    0.02760    0.00150   33.00000
 10029.50000    8.75000 3446.00000   29.08410    0.02470    0.00380    0.00020    0.00020    5.88150    0.03480    0.02280    0.00010    0.01000    0.02040    0.00050    0.00000    0.00290    0.00090    0.00000    0.02470    0.00080   33.00000
 10029.00000    8.75000 3436.00000   31.30280    0.01680    0.00630    0.00010    0.00020   11.37580    0.02190    0.01570    0.00000    0.00510    0.01050    0.00000    0.00000    0.00620    0.00000    0.00000    0.01680    0.00000   33.00000
 10028.50000    8.75000 3454.00000   29.99200    0.01690    0.00970    0.00030    0.00060   17.22120    0.02280    0.01180    0.00000    0.00590    0.00720    0.00000    0.00000    0.00970    0.00000    0.00000    0.01690    0.00010   33.00000
 10028.00000    8.75000 3446.00000   25.61180    0.01560    0.01050    0.00040    0.00040   26.62690    0.01910    0.01210    0.00000    0.00360    0.00510    0.00000    0.00080    0.00970    0.00000    0.00000    0.01560    0.00000   33.00000
 10027.50000    8.75000 3437.00000   30.46220    0.01120    0.00690    0.00010    0.00010   17.03700    0.01510    0.01110    0.00000    0.00380    0.00440    0.00000    0.00110    0.00570    0.00000    0.00000    0.01120    0.00000   33.00000
 10027.00000    8.75000 3470.00000   38.06410    0.00840    0.00300    0.00000    0.00000    6.26050    0.01530    0.00650    0.00020    0.00680    0.00530    0.00000    0.00000    0.00300    0.00000    0.00000    0.00840    0.00020   33.00000
 10026.50000    8.75000 3440.00000   44.29160    0.01160    0.00180    0.00000    0.00000    4.71930    0.02090    0.00970    0.00060    0.00870    0.00820    0.00160    0.00000    0.00070    0.00110    0.00000    0.01160    0.00010   33.00000
 10026.00000    8.75000 3474.00000   41.59290    0.01260    0.00030    0.00000    0.00000    3.48570    0.02900    0.01220    0.00390    0.01260    0.00420    0.00810    0.00030    0.00000    0.00000    0.00000    0.01260    0.00000   33.00000
 10025.50000    8.75000 3436.00000   35.21600    0.00990    0.00160    0.00000    0.00000    1.97540    0.04030    0.01350    0.01540    0.01500    0.00090    0.00740    0.00160    0.00000    0.00000    0.00000    0.00990    0.00050   33.00000
