~Version ---------------------------------------------------
VERS     .                                                                         2.0 : CWLS log ASCII Standard -VERSION 2.0
WRAP     .                                                                          NO : One Line per depth step
PROD     .                                                                Schlumberger : LAS Producer
PROG     .                                                      DLIS to ASCII 15C0-309 : LAS Program name and version
CREA     . 2008/02/21 06:17                          :LAS Creation date {YYYY/MM/DD hh : mm}
DLIS_CREA.     2008-Feb-21	03:10			       :DLIS Creation date and time {YYYY-MMM-DD hh : mm}
SOURCE   .                                                             CMR_058LUP.DLIS : DLIS File Name
FILE-ID  .                                                                  CMR_058LUP : File Identification Number
~Well ------------------------------------------------------
STRT.F     10520.0 : START DEPTH
STOP.F      9849.0 : STOP DEPTH
STEP.F        -0.5 : STEP
NULL.      -999.25 : NULL VALUE
COMP.              : COMPANY
WELL.       Bakken : WELL
FLD .              : FIELD
LOC .              : LOCATION
CNTY.              : COUNTY
STAT.    N. DAKOTA : STATE
CTRY.              : COUNTRY
API .              : API NUMBER
UWI .              : UNIQUE WELL ID
DATE.              : LOG DATE {DD-MMM-YYYY}
SRVC. Schlumberger : SERVICE COMPANY
LATI.DEG         0 : LATITUDE
LONG.DEG         0 : LONGITUDE
GDAT.              : GeoDetic Datum
SECT.           28 : Section
RANG.          92W : Range
TOWN.         154N : Township
~Curve Information -----------------------------------------
DEPT          .F     : DEPTH (BOREHOLE) {F10.1}
BS            .IN    : Bit Size {F13.4}
TENS          .LBF   : Cable Tension {F13.4}
GR_EDTC       .GAPI  : Gamma Ray {F13.4}
CMRP_3MS      .CFCF  : CMR 3ms Porosity {F13.4}
CMFF          .CFCF  : CMR Free Fluid {F13.4}
KSDR          .MD    : Permeability from CMR - SDR Model {F13.4}
KTIM          .MD    : Permeability from CMR - Timur Model {F13.4}
T2LM          .MS    : T2 Logarithmic Mean {F13.4}
TCMR          .CFCF  : Total CMR Porosity {F13.4}
CMRP_3MS_MW[0].CFCF  : CMR 3ms Porosity - Multi Wait {AF13.4}
CBP1          .CFCF  : CMR Bin Porosity 1 {F13.4}
CBP2          .CFCF  : CMR Bin Porosity 2 {F13.4}
CBP3          .CFCF  : CMR Bin Porosity 3 {F13.4}
CBP4          .CFCF  : CMR Bin Porosity 4 {F13.4}
CBP5          .CFCF  : CMR Bin Porosity 5 {F13.4}
CBP6          .CFCF  : CMR Bin Porosity 6 {F13.4}
CBP7          .CFCF  : CMR Bin Porosity 7 {F13.4}
CBP8          .CFCF  : CMR Bin Porosity 8 {F13.4}
CFF2          .CFCF  : CMR Free Fluid Porosity for T2 Cutoff 2 {F13.4}
T2_DIST_MW[0] .CFCF  : T2 Distribution - Multi Wait {AF13.4}
T2CUTOFF      .MS    : T2 Cutoff {F13.4}
~Params ----------------------------------------------------
RUN .           ONE : RUN NUMBER
PDAT.  GROUND LEVEL : Permanent Datum
EPD .F       2111.0 : Elevation of Permanent Datum above Mean Sea Level
LMF . KELLY BUSHING : Logging Measured From (Name of Logging Elevation Reference)
APD .F         18.0 : Elevation of Depth Reference (LMF) above Permanent Datum
~Other -----------------------------------------------------
~ASCII -----------------------------------------------------
# ...
 10256.00000    8.75000 3559.00000   93.98790    0.06710    0.00750    0.01220    0.00530    7.12410    0.08810    0.07180    0.00140    0.01950    0.03170    0.02780    0.00740    0.00010    0.00000    0.00000    0.06710    0.00000   33.00000
 10255.50000    8.75000 3544.00000   92.12740    0.07510    0.01000    0.01810    0.01150    7.32100    0.09580    0.08060    0.00060    0.02020    0.04160    0.02340    0.00720    0.00290    0.00000    0.00000    0.07510    0.00000   33.00000
 10255.00000    8.75000 3523.00000   92.03880    0.07610    0.01200    0.01850    0.01580    8.23950    0.09080    0.07940    0.00010    0.01460    0.04440    0.01970    0.00760    0.00440    0.00000    0.00000    0.07610    0.00000   33.00000
 10254.50000    8.75000 3543.00000   90.63710    0.06560    0.01140    0.01220    0.01160    8.33840    0.08130    0.06650    0.00030    0.01550    0.03600    0.01820    0.00960    0.00010    0.00000    0.00170    0.06560    0.00000   33.00000
 10254.00000    8.75000 3504.00000   81.68000    0.05480    0.00690    0.00610    0.00310    7.29630    0.07310    0.05480    0.00160    0.01660    0.03000    0.01790    0.00480    0.00000    0.00000    0.00210    0.05480    0.00040   33.00000
 10253.50000    8.75000 3542.00000   73.07740    0.05330    0.00580    0.00510    0.00230    6.21060    0.07580    0.05370    0.00370    0.01880    0.03100    0.01650    0.00350    0.00000    0.00000    0.00230    0.05330    0.00060   33.00000
 10253.00000    8.75000 3527.00000   65.15450    0.05670    0.00350    0.00400    0.00070    5.87510    0.07340    0.05620    0.00030    0.01630    0.04080    0.01240    0.00000    0.00350    0.00000    0.00000    0.05670    0.00060   33.00000
 10252.50000    8.75000 3521.00000   66.83720    0.05810    0.00420    0.00360    0.00090    7.03060    0.06550    0.05670    0.00000    0.00740    0.04440    0.00950    0.00000    0.00420    0.00000    0.00000    0.05810    0.00050   33.00000
 10252.00000    8.75000 3516.00000   69.81670    0.05260    0.00500    0.00290    0.00100    8.32710    0.05710    0.05320    0.00000    0.00440    0.03750    0.01010    0.00000    0.00430    0.00070    0.00000    0.05260    0.00040   33.00000
 10251.50000    8.75000 3498.00000   73.71140    0.04390    0.00610    0.00200    0.00140    7.27520    0.05530    0.04640    0.00700    0.00440    0.02440    0.01340    0.00000    0.00350    0.00260    0.00000    0.04390    0.00010   33.00000
 10251.00000    8.75000 3482.00000   83.76070    0.04170    0.01360    0.00330    0.01410    5.73230    0.07080    0.04350    0.01950    0.00950    0.01130    0.01680    0.01040    0.00030    0.00000    0.00290    0.04170    0.00110   33.00000
 10250.50000    8.75000 3525.00000   93.16400    0.05210    0.01060    0.00710    0.00870    7.45150    0.07520    0.05100    0.01130    0.01170    0.01900    0.02250    0.00700    0.00000    0.00000    0.00360    0.05210    0.00130   33.00000
 10250.00000    8.75000 3482.00000  107.10890    0.05670    0.00630    0.00990    0.00240    9.95590    0.07070    0.05530    0.00310    0.01090    0.02580    0.02460    0.00140    0.00000    0.00000    0.00490    0.05670    0.00130   33.00000
 10249.50000    8.75000 3517.00000  111.80650    0.06010    0.00580    0.01110    0.00190   10.85100    0.06960    0.05620    0.00000    0.00950    0.03370    0.02060    0.00000    0.00000    0.00000    0.00580    0.06010    0.00120   33.00000
 10249.00000    8.75000 3510.00000  115.17760    0.06400    0.00540    0.01090    0.00190    9.37200    0.07460    0.05670    0.00000    0.01060    0.04090    0.01770    0.00000    0.00000    0.00000    0.00540    0.06400    0.00080   33.00000
 10248.50000    8.75000 3498.00000  106.74990    0.06240    0.00460    0.00740    0.00150    6.74460    0.07970    0.05960    0.00180    0.01560    0.03970    0.01810    0.00000    0.00030    0.00430    0.00000    0.06240    0.00050   33.00000
 10248.00000    8.75000 3516.00000  103.75340    0.06080    0.00400    0.00630    0.00110    6.55250    0.07780    0.06120    0.00190    0.01510    0.03650    0.02030    0.00000    0.00400    0.00000    0.00000    0.06080    0.00030   33.00000
 10247.50000    8.75000 3515.00000  103.36430    0.05830    0.00370    0.00540    0.00090    6.42370    0.07550    0.05830    0.00290    0.01430    0.03240    0.02210    0.00230    0.00140    0.00000    0.00000    0.05830    0.00110   33.00000
 10247.00000    8.75000 3488.00000  111.51100    0.05650    0.00580    0.00520    0.00270    5.17720    0.08340    0.05770    0.00940    0.01750    0.03180    0.01880    0.00210    0.00370    0.00000    0.00000    0.05650    0.00230   33.00000
 10246.50000    8.75000 3513.00000  114.97570    0.05470    0.00460    0.00420    0.00190    3.99950    0.09000    0.05610    0.01410    0.02120    0.03690    0.01320    0.00000    0.00380    0.00080    0.00000    0.05470    0.00260   33.00000
 10246.00000    8.75000 3498.00000  120.80400    0.05410    0.00370    0.00450    0.00130    4.03950    0.09130    0.05020    0.01070    0.02640    0.04420    0.00620    0.00000    0.00000    0.00000    0.00370    0.05410    0.00240   33.00000
 10245.50000    8.75000 3489.00000  123.68890    0.05480    0.00160    0.00360    0.00020    3.67310    0.09020    0.04700    0.00770    0.02770    0.04840    0.00480    0.00000    0.00000    0.00000    0.00150    0.05480    0.00150   33.00000
 10245.00000    8.75000 3489.00000  123.89290    0.05690    0.00080    0.00400    0.00010    3.65940    0.09270    0.05160    0.00880    0.02690    0.04590    0.01020    0.00000    0.00000    0.00000    0.00080    0.05690    0.00120   33.00000
 10244.50000    8.75000 3483.00000  122.21940    0.06070    0.00220    0.00590    0.00040    4.49520    0.09250    0.06390    0.01050    0.02120    0.03990    0.01860    0.00000    0.00000    0.00120    0.00100    0.06070    0.00070   33.00000
 10244.00000    8.75000 3476.00000  123.82930    0.06350    0.00740    0.00860    0.00490    6.15100    0.08690    0.06740    0.00450    0.01900    0.03880    0.01730    0.00100    0.00630    0.00000    0.00000    0.06350    0.00030   33.00000
 10243.50000    8.75000 3491.00000  125.92700    0.06180    0.01000    0.00900    0.01050    5.70800    0.09110    0.06230    0.00490    0.02440    0.03920    0.01260    0.00320    0.00690    0.00000    0.00000    0.06180    0.00000   33.00000
 10243.00000    8.75000 3470.00000  126.95500    0.06080    0.00700    0.00800    0.00520    4.97090    0.09480    0.06080    0.00790    0.02610    0.03960    0.01420    0.00060    0.00510    0.00120    0.00010    0.06080    0.00000   33.00000
 10242.50000    8.75000 3502.00000  125.44770    0.06330    0.00330    0.00780    0.00100    5.20300    0.09210    0.06780    0.01050    0.01830    0.04010    0.01980    0.00000    0.00000    0.00000    0.00330    0.06330    0.00000   33.00000
 10242.00000    8.75000 3477.00000  127.52430    0.06570    0.00050    0.00600    0.00000    4.94010    0.08870    0.06860    0.00760    0.01540    0.04260    0.02260    0.00000    0.00000    0.00000    0.00050    0.06570    0.00000   33.00000
 10241.50000    8.75000 3483.00000  131.63030    0.06540    0.00000    0.00620    0.00000    4.58470    0.09250    0.06740    0.00770    0.01940    0.04260    0.02280    0.00000    0.00000    0.00000    0.00000    0.06540    0.00100   33.00000
 10241.00000    8.75000 3494.00000  134.12420    0.06290    0.00580    0.00730    0.00330    4.97440    0.09260    0.06280    0.00500    0.02470    0.04250    0.01460    0.00290    0.00290    0.00000    0.00000    0.06290    0.00220   33.00000
 10240.50000    8.75000 3497.00000  133.23150    0.05960    0.00960    0.00810    0.00970    5.31570    0.09190    0.06080    0.00650    0.02580    0.03890    0.01120    0.00440    0.00370    0.00030    0.00110    0.05960    0.00230   33.00000
 10240.00000    8.75000 3486.00000  128.71500    0.05930    0.00750    0.00960    0.00570    5.65270    0.09320    0.06240    0.00850    0.02540    0.03680    0.01500    0.00250    0.00000    0.00000    0.00500    0.05930    0.00110   33.00000
