~Version ---------------------------------------------------
VERS     .                                                                         2.0 : CWLS log ASCII Standard -VERSION 2.0
WRAP     .                                                                          NO : One Line per depth step
PROD     .                                                                Schlumberger : LAS Producer
PROG     .                                                      DLIS to ASCII 15C0-309 : LAS Program name and version
CREA     . 2008/02/21 06:17                          :LAS Creation date {YYYY/MM/DD hh : mm}
DLIS_CREA.     2008-Feb-21	03:10			       :DLIS Creation date and time {YYYY-MMM-DD hh : mm}
SOURCE   .                                                             CMR_058LUP.DLIS : DLIS File Name
FILE-ID  .                                                                  CMR_058LUP : File Identification Number
~Well ------------------------------------------------------
STRT.F     10520.0 : START DEPTH
STOP.F      9849.0 : STOP DEPTH
STEP.F        -0.5 : STEP
NULL.      -999.25 : NULL VALUE
COMP.              : COMPANY
WELL.       Bakken : WELL
FLD .              : FIELD
LOC .              : LOCATION
CNTY.              : COUNTY
STAT.    N. DAKOTA : STATE
CTRY.              : COUNTRY
API .              : API NUMBER
UWI .              : UNIQUE WELL ID
DATE.              : LOG DATE {DD-MMM-YYYY}
SRVC. Schlumberger : SERVICE COMPANY
LATI.DEG         0 : LATITUDE
LONG.DEG         0 : LONGITUDE
GDAT.              : GeoDetic Datum
SECT.           28 : Section
RANG.          92W : Range
TOWN.         154N : Township
~Curve Information -----------------------------------------
DEPT          .F     : DEPTH (BOREHOLE) {F10.1}
BS            .IN    : Bit Size {F13.4}
TENS          .LBF   : Cable Tension {F13.4}
GR_EDTC       .GAPI  : Gamma Ray {F13.4}
CMRP_3MS      .CFCF  : CMR 3ms Porosity {F13.4}
CMFF          .CFCF  : CMR Free Fluid {F13.4}
KSDR          .MD    : Permeability from CMR - SDR Model {F13.4}
KTIM          .MD    : Permeability from CMR - Timur Model {F13.4}
T2LM          .MS    : T2 Logarithmic Mean {F13.4}
TCMR          .CFCF  : Total CMR Porosity {F13.4}
CMRP_3MS_MW[0].CFCF  : CMR 3ms Porosity - Multi Wait {AF13.4}
CBP1          .CFCF  : CMR Bin Porosity 1 {F13.4}
CBP2          .CFCF  : CMR Bin Porosity 2 {F13.4}
CBP3          .CFCF  : CMR Bin Porosity 3 {F13.4}
CBP4          .CFCF  : CMR Bin Porosity 4 {F13.4}
CBP5          .CFCF  : CMR Bin Porosity 5 {F13.4}
CBP6          .CFCF  : CMR Bin Porosity 6 {F13.4}
CBP7          .CFCF  : CMR Bin Porosity 7 {F13.4}
CBP8          .CFCF  : CMR Bin Porosity 8 {F13.4}
CFF2          .CFCF  : CMR Free Fluid Porosity for T2 Cutoff 2 {F13.4}
T2_DIST_MW[0] .CFCF  : T2 Distribution - Multi Wait {AF13.4}
T2CUTOFF      .MS    : T2 Cutoff {F13.4}
~Params ----------------------------------------------------
RUN .           ONE : RUN NUMBER
PDAT.  GROUND LEVEL : Permanent Datum
EPD .F       2111.0 : Elevation of Permanent Datum above Mean Sea Level
LMF . KELLY BUSHING : Logging Measured From (Name of Logging Elevation Reference)
APD .F         18.0 : Elevation of Depth Reference (LMF) above Permanent Datum
~Other -----------------------------------------------------
~ASCII -----------------------------------------------------
# ...
 9992.00000    8.75000 3497.00000   40.00280    0.02450    0.00540    0.00030    0.00050    6.67800    0.03500    0.02550    0.00090    0.00960    0.01370    0.00540    0.00370    0.00170    0.00000    0.00000    0.02450    0.00040   33.00000
 9991.50000    8.75000 3435.00000   39.35210    0.02550    0.00930    0.00070    0.00250    7.53460    0.04150    0.02840    0.00240    0.01360    0.01140    0.00480    0.00670    0.00030    0.00030    0.00190    0.02550    0.00010   33.00000
 9991.00000    8.75000 3461.00000   34.52550    0.01930    0.01270    0.00060    0.00500    9.34250    0.03590    0.02020    0.00290    0.01370    0.00480    0.00180    0.00970    0.00000    0.00000    0.00300    0.01930    0.00060   33.00000
 9990.50000    8.75000 3525.00000   33.19710    0.01630    0.01310    0.00050    0.00300   13.56390    0.02890    0.01610    0.00270    0.00980    0.00170    0.00150    0.00990    0.00000    0.00000    0.00320    0.01630    0.00040   33.00000
 9990.00000    8.75000 3455.00000   33.22790    0.01430    0.00940    0.00020    0.00070   13.20710    0.02350    0.01430    0.00600    0.00310    0.00020    0.00470    0.00620    0.00010    0.00000    0.00310    0.01430    0.00080   33.00000
 9989.50000    8.75000 3458.00000   35.68670    0.01690    0.00490    0.00010    0.00020    9.50800    0.02510    0.01710    0.00830    0.00000    0.00130    0.01070    0.00110    0.00000    0.00170    0.00200    0.01690    0.00110   33.00000
 9989.00000    8.75000 3446.00000   33.56130    0.01900    0.00350    0.00020    0.00010   13.78350    0.02190    0.01880    0.00180    0.00100    0.00670    0.00880    0.00010    0.00060    0.00230    0.00050    0.01900    0.00080   33.00000
 9988.50000    8.75000 3463.00000   28.88600    0.01630    0.00610    0.00010    0.00050    5.83530    0.02830    0.01630    0.00560    0.00640    0.00620    0.00400    0.00460    0.00020    0.00040    0.00090    0.01630    0.00130   33.00000
 9988.00000    8.75000 3459.00000   26.49810    0.01800    0.00560    0.00010    0.00040    5.48680    0.02950    0.01750    0.00610    0.00540    0.00710    0.00530    0.00500    0.00000    0.00000    0.00060    0.01800    0.00080   33.00000
 9987.50000    8.75000 3433.00000   25.83620    0.02260    0.00490    0.00020    0.00030    9.89330    0.02670    0.02290    0.00050    0.00370    0.01070    0.00700    0.00430    0.00000    0.00000    0.00060    0.02260    0.00000   33.00000
 9987.00000    8.75000 3469.00000   28.57110    0.02360    0.00620    0.00030    0.00030   14.95210    0.02390    0.02420    0.00000    0.00040    0.01270    0.00470    0.00430    0.00090    0.00000    0.00110    0.02360    0.00000   33.00000
 9986.50000    8.75000 3429.00000   28.04770    0.01840    0.00630    0.00010    0.00010   16.09540    0.01840    0.01900    0.00000    0.00000    0.01010    0.00190    0.00430    0.00210    0.00000    0.00000    0.01840    0.00000   33.00000
 9986.00000    8.75000 3453.00000   30.29510    0.01550    0.00500    0.00010    0.00000   17.83000    0.01550    0.01510    0.00000    0.00000    0.00720    0.00340    0.00230    0.00270    0.00000    0.00000    0.01550    0.00000   33.00000
 9985.50000    8.75000 3474.00000   34.66350    0.01850    0.00240    0.00010    0.00000   14.60820    0.01850    0.01850    0.00000    0.00000    0.00850    0.00750    0.00000    0.00110    0.00130    0.00000    0.01850    0.00000   33.00000
 9985.00000    8.75000 3427.00000   41.74030    0.02400    0.00260    0.00020    0.00010    8.75410    0.02720    0.02480    0.00230    0.00090    0.01420    0.00720    0.00000    0.00010    0.00250    0.00010    0.02400    0.00000   33.00000
 9984.50000    8.75000 3431.00000   47.52750    0.02140    0.00400    0.00010    0.00030    4.54440    0.03590    0.01980    0.00710    0.00740    0.01350    0.00380    0.00000    0.00240    0.00160    0.00000    0.02140    0.00110   33.00000
 9984.00000    8.75000 3458.00000   46.85980    0.01660    0.00560    0.00010    0.00070    3.53760    0.03950    0.01340    0.00930    0.01370    0.01070    0.00020    0.00140    0.00170    0.00160    0.00090    0.01660    0.00180   33.00000
 9983.50000    8.75000 3446.00000   44.30310    0.01190    0.00500    0.00010    0.00030    5.31530    0.03050    0.01000    0.01060    0.00800    0.00240    0.00450    0.00060    0.00000    0.00000    0.00440    0.01190    0.00160   33.00000
 9983.00000    8.75000 3436.00000   40.18120    0.00830    0.00330    0.00000    0.00010    3.66520    0.02650    0.00580    0.00930    0.00890    0.00340    0.00160    0.00000    0.00000    0.00000    0.00330    0.00830    0.00130   33.00000
 9982.50000    8.75000 3434.00000   37.45560    0.00630    0.00200    0.00000    0.00000    2.47920    0.02470    0.00740    0.00800    0.01040    0.00420    0.00000    0.00010    0.00000    0.00000    0.00190    0.00630    0.00070   33.00000
 9982.00000    8.75000 3433.00000   36.38190    0.01440    0.00160    0.00000    0.00000    3.42020    0.02980    0.01490    0.00380    0.01160    0.01200    0.00080    0.00030    0.00020    0.00020    0.00090    0.01440    0.00050   33.00000
 9981.50000    8.75000 3429.00000   35.93680    0.02570    0.00340    0.00030    0.00020    5.48660    0.03910    0.02420    0.00090    0.01260    0.02090    0.00140    0.00070    0.00050    0.00050    0.00170    0.02570    0.00080   33.00000
 9981.00000    8.75000 3460.00000   37.96500    0.02950    0.00760    0.00070    0.00190    5.93620    0.04780    0.02820    0.00330    0.01490    0.01950    0.00240    0.00420    0.00100    0.00030    0.00210    0.02950    0.00160   33.00000
 9980.50000    8.75000 3421.00000   31.88050    0.02290    0.00860    0.00050    0.00190    6.85690    0.03970    0.02130    0.00250    0.01430    0.01170    0.00260    0.00350    0.00290    0.00150    0.00070    0.02290    0.00160   33.00000
 9980.00000    8.75000 3478.00000   27.47480    0.01350    0.00840    0.00010    0.00100    7.38530    0.02750    0.01000    0.00210    0.01190    0.00480    0.00030    0.00270    0.00460    0.00110    0.00000    0.01350    0.00250   33.00000
 9979.50000    8.75000 3426.00000   20.55290    0.00970    0.00360    0.00000    0.00000    7.80900    0.01590    0.00610    0.00020    0.00600    0.00610    0.00010    0.00000    0.00310    0.00050    0.00000    0.00970    0.00150   33.00000
 9979.00000    8.75000 3428.00000   19.18090    0.00950    0.00380    0.00000    0.00000   12.60440    0.01360    0.00630    0.00000    0.00410    0.00570    0.00000    0.00000    0.00020    0.00360    0.00000    0.00950    0.00130   33.00000
 9978.50000    8.75000 3439.00000   19.30020    0.00950    0.00380    0.00000    0.00000   12.60440    0.01360    0.00630    0.00000    0.00410    0.00570    0.00000    0.00000    0.00020    0.00360    0.00000    0.00950    0.00130   33.00000
 9978.00000    8.75000 3401.00000   21.40140    0.01510    0.00560    0.00010    0.00010   13.29170    0.01860    0.00890    0.00000    0.00350    0.00950    0.00000    0.00000    0.00410    0.00150    0.00000    0.01510    0.00240   33.00000
 9977.50000    8.75000 3426.00000   22.94340    0.01440    0.00540    0.00010    0.00000   25.61200    0.01440    0.01230    0.00000    0.00000    0.00740    0.00150    0.00000    0.00380    0.00160    0.00000    0.01440    0.00210   33.00000
 9977.00000    8.75000 3421.00000   24.24710    0.01450    0.00690    0.00010    0.00010   28.87210    0.01450    0.00930    0.00000    0.00000    0.00520    0.00230    0.00450    0.00150    0.00000    0.00100    0.01450    0.00230   33.00000
 9976.50000    8.75000 3373.00000   24.51370    0.01320    0.00560    0.00000    0.00000   19.12750    0.01330    0.01340    0.00000    0.00010    0.00490    0.00270    0.00520    0.00040    0.00000    0.00000    0.01320    0.00050   33.00000
 9976.00000    8.75000 3428.00000   29.16420    0.01620    0.00360    0.00000    0.00000    9.12700    0.01790    0.01500    0.00000    0.00170    0.01160    0.00110    0.00230    0.00130    0.00000    0.00000    0.01620    0.00030   33.00000
