~Version ---------------------------------------------------
VERS     .                                                                         2.0 : CWLS log ASCII Standard -VERSION 2.0
WRAP     .                                                                          NO : One Line per depth step
PROD     .                                                                Schlumberger : LAS Producer
PROG     .                                                      DLIS to ASCII 15C0-309 : LAS Program name and version
CREA     . 2008/02/21 06:17                          :LAS Creation date {YYYY/MM/DD hh : mm}
DLIS_CREA.     2008-Feb-21	03:10			       :DLIS Creation date and time {YYYY-MMM-DD hh : mm}
SOURCE   .                                                             CMR_058LUP.DLIS : DLIS File Name
FILE-ID  .                                                                  CMR_058LUP : File Identification Number
~Well ------------------------------------------------------
STRT.F     10520.0 : START DEPTH
STOP.F      9849.0 : STOP DEPTH
STEP.F        -0.5 : STEP
NULL.      -999.25 : NULL VALUE
COMP.              : COMPANY
WELL.       Bakken : WELL
FLD .              : FIELD
LOC .              : LOCATION
CNTY.              : COUNTY
STAT.    N. DAKOTA : STATE
CTRY.              : COUNTRY
API .              : API NUMBER
UWI .              : UNIQUE WELL ID
DATE.              : LOG DATE {DD-MMM-YYYY}
SRVC. Schlumberger : SERVICE COMPANY
LATI.DEG         0 : LATITUDE
LONG.DEG         0 : LONGITUDE
GDAT.              : GeoDetic Datum
SECT.           28 : Section
RANG.          92W : Range
TOWN.         154N : Township
~Curve Information -----------------------------------------
DEPT          .F     : DEPTH (BOREHOLE) {F10.1}
BS            .IN    : Bit Size {F13.4}
TENS          .LBF   : Cable Tension {F13.4}
GR_EDTC       .GAPI  : Gamma Ray {F13.4}
CMRP_3MS      .CFCF  : CMR 3ms Porosity {F13.4}
CMFF          .CFCF  : CMR Free Fluid {F13.4}
KSDR          .MD    : Permeability from CMR - SDR Model {F13.4}
KTIM          .MD    : Permeability from CMR - Timur Model {F13.4}
T2LM          .MS    : T2 Logarithmic Mean {F13.4}
TCMR          .CFCF  : Total CMR Porosity {F13.4}
CMRP_3MS_MW[0].CFCF  : CMR 3ms Porosity - Multi Wait {AF13.4}
CBP1          .CFCF  : CMR Bin Porosity 1 {F13.4}
CBP2          .CFCF  : CMR Bin Porosity 2 {F13.4}
CBP3          .CFCF  : CMR Bin Porosity 3 {F13.4}
CBP4          .CFCF  : CMR Bin Porosity 4 {F13.4}
CBP5          .CFCF  : CMR Bin Porosity 5 {F13.4}
CBP6          .CFCF  : CMR Bin Porosity 6 {F13.4}
CBP7          .CFCF  : CMR Bin Porosity 7 {F13.4}
CBP8          .CFCF  : CMR Bin Porosity 8 {F13.4}
CFF2          .CFCF  : CMR Free Fluid Porosity for T2 Cutoff 2 {F13.4}
T2_DIST_MW[0] .CFCF  : T2 Distribution - Multi Wait {AF13.4}
T2CUTOFF      .MS    : T2 Cutoff {F13.4}
~Params ----------------------------------------------------
RUN .           ONE : RUN NUMBER
PDAT.  GROUND LEVEL : Permanent Datum
EPD .F       2111.0 : Elevation of Permanent Datum above Mean Sea Level
LMF . KELLY BUSHING : Logging Measured From (Name of Logging Elevation Reference)
APD .F         18.0 : Elevation of Depth Reference (LMF) above Permanent Datum
~Other -----------------------------------------------------
~ASCII -----------------------------------------------------
# ...
 9860.00000    8.75000 3383.00000   30.86420    0.01520    0.00640    0.00010    0.00020   10.48980    0.02010    0.01450    0.00100    0.00390    0.00820    0.00050    0.00170    0.00470    0.00000    0.00000    0.01520    0.00100   33.00000
 9859.50000    8.75000 3382.00000   25.81450    0.01400    0.00450    0.00000    0.00020    4.35410    0.02540    0.01420    0.00570    0.00570    0.00910    0.00040    0.00050    0.00400    0.00000    0.00000    0.01400    0.00090   33.00000
 9859.00000    8.75000 3352.00000   22.90820    0.01520    0.00350    0.00000    0.00010    3.10090    0.03060    0.01770    0.00950    0.00600    0.01070    0.00100    0.00000    0.00350    0.00000    0.00000    0.01520    0.00030   33.00000
 9858.50000    8.75000 3391.00000   20.08510    0.01290    0.00260    0.00000    0.00010    2.96250    0.03010    0.01550    0.01150    0.00570    0.00670    0.00360    0.00090    0.00000    0.00000    0.00170    0.01290    0.00000   33.00000
 9858.00000    8.75000 3353.00000   16.57080    0.00650    0.00250    0.00000    0.00000    3.40510    0.02110    0.00650    0.00920    0.00540    0.00140    0.00270    0.00000    0.00000    0.00000    0.00240    0.00650    0.00000   33.00000
 9857.50000    8.75000 3351.00000   14.84050    0.00990    0.00450    0.00000    0.00000   10.85670    0.01760    0.01020    0.00660    0.00110    0.00000    0.00540    0.00160    0.00000    0.00000    0.00290    0.00990    0.00000   33.00000
 9857.00000    8.75000 3337.00000   14.44080    0.01720    0.00230    0.00020    0.00000   12.53950    0.02380    0.01850    0.00220    0.00440    0.00180    0.01300    0.00000    0.00000    0.00000    0.00230    0.01720    0.00000   33.00000
 9856.50000    8.75000 3364.00000   15.53720    0.02240    0.00190    0.00030    0.00000   12.70480    0.02610    0.02310    0.00050    0.00330    0.00600    0.01450    0.00060    0.00000    0.00000    0.00140    0.02240    0.00000   33.00000
 9856.00000    8.75000 3290.00000   16.04560    0.01870    0.00230    0.00010    0.00000   12.51240    0.02060    0.01880    0.00070    0.00130    0.00400    0.01240    0.00230    0.00000    0.00000    0.00000    0.01870    0.00000   33.00000
 9855.50000    8.75000 3416.00000   16.62250    0.01370    0.00580    0.00010    0.00000   20.21300    0.01480    0.01390    0.00100    0.00000    0.00100    0.00700    0.00550    0.00020    0.00000    0.00000    0.01370    0.00020   33.00000
 9855.00000    8.75000 3358.00000   18.83700    0.01330    0.00470    0.00000    0.00010    7.86940    0.01930    0.01150    0.00270    0.00330    0.00810    0.00060    0.00000    0.00400    0.00060    0.00000    0.01330    0.00130   33.00000
 9854.50000    8.75000 3391.00000   23.06420    0.01240    0.00440    0.00010    0.00020    4.59070    0.02890    0.00990    0.00370    0.01280    0.00800    0.00000    0.00000    0.00060    0.00360    0.00020    0.01240    0.00130   33.00000
 9854.00000    8.75000 3372.00000   28.62420    0.01410    0.00550    0.00010    0.00040    5.74980    0.03010    0.01140    0.00140    0.01460    0.00860    0.00000    0.00000    0.00220    0.00320    0.00010    0.01410    0.00020   33.00000
 9853.50000    8.75000 3416.00000   30.96520    0.01460    0.00580    0.00010    0.00040    7.42940    0.02560    0.01300    0.00040    0.01060    0.00880    0.00000    0.00090    0.00320    0.00060    0.00100    0.01460    0.00010   33.00000
 9853.00000    8.75000 3406.00000   30.85820    0.01540    0.00780    0.00010    0.00070    7.54390    0.02560    0.01440    0.00100    0.00920    0.00730    0.00030    0.00670    0.00000    0.00000    0.00100    0.01540    0.00070   33.00000
 9852.50000    8.75000 3388.00000   35.30260    0.01480    0.00560    0.00000    0.00020    6.04820    0.02340    0.01180    0.00390    0.00460    0.00650    0.00270    0.00520    0.00000    0.00000    0.00040    0.01480    0.00190   33.00000
 9852.00000    8.75000 3410.00000   41.03770    0.00950    0.00460    0.00000    0.00000    6.48150    0.01670    0.00900    0.00650    0.00080    0.00000    0.00490    0.00380    0.00000    0.00000    0.00080    0.00950    0.00220   33.00000
 9851.50000    8.75000 3412.00000   46.36270    0.01070    0.00530    0.00000    0.00010    9.36250    0.01790    0.01090    0.00520    0.00190    0.00000    0.00540    0.00390    0.00000    0.00000    0.00140    0.01070    0.00170   33.00000
 9851.00000    8.75000 3392.00000   44.92350    0.01610    0.00290    0.00020    0.00000   14.74960    0.02150    0.01690    0.00060    0.00470    0.00440    0.00880    0.00000    0.00000    0.00000    0.00290    0.01610    0.00080   33.00000
 9850.50000    8.75000 3428.00000   41.82110    0.02420    0.00300    0.00040    0.00010    8.96100    0.03240    0.02570    0.00140    0.00680    0.01280    0.00850    0.00000    0.00000    0.00000    0.00290    0.02420    0.00050   33.00000
 9850.00000    8.75000 3398.00000   41.45910    0.02740    0.00250    0.00030    0.00010    5.86650    0.03990    0.02840    0.00440    0.00800    0.01760    0.00740    0.00000    0.00000    0.00000    0.00250    0.02740    0.00110   33.00000
 9849.50000    8.75000 3409.00000   42.24280    0.02660    0.00280    0.00030    0.00010    6.22990    0.03870    0.02870    0.00260    0.00950    0.01790    0.00590    0.00000    0.00000    0.00050    0.00230    0.02660    0.00050   33.00000
 9849.00000    8.75000 3406.00000   41.78340    0.02420    0.00380    0.00030    0.00020    8.55920    0.03100    0.02460    0.00000    0.00680    0.01680    0.00360    0.00020    0.00080    0.00150    0.00140    0.02420    0.00000   33.00000
