~Version ---------------------------------------------------
VERS     .                                                                         2.0 : CWLS log ASCII Standard -VERSION 2.0
WRAP     .                                                                          NO : One Line per depth step
PROD     .                                                                Schlumberger : LAS Producer
PROG     .                                                      DLIS to ASCII 15C0-309 : LAS Program name and version
CREA     . 2008/02/21 06:17                          :LAS Creation date {YYYY/MM/DD hh : mm}
DLIS_CREA.     2008-Feb-21	03:10			       :DLIS Creation date and time {YYYY-MMM-DD hh : mm}
SOURCE   .                                                             CMR_058LUP.DLIS : DLIS File Name
FILE-ID  .                                                                  CMR_058LUP : File Identification Number
~Well ------------------------------------------------------
STRT.F     10520.0 : START DEPTH
STOP.F      9849.0 : STOP DEPTH
STEP.F        -0.5 : STEP
NULL.      -999.25 : NULL VALUE
COMP.              : COMPANY
WELL.       Bakken : WELL
FLD .              : FIELD
LOC .              : LOCATION
CNTY.              : COUNTY
STAT.    N. DAKOTA : STATE
CTRY.              : COUNTRY
API .              : API NUMBER
UWI .              : UNIQUE WELL ID
DATE.              : LOG DATE {DD-MMM-YYYY}
SRVC. Schlumberger : SERVICE COMPANY
LATI.DEG         0 : LATITUDE
LONG.DEG         0 : LONGITUDE
GDAT.              : GeoDetic Datum
SECT.           28 : Section
RANG.          92W : Range
TOWN.         154N : Township
~Curve Information -----------------------------------------
DEPT          .F     : DEPTH (BOREHOLE) {F10.1}
BS            .IN    : Bit Size {F13.4}
TENS          .LBF   : Cable Tension {F13.4}
GR_EDTC       .GAPI  : Gamma Ray {F13.4}
CMRP_3MS      .CFCF  : CMR 3ms Porosity {F13.4}
CMFF          .CFCF  : CMR Free Fluid {F13.4}
KSDR          .MD    : Permeability from CMR - SDR Model {F13.4}
KTIM          .MD    : Permeability from CMR - Timur Model {F13.4}
T2LM          .MS    : T2 Logarithmic Mean {F13.4}
TCMR          .CFCF  : Total CMR Porosity {F13.4}
CMRP_3MS_MW[0].CFCF  : CMR 3ms Porosity - Multi Wait {AF13.4}
CBP1          .CFCF  : CMR Bin Porosity 1 {F13.4}
CBP2          .CFCF  : CMR Bin Porosity 2 {F13.4}
CBP3          .CFCF  : CMR Bin Porosity 3 {F13.4}
CBP4          .CFCF  : CMR Bin Porosity 4 {F13.4}
CBP5          .CFCF  : CMR Bin Porosity 5 {F13.4}
CBP6          .CFCF  : CMR Bin Porosity 6 {F13.4}
CBP7          .CFCF  : CMR Bin Porosity 7 {F13.4}
CBP8          .CFCF  : CMR Bin Porosity 8 {F13.4}
CFF2          .CFCF  : CMR Free Fluid Porosity for T2 Cutoff 2 {F13.4}
T2_DIST_MW[0] .CFCF  : T2 Distribution - Multi Wait {AF13.4}
T2CUTOFF      .MS    : T2 Cutoff {F13.4}
~Params ----------------------------------------------------
RUN .           ONE : RUN NUMBER
PDAT.  GROUND LEVEL : Permanent Datum
EPD .F       2111.0 : Elevation of Permanent Datum above Mean Sea Level
LMF . KELLY BUSHING : Logging Measured From (Name of Logging Elevation Reference)
APD .F         18.0 : Elevation of Depth Reference (LMF) above Permanent Datum
~Other -----------------------------------------------------
~ASCII -----------------------------------------------------
# ...
 10437.50000    8.75000 3534.00000   96.27080    0.02450    0.00780    0.00050    0.00320    2.75310    0.06400    0.01590    0.01290    0.02650    0.01680    0.00000    0.00780    0.00000    0.00000    0.00000    0.02450    0.00160   33.00000
 10437.00000    8.75000 3568.00000   91.56260    0.02650    0.00920    0.00060    0.00480    2.91850    0.06440    0.02020    0.01540    0.02240    0.01670    0.00070    0.00890    0.00030    0.00000    0.00000    0.02650    0.00060   33.00000
 10436.50000    8.75000 3558.00000   98.78680    0.02200    0.00760    0.00040    0.00310    2.38360    0.06510    0.02420    0.02000    0.02310    0.01120    0.00320    0.00750    0.00000    0.00000    0.00000    0.02200    0.00060   33.00000
 10436.00000    8.75000 3578.00000  100.36760    0.01830    0.00210    0.00030    0.00020    1.72400    0.07310    0.02430    0.02980    0.02500    0.00620    0.01010    0.00200    0.00000    0.00000    0.00000    0.01830    0.00160   33.00000
 10435.50000    8.75000 3545.00000   97.89940    0.02460    0.00050    0.00080    0.00000    1.80310    0.08800    0.03070    0.03490    0.02850    0.01020    0.01380    0.00000    0.00000    0.00000    0.00050    0.02460    0.00240   33.00000
 10435.00000    8.75000 3553.00000   90.61930    0.02730    0.00450    0.00140    0.00180    2.31940    0.09020    0.03470    0.02830    0.03460    0.01350    0.00930    0.00210    0.00000    0.00000    0.00240    0.02730    0.00080   33.00000
 10434.50000    8.75000 3562.00000   86.45780    0.02460    0.00540    0.00140    0.00270    2.37470    0.08910    0.03440    0.02710    0.03730    0.01190    0.00730    0.00210    0.00000    0.00000    0.00330    0.02460    0.00020   33.00000
 10434.00000    8.75000 3556.00000   90.18940    0.01900    0.00810    0.00070    0.00500    2.19380    0.07790    0.02990    0.02860    0.03030    0.00820    0.00270    0.00480    0.00020    0.00030    0.00280    0.01900    0.00000   33.00000
 10433.50000    8.75000 3578.00000   93.89770    0.01650    0.00610    0.00030    0.00210    1.92200    0.06750    0.02700    0.03100    0.02000    0.00470    0.00570    0.00160    0.00310    0.00150    0.00000    0.01650    0.00020   33.00000
 10433.00000    8.75000 3580.00000   99.36180    0.01400    0.00710    0.00020    0.00230    1.94190    0.05880    0.02200    0.02990    0.01490    0.00190    0.00490    0.00490    0.00030    0.00050    0.00140    0.01400    0.00090   33.00000
 10432.50000    8.75000 3526.00000  102.89820    0.01270    0.00510    0.00020    0.00110    1.97950    0.05890    0.02030    0.02770    0.01840    0.00230    0.00530    0.00230    0.00000    0.00000    0.00280    0.01270    0.00080   33.00000
 10432.00000    8.75000 3576.00000  108.21190    0.01240    0.00350    0.00020    0.00050    1.94450    0.06030    0.02010    0.02440    0.02350    0.00400    0.00490    0.00100    0.00000    0.00000    0.00250    0.01240    0.00070   33.00000
 10431.50000    8.75000 3557.00000  112.04640    0.00990    0.00150    0.00010    0.00010    1.59580    0.05480    0.01390    0.01960    0.02530    0.00490    0.00350    0.00130    0.00000    0.00000    0.00030    0.00990    0.00100   33.00000
 10431.00000    8.75000 3538.00000  110.44850    0.01250    0.00240    0.00010    0.00020    1.85500    0.05590    0.01530    0.01810    0.02530    0.00600    0.00420    0.00190    0.00000    0.00000    0.00050    0.01250    0.00130   33.00000
 10430.50000    8.75000 3542.00000  109.31210    0.01630    0.00610    0.00030    0.00200    2.09500    0.06660    0.01890    0.02230    0.02790    0.00850    0.00170    0.00420    0.00030    0.00010    0.00160    0.01630    0.00190   33.00000
 10430.00000    8.75000 3541.00000  103.91000    0.02250    0.00380    0.00060    0.00090    2.17850    0.07410    0.02610    0.02380    0.02780    0.01480    0.00390    0.00040    0.00060    0.00150    0.00130    0.02250    0.00170   33.00000
 10429.50000    8.75000 3542.00000  104.53010    0.02860    0.00340    0.00080    0.00080    2.33880    0.07890    0.03460    0.02160    0.02860    0.02360    0.00160    0.00000    0.00000    0.00240    0.00100    0.02860    0.00070   33.00000
 10429.00000    8.75000 3544.00000  102.13800    0.03160    0.00460    0.00150    0.00160    2.87510    0.08180    0.03620    0.01810    0.03210    0.02630    0.00070    0.00000    0.00000    0.00000    0.00460    0.03160    0.00000   33.00000
 10428.50000    8.75000 3529.00000  102.75800    0.03150    0.00760    0.00290    0.00600    3.02200    0.09440    0.03470    0.02380    0.03910    0.02400    0.00000    0.00000    0.00000    0.00000    0.00760    0.03150    0.00000   33.00000
 10428.00000    8.75000 3601.00000  100.61840    0.02550    0.00750    0.00280    0.00780    2.19550    0.10970    0.03640    0.03890    0.04530    0.01790    0.00010    0.00000    0.00000    0.00000    0.00750    0.02550    0.00000   33.00000
 10427.50000    8.75000 3562.00000   97.72400    0.02310    0.00560    0.00190    0.00410    1.84540    0.10860    0.03920    0.03900    0.04650    0.01410    0.00340    0.00200    0.00000    0.00000    0.00360    0.02310    0.00100   33.00000
 10427.00000    8.75000 3565.00000   96.58580    0.02720    0.00430    0.00160    0.00200    2.01820    0.09970    0.03690    0.03330    0.03920    0.01520    0.00770    0.00000    0.00190    0.00240    0.00000    0.02720    0.00250   33.00000
 10426.50000    8.75000 3593.00000   97.39640    0.02810    0.00350    0.00160    0.00120    2.29540    0.09330    0.03490    0.03050    0.03470    0.01480    0.00970    0.00000    0.00000    0.00000    0.00350    0.02810    0.00310   33.00000
 10426.00000    8.75000 3576.00000  101.96800    0.02710    0.00280    0.00110    0.00070    2.06190    0.09010    0.03150    0.03090    0.03210    0.01770    0.00660    0.00000    0.00000    0.00000    0.00280    0.02710    0.00320   33.00000
 10425.50000    8.75000 3582.00000  109.48040    0.02110    0.00480    0.00060    0.00160    1.97700    0.07880    0.02400    0.02870    0.02910    0.01270    0.00370    0.00270    0.00000    0.00000    0.00210    0.02110    0.00320   33.00000
 10425.00000    8.75000 3578.00000  112.74360    0.01740    0.00930    0.00050    0.00640    2.03730    0.07580    0.01890    0.03000    0.02840    0.00620    0.00200    0.00740    0.00000    0.00000    0.00190    0.01740    0.00360   33.00000
 10424.50000    8.75000 3594.00000  116.36630    0.02000    0.00880    0.00070    0.00620    2.10870    0.07960    0.02240    0.02830    0.03130    0.00750    0.00370    0.00770    0.00000    0.00000    0.00110    0.02000    0.00310   33.00000
 10424.00000    8.75000 3601.00000  117.51970    0.02400    0.00540    0.00100    0.00250    2.09620    0.08620    0.03060    0.02640    0.03590    0.01220    0.00640    0.00480    0.00000    0.00000    0.00050    0.02400    0.00200   33.00000
 10423.50000    8.75000 3589.00000  121.73850    0.02770    0.00230    0.00120    0.00050    1.96460    0.09350    0.03550    0.02900    0.03680    0.01730    0.00810    0.00170    0.00000    0.00000    0.00050    0.02770    0.00140   33.00000
 10423.00000    8.75000 3606.00000  120.96220    0.02830    0.00260    0.00130    0.00060    2.01550    0.09430    0.03580    0.03180    0.03430    0.01850    0.00720    0.00050    0.00000    0.00000    0.00210    0.02830    0.00130   33.00000
 10422.50000    8.75000 3580.00000  119.98800    0.02630    0.00490    0.00080    0.00180    2.15140    0.08080    0.03220    0.02980    0.02470    0.01640    0.00500    0.00180    0.00030    0.00120    0.00160    0.02630    0.00160   33.00000
 10422.00000    8.75000 3585.00000  120.93690    0.01320    0.00540    0.00020    0.00120    1.73760    0.05980    0.02330    0.02950    0.01720    0.00350    0.00430    0.00130    0.00380    0.00020    0.00000    0.01320    0.00090   33.00000
 10421.50000    8.75000 3587.00000  117.91790    0.00480    0.00480    0.00010    0.00110    1.01760    0.06510    0.01420    0.04380    0.01660    0.00000    0.00000    0.00030    0.00440    0.00000    0.00000    0.00480    0.00140   33.00000
