~Version ---------------------------------------------------
VERS     .                                                                         2.0 : CWLS log ASCII Standard -VERSION 2.0
WRAP     .                                                                          NO : One Line per depth step
PROD     .                                                                Schlumberger : LAS Producer
PROG     .                                                      DLIS to ASCII 15C0-309 : LAS Program name and version
CREA     . 2008/02/21 06:17                          :LAS Creation date {YYYY/MM/DD hh : mm}
DLIS_CREA.     2008-Feb-21	03:10			       :DLIS Creation date and time {YYYY-MMM-DD hh : mm}
SOURCE   .                                                             CMR_058LUP.DLIS : DLIS File Name
FILE-ID  .                                                                  CMR_058LUP : File Identification Number
~Well ------------------------------------------------------
STRT.F     10520.0 : START DEPTH
STOP.F      9849.0 : STOP DEPTH
STEP.F        -0.5 : STEP
NULL.      -999.25 : NULL VALUE
COMP.              : COMPANY
WELL.       Bakken : WELL
FLD .              : FIELD
LOC .              : LOCATION
CNTY.              : COUNTY
STAT.    N. DAKOTA : STATE
CTRY.              : COUNTRY
API .              : API NUMBER
UWI .              : UNIQUE WELL ID
DATE.              : LOG DATE {DD-MMM-YYYY}
SRVC. Schlumberger : SERVICE COMPANY
LATI.DEG         0 : LATITUDE
LONG.DEG         0 : LONGITUDE
GDAT.              : GeoDetic Datum
SECT.           28 : Section
RANG.          92W : Range
TOWN.         154N : Township
~Curve Information -----------------------------------------
DEPT          .F     : DEPTH (BOREHOLE) {F10.1}
BS            .IN    : Bit Size {F13.4}
TENS          .LBF   : Cable Tension {F13.4}
GR_EDTC       .GAPI  : Gamma Ray {F13.4}
CMRP_3MS      .CFCF  : CMR 3ms Porosity {F13.4}
CMFF          .CFCF  : CMR Free Fluid {F13.4}
KSDR          .MD    : Permeability from CMR - SDR Model {F13.4}
KTIM          .MD    : Permeability from CMR - Timur Model {F13.4}
T2LM          .MS    : T2 Logarithmic Mean {F13.4}
TCMR          .CFCF  : Total CMR Porosity {F13.4}
CMRP_3MS_MW[0].CFCF  : CMR 3ms Porosity - Multi Wait {AF13.4}
CBP1          .CFCF  : CMR Bin Porosity 1 {F13.4}
CBP2          .CFCF  : CMR Bin Porosity 2 {F13.4}
CBP3          .CFCF  : CMR Bin Porosity 3 {F13.4}
CBP4          .CFCF  : CMR Bin Porosity 4 {F13.4}
CBP5          .CFCF  : CMR Bin Porosity 5 {F13.4}
CBP6          .CFCF  : CMR Bin Porosity 6 {F13.4}
CBP7          .CFCF  : CMR Bin Porosity 7 {F13.4}
CBP8          .CFCF  : CMR Bin Porosity 8 {F13.4}
CFF2          .CFCF  : CMR Free Fluid Porosity for T2 Cutoff 2 {F13.4}
T2_DIST_MW[0] .CFCF  : T2 Distribution - Multi Wait {AF13.4}
T2CUTOFF      .MS    : T2 Cutoff {F13.4}
~Params ----------------------------------------------------
RUN .           ONE : RUN NUMBER
PDAT.  GROUND LEVEL : Permanent Datum
EPD .F       2111.0 : Elevation of Permanent Datum above Mean Sea Level
LMF . KELLY BUSHING : Logging Measured From (Name of Logging Elevation Reference)
APD .F         18.0 : Elevation of Depth Reference (LMF) above Permanent Datum
~Other -----------------------------------------------------
~ASCII -----------------------------------------------------
# ...
 10173.50000    8.75000 3471.00000  585.05040    0.01270    0.00540    0.00020    0.00140    1.88130    0.06250    0.01620    0.02320    0.02660    0.00730    0.00000    0.00200    0.00170    0.00020    0.00150    0.01270    0.00170   33.00000
 10173.00000    8.75000 3491.00000  577.55470    0.01180    0.00370    0.00010    0.00060    1.55180    0.06200    0.01460    0.02830    0.02200    0.00680    0.00130    0.00000    0.00180    0.00180    0.00000    0.01180    0.00240   33.00000
 10172.50000    8.75000 3513.00000  536.99490    0.01280    0.00370    0.00010    0.00060    1.51070    0.06290    0.01410    0.03020    0.02000    0.00700    0.00210    0.00000    0.00300    0.00070    0.00000    0.01280    0.00300   33.00000
 10172.00000    8.75000 3500.00000  512.95570    0.01710    0.00280    0.00030    0.00040    1.98840    0.06460    0.01960    0.02740    0.02020    0.00760    0.00660    0.00000    0.00000    0.00000    0.00280    0.01710    0.00250   33.00000
 10171.50000    8.75000 3491.00000  547.25540    0.01670    0.00110    0.00010    0.00000    2.22010    0.05080    0.01790    0.01720    0.01700    0.00580    0.00980    0.00090    0.00000    0.00000    0.00020    0.01670    0.00080   33.00000
 10171.00000    8.75000 3520.00000  632.86660    0.01480    0.00000    0.00010    0.00000    1.75250    0.05900    0.01890    0.02530    0.01890    0.00190    0.01290    0.00000    0.00000    0.00000    0.00000    0.01480    0.00190   33.00000
 10170.50000    8.75000 3517.00000  688.61180    0.01670    0.00000    0.00020    0.00000    1.77220    0.06390    0.02350    0.02620    0.02090    0.00370    0.01290    0.00000    0.00000    0.00000    0.00000    0.01670    0.00150   33.00000
 10170.00000    8.75000 3538.00000  725.75870    0.01860    0.00200    0.00030    0.00020    2.09960    0.06640    0.02630    0.02630    0.02150    0.00600    0.01060    0.00000    0.00000    0.00000    0.00200    0.01860    0.00110   33.00000
 10169.50000    8.75000 3504.00000  728.55580    0.01830    0.00270    0.00040    0.00040    2.23110    0.06720    0.02300    0.02650    0.02250    0.00430    0.01130    0.00030    0.00000    0.00000    0.00240    0.01830    0.00150   33.00000
 10169.00000    8.75000 3505.00000  721.67400    0.01940    0.00480    0.00040    0.00120    2.19760    0.06630    0.02190    0.02380    0.02310    0.00610    0.00850    0.00410    0.00000    0.00000    0.00070    0.01940    0.00180   33.00000
 10168.50000    8.75000 3510.00000  689.23630    0.02200    0.00410    0.00030    0.00070    2.50890    0.05870    0.02400    0.01760    0.01910    0.00950    0.00840    0.00400    0.00000    0.00000    0.00000    0.02200    0.00100   33.00000
 10168.00000    8.75000 3510.00000  644.65160    0.02430    0.00440    0.00040    0.00080    2.61990    0.06040    0.02660    0.01820    0.01790    0.01070    0.00910    0.00440    0.00000    0.00000    0.00000    0.02430    0.00040   33.00000
 10167.50000    8.75000 3483.00000  628.34810    0.02180    0.00420    0.00030    0.00090    2.01430    0.06710    0.02520    0.02650    0.01880    0.00900    0.00860    0.00420    0.00000    0.00000    0.00000    0.02180    0.00090   33.00000
 10167.00000    8.75000 3510.00000  635.66110    0.01780    0.00480    0.00030    0.00140    1.73430    0.07220    0.02140    0.03000    0.02440    0.00640    0.00650    0.00480    0.00000    0.00000    0.00000    0.01780    0.00200   33.00000
 10166.50000    8.75000 3495.00000  667.86690    0.01430    0.00590    0.00020    0.00170    1.83590    0.06380    0.01800    0.02430    0.02520    0.00560    0.00280    0.00480    0.00120    0.00000    0.00000    0.01430    0.00140   33.00000
 10166.00000    8.75000 3492.00000  698.67290    0.01130    0.00710    0.00020    0.00270    1.86660    0.06470    0.01390    0.02530    0.02810    0.00390    0.00020    0.00400    0.00140    0.00040    0.00130    0.01130    0.00100   33.00000
 10165.50000    8.75000 3501.00000  723.46040    0.01070    0.00640    0.00020    0.00180    1.82590    0.05870    0.01450    0.02370    0.02430    0.00430    0.00000    0.00170    0.00400    0.00070    0.00000    0.01070    0.00140   33.00000
 10165.00000    8.75000 3520.00000  746.81920    0.00870    0.00340    0.00010    0.00040    1.54030    0.05230    0.01320    0.02130    0.02230    0.00370    0.00160    0.00300    0.00040    0.00000    0.00000    0.00870    0.00170   33.00000
 10164.50000    8.75000 3501.00000  748.77100    0.00470    0.00090    0.00000    0.00000    1.22560    0.04360    0.00360    0.01800    0.02090    0.00380    0.00000    0.00080    0.00000    0.00000    0.00000    0.00470    0.00120   33.00000
 10164.00000    8.75000 3527.00000  722.67270    0.00690    0.00150    0.00000    0.00000    1.49000    0.04130    0.00330    0.01490    0.01950    0.00530    0.00010    0.00070    0.00060    0.00010    0.00000    0.00690    0.00060   33.00000
 10163.50000    8.75000 3506.00000  682.36440    0.01280    0.00350    0.00010    0.00030    2.44720    0.04290    0.01340    0.01380    0.01630    0.00780    0.00150    0.00090    0.00010    0.00070    0.00180    0.01280    0.00000   33.00000
 10163.00000    8.75000 3504.00000  662.83310    0.01670    0.00400    0.00010    0.00040    2.58270    0.04720    0.01980    0.01290    0.01770    0.01270    0.00000    0.00000    0.00110    0.00280    0.00000    0.01670    0.00000   33.00000
 10162.50000    8.75000 3495.00000  716.41310    0.01610    0.00300    0.00010    0.00020    2.34380    0.04580    0.01660    0.01250    0.01730    0.01310    0.00000    0.00000    0.00170    0.00130    0.00000    0.01610    0.00020   33.00000
 10162.00000    8.75000 3492.00000  784.64700    0.01510    0.00260    0.00010    0.00010    2.34170    0.04150    0.01420    0.01150    0.01490    0.01130    0.00130    0.00000    0.00250    0.00000    0.00000    0.01510    0.00080   33.00000
 10161.50000    8.75000 3484.00000  821.88720    0.01800    0.00410    0.00020    0.00050    2.59700    0.04870    0.01910    0.01290    0.01780    0.01150    0.00250    0.00080    0.00320    0.00000    0.00000    0.01800    0.00110   33.00000
 10161.00000    8.75000 3483.00000  805.09410    0.01860    0.00640    0.00030    0.00200    2.33530    0.06280    0.01960    0.01750    0.02680    0.01220    0.00000    0.00160    0.00470    0.00000    0.00000    0.01860    0.00130   33.00000
 10160.50000    8.75000 3494.00000  754.95510    0.01630    0.00540    0.00030    0.00140    2.09910    0.06410    0.01760    0.01910    0.02860    0.01100    0.00000    0.00010    0.00480    0.00040    0.00000    0.01630    0.00110   33.00000
 10160.00000    8.75000 3486.00000  727.59160    0.01350    0.00300    0.00010    0.00030    1.99520    0.05440    0.01570    0.01730    0.02360    0.01050    0.00000    0.00000    0.00000    0.00150    0.00140    0.01350    0.00060   33.00000
 10159.50000    8.75000 3457.00000  712.54350    0.01330    0.00310    0.00010    0.00020    2.54590    0.04640    0.01700    0.01240    0.02060    0.01020    0.00000    0.00000    0.00000    0.00000    0.00310    0.01330    0.00000   33.00000
 10159.00000    8.75000 3483.00000  728.53140    0.01830    0.00210    0.00010    0.00010    2.77040    0.04680    0.02110    0.00950    0.01900    0.01590    0.00030    0.00000    0.00000    0.00000    0.00210    0.01830    0.00010   33.00000
 10158.50000    8.75000 3461.00000  745.82450    0.02440    0.00130    0.00040    0.00010    2.44590    0.06230    0.02600    0.01480    0.02320    0.01840    0.00470    0.00000    0.00000    0.00000    0.00120    0.02440    0.00110   33.00000
 10158.00000    8.75000 3473.00000  756.72670    0.02550    0.00060    0.00040    0.00000    2.30510    0.06650    0.02650    0.01860    0.02240    0.01610    0.00880    0.00000    0.00000    0.00000    0.00060    0.02550    0.00150   33.00000
 10157.50000    8.75000 3472.00000  773.98390    0.02430    0.00030    0.00030    0.00000    2.13450    0.06600    0.02770    0.02060    0.02110    0.01440    0.00970    0.00010    0.00000    0.00000    0.00010    0.02430    0.00110   33.00000
