~Version ---------------------------------------------------
VERS     .                                                                         2.0 : CWLS log ASCII Standard -VERSION 2.0
WRAP     .                                                                          NO : One Line per depth step
PROD     .                                                                Schlumberger : LAS Producer
PROG     .                                                      DLIS to ASCII 15C0-309 : LAS Program name and version
CREA     . 2008/02/21 06:17                          :LAS Creation date {YYYY/MM/DD hh : mm}
DLIS_CREA.     2008-Feb-21	03:10			       :DLIS Creation date and time {YYYY-MMM-DD hh : mm}
SOURCE   .                                                             CMR_058LUP.DLIS : DLIS File Name
FILE-ID  .                                                                  CMR_058LUP : File Identification Number
~Well ------------------------------------------------------
STRT.F     10520.0 : START DEPTH
STOP.F      9849.0 : STOP DEPTH
STEP.F        -0.5 : STEP
NULL.      -999.25 : NULL VALUE
COMP.              : COMPANY
WELL.       Bakken : WELL
FLD .              : FIELD
LOC .              : LOCATION
CNTY.              : COUNTY
STAT.    N. DAKOTA : STATE
CTRY.              : COUNTRY
API .              : API NUMBER
UWI .              : UNIQUE WELL ID
DATE.              : LOG DATE {DD-MMM-YYYY}
SRVC. Schlumberger : SERVICE COMPANY
LATI.DEG         0 : LATITUDE
LONG.DEG         0 : LONGITUDE
GDAT.              : GeoDetic Datum
SECT.           28 : Section
RANG.          92W : Range
TOWN.         154N : Township
~Curve Information -----------------------------------------
DEPT          .F     : DEPTH (BOREHOLE) {F10.1}
BS            .IN    : Bit Size {F13.4}
TENS          .LBF   : Cable Tension {F13.4}
GR_EDTC       .GAPI  : Gamma Ray {F13.4}
CMRP_3MS      .CFCF  : CMR 3ms Porosity {F13.4}
CMFF          .CFCF  : CMR Free Fluid {F13.4}
KSDR          .MD    : Permeability from CMR - SDR Model {F13.4}
KTIM          .MD    : Permeability from CMR - Timur Model {F13.4}
T2LM          .MS    : T2 Logarithmic Mean {F13.4}
TCMR          .CFCF  : Total CMR Porosity {F13.4}
CMRP_3MS_MW[0].CFCF  : CMR 3ms Porosity - Multi Wait {AF13.4}
CBP1          .CFCF  : CMR Bin Porosity 1 {F13.4}
CBP2          .CFCF  : CMR Bin Porosity 2 {F13.4}
CBP3          .CFCF  : CMR Bin Porosity 3 {F13.4}
CBP4          .CFCF  : CMR Bin Porosity 4 {F13.4}
CBP5          .CFCF  : CMR Bin Porosity 5 {F13.4}
CBP6          .CFCF  : CMR Bin Porosity 6 {F13.4}
CBP7          .CFCF  : CMR Bin Porosity 7 {F13.4}
CBP8          .CFCF  : CMR Bin Porosity 8 {F13.4}
CFF2          .CFCF  : CMR Free Fluid Porosity for T2 Cutoff 2 {F13.4}
T2_DIST_MW[0] .CFCF  : T2 Distribution - Multi Wait {AF13.4}
T2CUTOFF      .MS    : T2 Cutoff {F13.4}
~Params ----------------------------------------------------
RUN .           ONE : RUN NUMBER
PDAT.  GROUND LEVEL : Permanent Datum
EPD .F       2111.0 : Elevation of Permanent Datum above Mean Sea Level
LMF . KELLY BUSHING : Logging Measured From (Name of Logging Elevation Reference)
APD .F         18.0 : Elevation of Depth Reference (LMF) above Permanent Datum
~Other -----------------------------------------------------
~ASCII -----------------------------------------------------
# ...
 10074.50000    8.75000 3511.00000  476.22870    0.01950    0.00380    0.00010    0.00030    3.14980    0.04360    0.02160    0.01370    0.01040    0.00910    0.00660    0.00240    0.00000    0.00000    0.00140    0.01950    0.00000   33.00000
 10074.00000    8.75000 3500.00000  467.10700    0.02680    0.00170    0.00030    0.00010    3.34580    0.05140    0.02930    0.01270    0.01190    0.01410    0.01100    0.00040    0.00020    0.00110    0.00010    0.02680    0.00000   33.00000
 10073.50000    8.75000 3484.00000  443.01420    0.03170    0.00250    0.00060    0.00020    3.27600    0.06080    0.03330    0.01290    0.01620    0.01930    0.00990    0.00050    0.00200    0.00000    0.00000    0.03170    0.00010   33.00000
 10073.00000    8.75000 3515.00000  381.37000    0.02610    0.00590    0.00040    0.00140    2.94950    0.05820    0.02620    0.01260    0.01960    0.01750    0.00270    0.00540    0.00040    0.00000    0.00000    0.02610    0.00110   33.00000
 10072.50000    8.75000 3474.00000  314.41850    0.01540    0.00790    0.00010    0.00200    2.67830    0.04660    0.01610    0.01360    0.01760    0.00590    0.00160    0.00790    0.00000    0.00000    0.00000    0.01540    0.00130   33.00000
 10072.00000    8.75000 3490.00000  225.83410    0.01520    0.01380    0.00030    0.01080    2.47960    0.05750    0.01620    0.02310    0.01920    0.00060    0.00080    0.01380    0.00000    0.00000    0.00000    0.01520    0.00110   33.00000
 10071.50000    8.75000 3498.00000  143.30210    0.01880    0.01780    0.00040    0.02200    3.17700    0.05720    0.02050    0.02270    0.01560    0.00000    0.00090    0.01780    0.00000    0.00000    0.00000    0.01880    0.00030   33.00000
 10071.00000    8.75000 3464.00000   76.08480    0.01820    0.01690    0.00040    0.01510    4.84730    0.04560    0.01910    0.01270    0.01460    0.00060    0.00070    0.01590    0.00100    0.00000    0.00000    0.01820    0.00000   33.00000
 10070.50000    8.75000 3478.00000   41.92770    0.02240    0.01140    0.00070    0.00340   11.03900    0.03470    0.02220    0.00350    0.00880    0.00450    0.00660    0.00540    0.00420    0.00170    0.00000    0.02240    0.00000   33.00000
 10070.00000    8.75000 3495.00000   32.62880    0.02650    0.00870    0.00160    0.00150   20.24140    0.03170    0.02370    0.00070    0.00450    0.00540    0.01240    0.00130    0.00330    0.00420    0.00000    0.02650    0.00040   33.00000
 10069.50000    8.75000 3453.00000   30.18900    0.03170    0.01410    0.00970    0.00540   47.04470    0.03230    0.02750    0.00000    0.00060    0.00470    0.01290    0.00670    0.00030    0.00270    0.00440    0.03170    0.00050   33.00000
 10069.00000    8.75000 3513.00000   31.22400    0.03280    0.01410    0.01010    0.00620   45.26920    0.03340    0.03010    0.00000    0.00060    0.01030    0.00840    0.00490    0.00010    0.00290    0.00620    0.03280    0.00000   33.00000
 10068.50000    8.75000 3550.00000   33.03600    0.01910    0.01180    0.00170    0.00220   25.92740    0.02800    0.01890    0.00330    0.00560    0.00030    0.00710    0.00570    0.00000    0.00030    0.00580    0.01910    0.00000   33.00000
 10068.00000    8.75000 3446.00000   32.77730    0.01850    0.01110    0.00150    0.00150   27.88750    0.02650    0.01780    0.00150    0.00660    0.00020    0.00710    0.00570    0.00000    0.00000    0.00540    0.01850    0.00000   33.00000
 10067.50000    8.75000 3458.00000   28.37820    0.02280    0.01350    0.00570    0.00150   66.57510    0.02380    0.02040    0.00000    0.00100    0.00110    0.00820    0.00700    0.00050    0.00200    0.00400    0.02280    0.00000   33.00000
 10067.00000    8.75000 3427.00000   26.31530    0.03220    0.01310    0.00380    0.00460   29.74940    0.03220    0.03150    0.00000    0.00000    0.01410    0.00500    0.00080    0.00780    0.00450    0.00010    0.03220    0.00030   33.00000
 10066.50000    8.75000 3439.00000   25.91430    0.03280    0.01210    0.00230    0.00410   19.87240    0.03490    0.03330    0.00000    0.00210    0.01890    0.00180    0.00000    0.00850    0.00350    0.00000    0.03280    0.00110   33.00000
 10066.00000    8.75000 3446.00000   28.93320    0.02390    0.01050    0.00080    0.00270   12.04740    0.03440    0.02590    0.00290    0.00760    0.01180    0.00150    0.00000    0.00610    0.00440    0.00000    0.02390    0.00160   33.00000
 10065.50000    8.75000 3453.00000   29.70240    0.01780    0.01130    0.00080    0.00440    7.57460    0.04310    0.02150    0.00830    0.01690    0.00250    0.00400    0.00080    0.00350    0.00570    0.00140    0.01780    0.00000   33.00000
 10065.00000    8.75000 3460.00000   36.27360    0.01720    0.01520    0.00090    0.01310    5.22730    0.05400    0.01900    0.01860    0.01820    0.00070    0.00130    0.00560    0.00220    0.00280    0.00470    0.01720    0.00000   33.00000
 10064.50000    8.75000 3471.00000   37.65370    0.01700    0.01460    0.00080    0.01410    3.71530    0.06260    0.01890    0.02920    0.01640    0.00040    0.00200    0.00620    0.00020    0.00070    0.00740    0.01700    0.00030   33.00000
 10064.00000    8.75000 3437.00000   39.20630    0.01570    0.01410    0.00060    0.01000    4.52740    0.05130    0.01640    0.02360    0.01190    0.00010    0.00150    0.00670    0.00010    0.00000    0.00730    0.01570    0.00230   33.00000
 10063.50000    8.75000 3464.00000   37.60760    0.01360    0.01360    0.00030    0.00640    6.12060    0.03700    0.01380    0.01410    0.00920    0.00000    0.00000    0.00700    0.00300    0.00000    0.00360    0.01360    0.00230   33.00000
 10063.00000    8.75000 3442.00000   41.14870    0.01180    0.01180    0.00010    0.00380    5.21910    0.03420    0.01230    0.01400    0.00840    0.00000    0.00000    0.00470    0.00480    0.00000    0.00230    0.01180    0.00220   33.00000
 10062.50000    8.75000 3447.00000   47.10030    0.01090    0.01060    0.00010    0.00290    3.91360    0.03630    0.01130    0.01470    0.01070    0.00030    0.00000    0.00320    0.00540    0.00190    0.00010    0.01090    0.00230   33.00000
 10062.00000    8.75000 3437.00000   58.22730    0.01840    0.00820    0.00020    0.00190    4.00040    0.04290    0.02050    0.01440    0.01000    0.00750    0.00280    0.00030    0.00570    0.00220    0.00000    0.01840    0.00160   33.00000
 10061.50000    8.75000 3433.00000   67.51800    0.01860    0.00930    0.00020    0.00300    3.56580    0.04710    0.02010    0.01500    0.01350    0.00870    0.00060    0.00070    0.00870    0.00000    0.00000    0.01860    0.00160   33.00000
 10061.00000    8.75000 3454.00000   71.03060    0.02230    0.01190    0.00050    0.00630    4.46710    0.05100    0.02470    0.01440    0.01440    0.00970    0.00070    0.00040    0.01140    0.00000    0.00000    0.02230    0.00160   33.00000
 10060.50000    8.75000 3430.00000   68.85700    0.02460    0.01460    0.00110    0.01130    5.89790    0.05250    0.02910    0.01480    0.01310    0.00700    0.00290    0.00000    0.01320    0.00140    0.00000    0.02460    0.00210   33.00000
 10060.00000    8.75000 3420.00000   57.46460    0.02550    0.01580    0.00120    0.01400    6.12560    0.05270    0.03140    0.01460    0.01260    0.00470    0.00500    0.00510    0.00950    0.00120    0.00000    0.02550    0.00200   33.00000
 10059.50000    8.75000 3464.00000   48.17290    0.02740    0.01580    0.00120    0.01550    5.27410    0.05670    0.03300    0.01490    0.01440    0.00970    0.00190    0.01210    0.00060    0.00040    0.00270    0.02740    0.00170   33.00000
 10059.00000    8.75000 3426.00000   41.32220    0.02960    0.00990    0.00150    0.00290   10.91550    0.04220    0.03250    0.00780    0.00480    0.01020    0.00960    0.00450    0.00000    0.00000    0.00530    0.02960    0.00000   33.00000
 10058.50000    8.75000 3482.00000   44.18050    0.02410    0.01210    0.00510    0.00130   61.51510    0.02420    0.02320    0.00000    0.00000    0.00910    0.00290    0.00480    0.00000    0.00000    0.00730    0.02410    0.00000   33.00000
