~Version ---------------------------------------------------
VERS     .                                                                         2.0 : CWLS log ASCII Standard -VERSION 2.0
WRAP     .                                                                          NO : One Line per depth step
PROD     .                                                                Schlumberger : LAS Producer
PROG     .                                                      DLIS to ASCII 15C0-309 : LAS Program name and version
CREA     . 2008/02/21 06:17                          :LAS Creation date {YYYY/MM/DD hh : mm}
DLIS_CREA.     2008-Feb-21	03:10			       :DLIS Creation date and time {YYYY-MMM-DD hh : mm}
SOURCE   .                                                             CMR_058LUP.DLIS : DLIS File Name
FILE-ID  .                                                                  CMR_058LUP : File Identification Number
~Well ------------------------------------------------------
STRT.F     10520.0 : START DEPTH
STOP.F      9849.0 : STOP DEPTH
STEP.F        -0.5 : STEP
NULL.      -999.25 : NULL VALUE
COMP.              : COMPANY
WELL.       Bakken : WELL
FLD .              : FIELD
LOC .              : LOCATION
CNTY.              : COUNTY
STAT.    N. DAKOTA : STATE
CTRY.              : COUNTRY
API .              : API NUMBER
UWI .              : UNIQUE WELL ID
DATE.              : LOG DATE {DD-MMM-YYYY}
SRVC. Schlumberger : SERVICE COMPANY
LATI.DEG         0 : LATITUDE
LONG.DEG         0 : LONGITUDE
GDAT.              : GeoDetic Datum
SECT.           28 : Section
RANG.          92W : Range
TOWN.         154N : Township
~Curve Information -----------------------------------------
DEPT          .F     : DEPTH (BOREHOLE) {F10.1}
BS            .IN    : Bit Size {F13.4}
TENS          .LBF   : Cable Tension {F13.4}
GR_EDTC       .GAPI  : Gamma Ray {F13.4}
CMRP_3MS      .CFCF  : CMR 3ms Porosity {F13.4}
CMFF          .CFCF  : CMR Free Fluid {F13.4}
KSDR          .MD    : Permeability from CMR - SDR Model {F13.4}
KTIM          .MD    : Permeability from CMR - Timur Model {F13.4}
T2LM          .MS    : T2 Logarithmic Mean {F13.4}
TCMR          .CFCF  : Total CMR Porosity {F13.4}
CMRP_3MS_MW[0].CFCF  : CMR 3ms Porosity - Multi Wait {AF13.4}
CBP1          .CFCF  : CMR Bin Porosity 1 {F13.4}
CBP2          .CFCF  : CMR Bin Porosity 2 {F13.4}
CBP3          .CFCF  : CMR Bin Porosity 3 {F13.4}
CBP4          .CFCF  : CMR Bin Porosity 4 {F13.4}
CBP5          .CFCF  : CMR Bin Porosity 5 {F13.4}
CBP6          .CFCF  : CMR Bin Porosity 6 {F13.4}
CBP7          .CFCF  : CMR Bin Porosity 7 {F13.4}
CBP8          .CFCF  : CMR Bin Porosity 8 {F13.4}
CFF2          .CFCF  : CMR Free Fluid Porosity for T2 Cutoff 2 {F13.4}
T2_DIST_MW[0] .CFCF  : T2 Distribution - Multi Wait {AF13.4}
T2CUTOFF      .MS    : T2 Cutoff {F13.4}
~Params ----------------------------------------------------
RUN .           ONE : RUN NUMBER
PDAT.  GROUND LEVEL : Permanent Datum
EPD .F       2111.0 : Elevation of Permanent Datum above Mean Sea Level
LMF . KELLY BUSHING : Logging Measured From (Name of Logging Elevation Reference)
APD .F         18.0 : Elevation of Depth Reference (LMF) above Permanent Datum
~Other -----------------------------------------------------
~ASCII -----------------------------------------------------
# ...
 9942.50000    8.75000 3418.00000   28.61310    0.01150    0.00700    0.00010    0.00050    6.66000    0.02530    0.01740    0.00210    0.01170    0.00440    0.00000    0.00240    0.00370    0.00000    0.00090    0.01150    0.00000   33.00000
 9942.00000    8.75000 3414.00000   29.67580    0.01410    0.00760    0.00010    0.00030   11.96300    0.02130    0.01490    0.00020    0.00700    0.00660    0.00000    0.00340    0.00280    0.00000    0.00130    0.01410    0.00000   33.00000
 9941.50000    8.75000 3389.00000   31.18140    0.01520    0.00630    0.00030    0.00010   34.94680    0.01520    0.01450    0.00000    0.00000    0.00150    0.00730    0.00370    0.00140    0.00090    0.00040    0.01520    0.00000   33.00000
 9941.00000    8.75000 3439.00000   32.05900    0.02150    0.00310    0.00060    0.00010   26.07830    0.02150    0.02160    0.00000    0.00000    0.00270    0.01560    0.00020    0.00000    0.00200    0.00100    0.02150    0.00000   33.00000
 9940.50000    8.75000 3414.00000   34.72580    0.02540    0.00310    0.00070    0.00010   20.63080    0.02550    0.02510    0.00000    0.00020    0.00890    0.01340    0.00000    0.00000    0.00000    0.00310    0.02540    0.00000   33.00000
 9940.00000    8.75000 3412.00000   36.75050    0.02390    0.00260    0.00050    0.00010   14.99540    0.02670    0.02490    0.00040    0.00240    0.00870    0.01260    0.00000    0.00000    0.00000    0.00260    0.02390    0.00000   33.00000
 9939.50000    8.75000 3429.00000   42.94970    0.02760    0.00170    0.00060    0.00000   15.26540    0.02780    0.02790    0.00000    0.00020    0.01030    0.01560    0.00000    0.00000    0.00000    0.00170    0.02760    0.00000   33.00000
 9939.00000    8.75000 3437.00000   45.15370    0.03280    0.00290    0.00080    0.00010   10.59680    0.03670    0.03410    0.00010    0.00380    0.01580    0.01420    0.00060    0.00010    0.00150    0.00070    0.03280    0.00000   33.00000
 9938.50000    8.75000 3434.00000   44.89490    0.03310    0.00470    0.00100    0.00060    7.31720    0.04640    0.03650    0.00270    0.01050    0.01760    0.01080    0.00030    0.00160    0.00230    0.00060    0.03310    0.00000   33.00000
 9938.00000    8.75000 3424.00000   40.92020    0.02730    0.00510    0.00050    0.00070    5.52210    0.04600    0.02920    0.00350    0.01520    0.01760    0.00460    0.00200    0.00000    0.00120    0.00190    0.02730    0.00000   33.00000
 9937.50000    8.75000 3432.00000   34.67680    0.01690    0.00320    0.00010    0.00020    4.48000    0.03590    0.01800    0.00340    0.01550    0.01330    0.00050    0.00000    0.00000    0.00000    0.00320    0.01690    0.00020   33.00000
 9937.00000    8.75000 3427.00000   28.46640    0.00780    0.00410    0.00000    0.00000   10.06700    0.01830    0.00720    0.00100    0.00950    0.00370    0.00000    0.00000    0.00000    0.00000    0.00400    0.00780    0.00000   33.00000
 9936.50000    8.75000 3434.00000   26.77330    0.00640    0.00290    0.00000    0.00000    4.21280    0.01630    0.00340    0.00100    0.00890    0.00340    0.00000    0.00070    0.00220    0.00000    0.00000    0.00640    0.00000   33.00000
 9936.00000    8.75000 3421.00000   28.67090    0.01050    0.00130    0.00000    0.00000    4.00200    0.01880    0.00400    0.00070    0.00760    0.00920    0.00000    0.00000    0.00040    0.00080    0.00000    0.01050    0.00000   33.00000
 9935.50000    8.75000 3457.00000   30.05100    0.01480    0.00130    0.00000    0.00000    6.21130    0.01750    0.01470    0.00270    0.00000    0.00800    0.00560    0.00120    0.00000    0.00000    0.00000    0.01480    0.00000   33.00000
 9935.00000    8.75000 3432.00000   28.71540    0.01470    0.00040    0.00000    0.00000    9.13590    0.01650    0.01460    0.00190    0.00000    0.00380    0.01040    0.00040    0.00000    0.00000    0.00000    0.01470    0.00000   33.00000
 9934.50000    8.75000 3429.00000   26.81780    0.01080    0.00000    0.00000    0.00000    7.95100    0.01100    0.01010    0.00000    0.00020    0.00670    0.00410    0.00000    0.00000    0.00000    0.00000    0.01080    0.00000   33.00000
 9934.00000    8.75000 3428.00000   27.86050    0.01130    0.00590    0.00000    0.00000   24.25750    0.01150    0.01030    0.00000    0.00020    0.00480    0.00060    0.00330    0.00260    0.00000    0.00000    0.01130    0.00000   33.00000
 9933.50000    8.75000 3422.00000   28.46380    0.01670    0.00790    0.00030    0.00020   26.80590    0.01860    0.01730    0.00000    0.00190    0.00500    0.00380    0.00310    0.00240    0.00170    0.00070    0.01670    0.00000   33.00000
 9933.00000    8.75000 3441.00000   29.75770    0.02060    0.00390    0.00020    0.00010    9.52810    0.02680    0.02070    0.00030    0.00590    0.00920    0.00750    0.00040    0.00260    0.00090    0.00000    0.02060    0.00030   33.00000
 9932.50000    8.75000 3423.00000   27.67990    0.02190    0.00490    0.00020    0.00040    5.88360    0.03270    0.02260    0.00130    0.00950    0.01270    0.00420    0.00460    0.00030    0.00000    0.00000    0.02190    0.00060   33.00000
 9932.00000    8.75000 3432.00000   26.48060    0.02390    0.00640    0.00020    0.00070    6.11020    0.03470    0.02280    0.00020    0.01060    0.01640    0.00100    0.00590    0.00050    0.00000    0.00000    0.02390    0.00000   33.00000
 9931.50000    8.75000 3431.00000   25.64260    0.02320    0.00630    0.00020    0.00060    7.72400    0.03090    0.02200    0.00010    0.00770    0.01600    0.00090    0.00200    0.00420    0.00000    0.00000    0.02320    0.00010   33.00000
 9931.00000    8.75000 3431.00000   26.08020    0.01990    0.00600    0.00020    0.00070    4.89460    0.03550    0.02060    0.00700    0.00860    0.01090    0.00300    0.00000    0.00600    0.00000    0.00000    0.01990    0.00110   33.00000
 9930.50000    8.75000 3417.00000   24.52150    0.01110    0.00840    0.00000    0.00120    3.90310    0.02930    0.01000    0.01010    0.00810    0.00270    0.00000    0.00390    0.00450    0.00000    0.00000    0.01110    0.00180   33.00000
 9930.00000    8.75000 3439.00000   24.15190    0.00810    0.00780    0.00000    0.00060    3.66240    0.02470    0.00840    0.00940    0.00720    0.00030    0.00000    0.00640    0.00140    0.00000    0.00000    0.00810    0.00060   33.00000
 9929.50000    8.75000 3436.00000   23.46130    0.00800    0.00660    0.00000    0.00040    3.07790    0.02440    0.00760    0.00850    0.00790    0.00110    0.00030    0.00660    0.00000    0.00000    0.00000    0.00800    0.00070   33.00000
 9929.00000    8.75000 3428.00000   24.94480    0.00950    0.00210    0.00000    0.00000    2.27090    0.02940    0.01050    0.01350    0.00640    0.00000    0.00740    0.00210    0.00000    0.00000    0.00000    0.00950    0.00150   33.00000
 9928.50000    8.75000 3427.00000   25.20360    0.01370    0.00160    0.00000    0.00000    3.76210    0.02640    0.01390    0.01040    0.00230    0.00030    0.01180    0.00160    0.00000    0.00000    0.00000    0.01370    0.00190   33.00000
 9928.00000    8.75000 3424.00000   25.09590    0.01830    0.00200    0.00010    0.00000    6.17450    0.02690    0.01840    0.00650    0.00210    0.00320    0.01300    0.00160    0.00000    0.00000    0.00040    0.01830    0.00110   33.00000
 9927.50000    8.75000 3422.00000   20.64370    0.02030    0.00250    0.00010    0.00000    8.92640    0.02500    0.01950    0.00270    0.00200    0.00700    0.01080    0.00080    0.00130    0.00050    0.00000    0.02030    0.00110   33.00000
 9927.00000    8.75000 3431.00000   16.89410    0.01660    0.00460    0.00010    0.00010    9.21170    0.02150    0.01590    0.00290    0.00200    0.00410    0.00790    0.00370    0.00080    0.00000    0.00000    0.01660    0.00080   33.00000
 9926.50000    8.75000 3405.00000   16.21650    0.01800    0.00540    0.00010    0.00020    9.64030    0.02340    0.01700    0.00250    0.00290    0.00580    0.00690    0.00450    0.00040    0.00000    0.00050    0.01800    0.00100   33.00000
