~Version ---------------------------------------------------
VERS     .                                                                         2.0 : CWLS log ASCII Standard -VERSION 2.0
WRAP     .                                                                          NO : One Line per depth step
PROD     .                                                                Schlumberger : LAS Producer
PROG     .                                                      DLIS to ASCII 15C0-309 : LAS Program name and version
CREA     . 2008/02/21 06:17                          :LAS Creation date {YYYY/MM/DD hh : mm}
DLIS_CREA.     2008-Feb-21	03:10			       :DLIS Creation date and time {YYYY-MMM-DD hh : mm}
SOURCE   .                                                             CMR_058LUP.DLIS : DLIS File Name
FILE-ID  .                                                                  CMR_058LUP : File Identification Number
~Well ------------------------------------------------------
STRT.F     10520.0 : START DEPTH
STOP.F      9849.0 : STOP DEPTH
STEP.F        -0.5 : STEP
NULL.      -999.25 : NULL VALUE
COMP.              : COMPANY
WELL.       Bakken : WELL
FLD .              : FIELD
LOC .              : LOCATION
CNTY.              : COUNTY
STAT.    N. DAKOTA : STATE
CTRY.              : COUNTRY
API .              : API NUMBER
UWI .              : UNIQUE WELL ID
DATE.              : LOG DATE {DD-MMM-YYYY}
SRVC. Schlumberger : SERVICE COMPANY
LATI.DEG         0 : LATITUDE
LONG.DEG         0 : LONGITUDE
GDAT.              : GeoDetic Datum
SECT.           28 : Section
RANG.          92W : Range
TOWN.         154N : Township
~Curve Information -----------------------------------------
DEPT          .F     : DEPTH (BOREHOLE) {F10.1}
BS            .IN    : Bit Size {F13.4}
TENS          .LBF   : Cable Tension {F13.4}
GR_EDTC       .GAPI  : Gamma Ray {F13.4}
CMRP_3MS      .CFCF  : CMR 3ms Porosity {F13.4}
CMFF          .CFCF  : CMR Free Fluid {F13.4}
KSDR          .MD    : Permeability from CMR - SDR Model {F13.4}
KTIM          .MD    : Permeability from CMR - Timur Model {F13.4}
T2LM          .MS    : T2 Logarithmic Mean {F13.4}
TCMR          .CFCF  : Total CMR Porosity {F13.4}
CMRP_3MS_MW[0].CFCF  : CMR 3ms Porosity - Multi Wait {AF13.4}
CBP1          .CFCF  : CMR Bin Porosity 1 {F13.4}
CBP2          .CFCF  : CMR Bin Porosity 2 {F13.4}
CBP3          .CFCF  : CMR Bin Porosity 3 {F13.4}
CBP4          .CFCF  : CMR Bin Porosity 4 {F13.4}
CBP5          .CFCF  : CMR Bin Porosity 5 {F13.4}
CBP6          .CFCF  : CMR Bin Porosity 6 {F13.4}
CBP7          .CFCF  : CMR Bin Porosity 7 {F13.4}
CBP8          .CFCF  : CMR Bin Porosity 8 {F13.4}
CFF2          .CFCF  : CMR Free Fluid Porosity for T2 Cutoff 2 {F13.4}
T2_DIST_MW[0] .CFCF  : T2 Distribution - Multi Wait {AF13.4}
T2CUTOFF      .MS    : T2 Cutoff {F13.4}
~Params ----------------------------------------------------
RUN .           ONE : RUN NUMBER
PDAT.  GROUND LEVEL : Permanent Datum
EPD .F       2111.0 : Elevation of Permanent Datum above Mean Sea Level
LMF . KELLY BUSHING : Logging Measured From (Name of Logging Elevation Reference)
APD .F         18.0 : Elevation of Depth Reference (LMF) above Permanent Datum
~Other -----------------------------------------------------
~ASCII -----------------------------------------------------
# ...
 10206.50000    8.75000 3507.00000   80.30040    0.09150    0.03560    0.20450    0.33080   19.03450    0.10900    0.09270    0.00710    0.01040    0.03570    0.02020    0.00690    0.01090    0.01150    0.00630    0.09150    0.00000   33.00000
 10206.00000    8.75000 3504.00000   89.40330    0.08570    0.03350    0.10880    0.30960   11.54380    0.11950    0.08920    0.01590    0.01790    0.03450    0.01770    0.00980    0.00930    0.00780    0.00660    0.08570    0.00120   33.00000
 10205.50000    8.75000 3514.00000   94.22790    0.08290    0.02590    0.05720    0.16430    7.84770    0.12340    0.08410    0.01770    0.02290    0.04060    0.01630    0.00490    0.01160    0.00760    0.00170    0.08290    0.00220   33.00000
 10205.00000    8.75000 3510.00000   93.13510    0.08130    0.02430    0.05090    0.12320    8.72380    0.11370    0.08280    0.01260    0.01990    0.04020    0.01680    0.00200    0.01510    0.00720    0.00000    0.08130    0.00080   33.00000
 10204.50000    8.75000 3491.00000   85.85270    0.07490    0.02990    0.06810    0.17300   14.39110    0.09520    0.07870    0.00800    0.01240    0.03020    0.01470    0.00450    0.01550    0.00970    0.00030    0.07490    0.00000   33.00000
 10204.00000    8.75000 3500.00000   79.20760    0.07590    0.04170    0.14960    0.50300   20.28370    0.09760    0.07720    0.01420    0.00760    0.02410    0.01010    0.01370    0.01160    0.00610    0.01030    0.07590    0.00000   33.00000
 10203.50000    8.75000 3510.00000   75.20060    0.07720    0.04840    0.23660    0.89820   21.11890    0.10730    0.08230    0.02450    0.00570    0.01670    0.01210    0.02300    0.00270    0.00060    0.02210    0.07720    0.00000   33.00000
 10203.00000    8.75000 3502.00000   68.37340    0.08570    0.04730    0.41990    0.81090   30.39680    0.10320    0.09040    0.01350    0.00400    0.02250    0.01590    0.02120    0.00220    0.00150    0.02240    0.08570    0.00000   33.00000
 10202.50000    8.75000 3503.00000   63.63990    0.08620    0.04870    0.56830    0.90090   40.72680    0.09620    0.08780    0.00490    0.00520    0.02600    0.01140    0.02210    0.00360    0.00150    0.02150    0.08620    0.00010   33.00000
 10202.00000    8.75000 3501.00000   58.44900    0.07510    0.04960    0.36130    0.98280   36.28020    0.09100    0.07160    0.00490    0.01110    0.02330    0.00220    0.02260    0.00660    0.00110    0.01920    0.07510    0.00260   33.00000
 10201.50000    8.75000 3508.00000   65.09420    0.06430    0.04900    0.20760    0.92600   25.94790    0.09370    0.05970    0.01120    0.01810    0.01260    0.00270    0.02540    0.00300    0.00040    0.02020    0.06430    0.00420   33.00000
 10201.00000    8.75000 3501.00000   79.38600    0.06580    0.04480    0.28710    0.64400   32.83560    0.09030    0.06150    0.00510    0.01940    0.00900    0.01200    0.02280    0.00050    0.00030    0.02130    0.06580    0.00310   33.00000
 10200.50000    8.75000 3513.00000  110.46850    0.06740    0.04180    0.22100    0.49350   29.54370    0.08920    0.06490    0.00100    0.02080    0.01340    0.01210    0.02050    0.00260    0.00330    0.01540    0.06740    0.00050   33.00000
 10200.00000    8.75000 3468.00000  139.68090    0.05900    0.03480    0.05800    0.26580   14.08050    0.09250    0.05920    0.00550    0.02790    0.01440    0.00980    0.01710    0.00690    0.00430    0.00650    0.05900    0.00000   33.00000
 10199.50000    8.75000 3506.00000  167.19680    0.04640    0.02360    0.01140    0.09680    5.19290    0.10140    0.05070    0.02030    0.03470    0.01370    0.00910    0.01030    0.00990    0.00330    0.00000    0.04640    0.00000   33.00000
 10199.00000    8.75000 3491.00000  184.80690    0.04080    0.01150    0.00450    0.02040    2.68780    0.11180    0.04830    0.03930    0.03160    0.01560    0.01380    0.00620    0.00230    0.00210    0.00080    0.04080    0.00000   33.00000
 10198.50000    8.75000 3498.00000  210.52240    0.05130    0.00750    0.00500    0.00590    3.98350    0.09410    0.05400    0.01920    0.02360    0.02800    0.01580    0.00380    0.00100    0.00130    0.00130    0.05130    0.00120   33.00000
 10198.00000    8.75000 3504.00000  260.33530    0.04850    0.00700    0.00480    0.00500    3.93730    0.09380    0.04960    0.01610    0.02910    0.02700    0.01460    0.00330    0.00070    0.00170    0.00120    0.04850    0.00110   33.00000
 10197.50000    8.75000 3497.00000  323.74670    0.03680    0.00690    0.00230    0.00400    3.43150    0.08390    0.03910    0.01460    0.03260    0.02070    0.00920    0.00240    0.00270    0.00180    0.00000    0.03680    0.00050   33.00000
 10197.00000    8.75000 3497.00000  390.19380    0.02710    0.00630    0.00090    0.00260    2.72140    0.07390    0.03060    0.01690    0.03000    0.01680    0.00390    0.00190    0.00440    0.00000    0.00000    0.02710    0.00050   33.00000
 10196.50000    8.75000 3492.00000  424.55790    0.02520    0.00760    0.00070    0.00340    2.73160    0.06890    0.02850    0.01510    0.02860    0.01690    0.00070    0.00490    0.00270    0.00000    0.00000    0.02520    0.00060   33.00000
 10196.00000    8.75000 3492.00000  459.25550    0.02630    0.00860    0.00090    0.00520    2.72130    0.07350    0.03050    0.01690    0.03030    0.01520    0.00250    0.00760    0.00110    0.00000    0.00000    0.02630    0.00080   33.00000
 10195.50000    8.75000 3507.00000  503.73080    0.02440    0.01060    0.00100    0.00920    2.58600    0.07810    0.03020    0.02070    0.03290    0.01130    0.00260    0.00930    0.00120    0.00000    0.00000    0.02440    0.00050   33.00000
 10195.00000    8.75000 3509.00000  545.14920    0.02820    0.01250    0.00130    0.01350    2.96730    0.07820    0.03340    0.01950    0.03060    0.01200    0.00370    0.01200    0.00050    0.00000    0.00000    0.02820    0.00020   33.00000
 10194.50000    8.75000 3474.00000  573.42110    0.03640    0.00810    0.00220    0.00640    2.88120    0.09010    0.04310    0.02320    0.03050    0.02010    0.00820    0.00280    0.00530    0.00000    0.00000    0.03640    0.00080   33.00000
 10194.00000    8.75000 3485.00000  593.81730    0.03710    0.00600    0.00260    0.00410    2.52590    0.10090    0.04730    0.02800    0.03580    0.02350    0.00770    0.00000    0.00510    0.00090    0.00000    0.03710    0.00170   33.00000
 10193.50000    8.75000 3467.00000  632.95950    0.03010    0.00480    0.00180    0.00250    2.16650    0.09880    0.04420    0.03200    0.03660    0.01900    0.00630    0.00000    0.00090    0.00390    0.00000    0.03010    0.00160   33.00000
 10193.00000    8.75000 3467.00000  698.06810    0.02460    0.00360    0.00090    0.00110    1.95380    0.08870    0.03770    0.03170    0.03240    0.01600    0.00510    0.00000    0.00010    0.00300    0.00040    0.02460    0.00110   33.00000
 10192.50000    8.75000 3466.00000  761.06050    0.01960    0.00200    0.00030    0.00020    1.91970    0.06820    0.02640    0.02150    0.02710    0.01400    0.00360    0.00000    0.00070    0.00120    0.00000    0.01960    0.00080   33.00000
 10192.00000    8.75000 3453.00000  776.21040    0.01570    0.00170    0.00020    0.00010    1.76570    0.06180    0.02120    0.01760    0.02850    0.01380    0.00020    0.00000    0.00170    0.00000    0.00000    0.01570    0.00110   33.00000
 10191.50000    8.75000 3441.00000  745.64040    0.01320    0.00220    0.00010    0.00020    1.93020    0.05530    0.01740    0.01240    0.02980    0.01090    0.00000    0.00010    0.00210    0.00000    0.00000    0.01320    0.00070   33.00000
 10191.00000    8.75000 3466.00000  684.93110    0.01510    0.00280    0.00020    0.00030    2.16060    0.05500    0.01880    0.01210    0.02780    0.01230    0.00000    0.00000    0.00240    0.00040    0.00000    0.01510    0.00070   33.00000
 10190.50000    8.75000 3460.00000  654.19180    0.01760    0.00300    0.00020    0.00030    2.43520    0.05540    0.02180    0.01430    0.02350    0.00990    0.00470    0.00000    0.00230    0.00070    0.00000    0.01760    0.00060   33.00000
