~Version ---------------------------------------------------
VERS     .                                                                         2.0 : CWLS log ASCII Standard -VERSION 2.0
WRAP     .                                                                          NO : One Line per depth step
PROD     .                                                                Schlumberger : LAS Producer
PROG     .                                                      DLIS to ASCII 15C0-309 : LAS Program name and version
CREA     . 2008/02/21 06:17                          :LAS Creation date {YYYY/MM/DD hh : mm}
DLIS_CREA.     2008-Feb-21	03:10			       :DLIS Creation date and time {YYYY-MMM-DD hh : mm}
SOURCE   .                                                             CMR_058LUP.DLIS : DLIS File Name
FILE-ID  .                                                                  CMR_058LUP : File Identification Number
~Well ------------------------------------------------------
STRT.F     10520.0 : START DEPTH
STOP.F      9849.0 : STOP DEPTH
STEP.F        -0.5 : STEP
NULL.      -999.25 : NULL VALUE
COMP.              : COMPANY
WELL.       Bakken : WELL
FLD .              : FIELD
LOC .              : LOCATION
CNTY.              : COUNTY
STAT.    N. DAKOTA : STATE
CTRY.              : COUNTRY
API .              : API NUMBER
UWI .              : UNIQUE WELL ID
DATE.              : LOG DATE {DD-MMM-YYYY}
SRVC. Schlumberger : SERVICE COMPANY
LATI.DEG         0 : LATITUDE
LONG.DEG         0 : LONGITUDE
GDAT.              : GeoDetic Datum
SECT.           28 : Section
RANG.          92W : Range
TOWN.         154N : Township
~Curve Information -----------------------------------------
DEPT          .F     : DEPTH (BOREHOLE) {F10.1}
BS            .IN    : Bit Size {F13.4}
TENS          .LBF   : Cable Tension {F13.4}
GR_EDTC       .GAPI  : Gamma Ray {F13.4}
CMRP_3MS      .CFCF  : CMR 3ms Porosity {F13.4}
CMFF          .CFCF  : CMR Free Fluid {F13.4}
KSDR          .MD    : Permeability from CMR - SDR Model {F13.4}
KTIM          .MD    : Permeability from CMR - Timur Model {F13.4}
T2LM          .MS    : T2 Logarithmic Mean {F13.4}
TCMR          .CFCF  : Total CMR Porosity {F13.4}
CMRP_3MS_MW[0].CFCF  : CMR 3ms Porosity - Multi Wait {AF13.4}
CBP1          .CFCF  : CMR Bin Porosity 1 {F13.4}
CBP2          .CFCF  : CMR Bin Porosity 2 {F13.4}
CBP3          .CFCF  : CMR Bin Porosity 3 {F13.4}
CBP4          .CFCF  : CMR Bin Porosity 4 {F13.4}
CBP5          .CFCF  : CMR Bin Porosity 5 {F13.4}
CBP6          .CFCF  : CMR Bin Porosity 6 {F13.4}
CBP7          .CFCF  : CMR Bin Porosity 7 {F13.4}
CBP8          .CFCF  : CMR Bin Porosity 8 {F13.4}
CFF2          .CFCF  : CMR Free Fluid Porosity for T2 Cutoff 2 {F13.4}
T2_DIST_MW[0] .CFCF  : T2 Distribution - Multi Wait {AF13.4}
T2CUTOFF      .MS    : T2 Cutoff {F13.4}
~Params ----------------------------------------------------
RUN .           ONE : RUN NUMBER
PDAT.  GROUND LEVEL : Permanent Datum
EPD .F       2111.0 : Elevation of Permanent Datum above Mean Sea Level
LMF . KELLY BUSHING : Logging Measured From (Name of Logging Elevation Reference)
APD .F         18.0 : Elevation of Depth Reference (LMF) above Permanent Datum
~Other -----------------------------------------------------
~ASCII -----------------------------------------------------
# ...
 10338.50000    8.75000 3540.00000  102.16160    0.04950    0.00240    0.00470    0.00070    2.89380    0.10870    0.05310    0.01940    0.03980    0.03410    0.01300    0.00000    0.00110    0.00130    0.00000    0.04950    0.00000   33.00000
 10338.00000    8.75000 3580.00000   94.76180    0.04620    0.00160    0.00270    0.00020    3.09290    0.09180    0.05270    0.01690    0.02860    0.03360    0.01100    0.00000    0.00000    0.00000    0.00160    0.04620    0.00000   33.00000
 10337.50000    8.75000 3548.00000   83.02300    0.03760    0.00150    0.00120    0.00010    2.68720    0.08050    0.04260    0.01760    0.02530    0.02740    0.00880    0.00000    0.00140    0.00000    0.00000    0.03760    0.00000   33.00000
 10337.00000    8.75000 3554.00000   76.56680    0.03750    0.00240    0.00110    0.00040    2.82160    0.07660    0.03580    0.01420    0.02490    0.03000    0.00500    0.00030    0.00210    0.00000    0.00000    0.03750    0.00020   33.00000
 10336.50000    8.75000 3550.00000   77.84170    0.03730    0.00280    0.00120    0.00050    2.67680    0.08000    0.03140    0.01570    0.02700    0.03110    0.00340    0.00000    0.00270    0.00000    0.00000    0.03730    0.00050   33.00000
 10336.00000    8.75000 3528.00000   78.66100    0.03240    0.00250    0.00100    0.00040    2.35420    0.08230    0.02820    0.02070    0.02920    0.02830    0.00150    0.00000    0.00000    0.00100    0.00150    0.03240    0.00130   33.00000
 10335.50000    8.75000 3516.00000   72.91750    0.02650    0.00390    0.00090    0.00110    2.25140    0.08250    0.02530    0.02520    0.03080    0.02210    0.00050    0.00000    0.00000    0.00000    0.00390    0.02650    0.00160   33.00000
 10335.00000    8.75000 3520.00000   61.16310    0.02440    0.00320    0.00060    0.00070    2.06380    0.07640    0.02650    0.02300    0.02900    0.02090    0.00020    0.00000    0.00000    0.00310    0.00010    0.02440    0.00170   33.00000
 10334.50000    8.75000 3527.00000   55.50830    0.02850    0.00250    0.00070    0.00040    2.28340    0.07650    0.03040    0.01950    0.02840    0.02460    0.00140    0.00000    0.00000    0.00220    0.00030    0.02850    0.00170   33.00000
 10334.00000    8.75000 3526.00000   52.14170    0.02720    0.00220    0.00070    0.00030    2.23500    0.07700    0.02900    0.02270    0.02700    0.02010    0.00490    0.00000    0.00000    0.00040    0.00180    0.02720    0.00170   33.00000
 10333.50000    8.75000 3520.00000   53.68920    0.02620    0.00330    0.00080    0.00070    2.21300    0.07890    0.02540    0.02890    0.02370    0.01220    0.01070    0.00170    0.00000    0.00000    0.00160    0.02620    0.00180   33.00000
 10333.00000    8.75000 3502.00000   56.34910    0.02750    0.00580    0.00070    0.00210    2.52520    0.07160    0.02280    0.02370    0.02040    0.01090    0.01080    0.00580    0.00000    0.00000    0.00000    0.02750    0.00110   33.00000
 10332.50000    8.75000 3532.00000   67.73500    0.02620    0.00750    0.00060    0.00300    2.86020    0.06520    0.02490    0.01850    0.02040    0.01090    0.00780    0.00750    0.00000    0.00000    0.00000    0.02620    0.00090   33.00000
 10332.00000    8.75000 3505.00000   76.20070    0.02360    0.00550    0.00040    0.00140    2.63130    0.06100    0.02540    0.01530    0.02210    0.01410    0.00390    0.00520    0.00040    0.00000    0.00000    0.02360    0.00090   33.00000
 10331.50000    8.75000 3526.00000   79.19560    0.02190    0.00140    0.00020    0.00010    2.34100    0.05740    0.02560    0.01460    0.02080    0.01590    0.00460    0.00000    0.00040    0.00100    0.00000    0.02190    0.00080   33.00000
 10331.00000    8.75000 3520.00000   69.82740    0.02190    0.00000    0.00020    0.00000    1.97410    0.05980    0.02730    0.01540    0.02250    0.01990    0.00190    0.00000    0.00000    0.00000    0.00000    0.02190    0.00100   33.00000
 10330.50000    8.75000 3528.00000   63.27380    0.02700    0.00000    0.00030    0.00000    2.55330    0.05870    0.03060    0.01040    0.02130    0.02230    0.00470    0.00000    0.00000    0.00000    0.00000    0.02700    0.00050   33.00000
 10330.00000    8.75000 3528.00000   55.72550    0.03090    0.00140    0.00050    0.00010    3.24200    0.05840    0.03290    0.00970    0.01790    0.02050    0.00900    0.00120    0.00020    0.00000    0.00000    0.03090    0.00020   33.00000
 10329.50000    8.75000 3533.00000   58.97370    0.03450    0.00190    0.00080    0.00010    3.89160    0.06030    0.03570    0.01020    0.01560    0.02090    0.01160    0.00000    0.00000    0.00150    0.00050    0.03450    0.00040   33.00000
 10329.00000    8.75000 3538.00000   66.89280    0.03080    0.00220    0.00070    0.00020    3.09210    0.06600    0.03250    0.01530    0.01980    0.01890    0.00970    0.00050    0.00000    0.00000    0.00160    0.03080    0.00090   33.00000
 10328.50000    8.75000 3510.00000   75.34110    0.01950    0.00410    0.00030    0.00070    2.07220    0.06250    0.02240    0.01900    0.02400    0.01310    0.00240    0.00380    0.00000    0.00000    0.00030    0.01950    0.00110   33.00000
 10328.00000    8.75000 3507.00000   75.38050    0.01480    0.00420    0.00020    0.00070    1.95880    0.05650    0.01880    0.01900    0.02270    0.00800    0.00260    0.00380    0.00000    0.00000    0.00040    0.01480    0.00090   33.00000
 10327.50000    8.75000 3520.00000   70.09160    0.01270    0.00690    0.00020    0.00210    2.08520    0.05800    0.01820    0.02120    0.02410    0.00390    0.00190    0.00560    0.00000    0.00000    0.00130    0.01270    0.00060   33.00000
 10327.00000    8.75000 3504.00000   65.73240    0.01360    0.00860    0.00030    0.00390    2.27230    0.06280    0.01950    0.02040    0.02880    0.00500    0.00000    0.00520    0.00220    0.00000    0.00120    0.01360    0.00060   33.00000
 10326.50000    8.75000 3498.00000   67.65880    0.01530    0.00830    0.00040    0.00390    2.29430    0.06600    0.01880    0.01970    0.03100    0.00700    0.00000    0.00280    0.00530    0.00000    0.00020    0.01530    0.00120   33.00000
 10326.00000    8.75000 3513.00000   69.42180    0.02030    0.00760    0.00050    0.00320    2.44190    0.06600    0.02290    0.01840    0.02740    0.01270    0.00000    0.00410    0.00270    0.00000    0.00070    0.02030    0.00220   33.00000
 10325.50000    8.75000 3494.00000   76.23030    0.02900    0.00520    0.00070    0.00150    2.78940    0.07000    0.03010    0.01700    0.02390    0.02130    0.00260    0.00310    0.00000    0.00000    0.00210    0.02900    0.00250   33.00000
 10325.00000    8.75000 3520.00000   80.54760    0.03030    0.00260    0.00080    0.00030    3.05880    0.06760    0.03240    0.01540    0.02190    0.02090    0.00680    0.00000    0.00000    0.00000    0.00260    0.03030    0.00180   33.00000
 10324.50000    8.75000 3541.00000   82.95660    0.02570    0.00300    0.00060    0.00040    2.77900    0.06610    0.02930    0.01590    0.02450    0.01910    0.00360    0.00000    0.00000    0.00000    0.00300    0.02570    0.00110   33.00000
 10324.00000    8.75000 3528.00000   81.05020    0.02000    0.00220    0.00040    0.00020    2.12680    0.06710    0.02350    0.01850    0.02860    0.01710    0.00070    0.00000    0.00000    0.00000    0.00220    0.02000    0.00110   33.00000
 10323.50000    8.75000 3528.00000   70.99460    0.01800    0.00200    0.00030    0.00020    1.96110    0.06720    0.02060    0.01910    0.03020    0.01600    0.00000    0.00000    0.00000    0.00000    0.00190    0.01800    0.00100   33.00000
 10323.00000    8.75000 3547.00000   61.69930    0.02220    0.00150    0.00040    0.00010    2.10180    0.06800    0.02170    0.01780    0.02800    0.01950    0.00120    0.00000    0.00000    0.00000    0.00150    0.02220    0.00040   33.00000
 10322.50000    8.75000 3514.00000   59.49360    0.02180    0.00260    0.00050    0.00040    2.08230    0.07310    0.02550    0.02400    0.02730    0.01620    0.00300    0.00000    0.00000    0.00000    0.00260    0.02180    0.00010   33.00000
