~Version ---------------------------------------------------
VERS     .                                                                         2.0 : CWLS log ASCII Standard -VERSION 2.0
WRAP     .                                                                          NO : One Line per depth step
PROD     .                                                                Schlumberger : LAS Producer
PROG     .                                                      DLIS to ASCII 15C0-309 : LAS Program name and version
CREA     . 2008/02/21 06:17                          :LAS Creation date {YYYY/MM/DD hh : mm}
DLIS_CREA.     2008-Feb-21	03:10			       :DLIS Creation date and time {YYYY-MMM-DD hh : mm}
SOURCE   .                                                             CMR_058LUP.DLIS : DLIS File Name
FILE-ID  .                                                                  CMR_058LUP : File Identification Number
~Well ------------------------------------------------------
STRT.F     10520.0 : START DEPTH
STOP.F      9849.0 : STOP DEPTH
STEP.F        -0.5 : STEP
NULL.      -999.25 : NULL VALUE
COMP.              : COMPANY
WELL.       Bakken : WELL
FLD .              : FIELD
LOC .              : LOCATION
CNTY.              : COUNTY
STAT.    N. DAKOTA : STATE
CTRY.              : COUNTRY
API .              : API NUMBER
UWI .              : UNIQUE WELL ID
DATE.              : LOG DATE {DD-MMM-YYYY}
SRVC. Schlumberger : SERVICE COMPANY
LATI.DEG         0 : LATITUDE
LONG.DEG         0 : LONGITUDE
GDAT.              : GeoDetic Datum
SECT.           28 : Section
RANG.          92W : Range
TOWN.         154N : Township
~Curve Information -----------------------------------------
DEPT          .F     : DEPTH (BOREHOLE) {F10.1}
BS            .IN    : Bit Size {F13.4}
TENS          .LBF   : Cable Tension {F13.4}
GR_EDTC       .GAPI  : Gamma Ray {F13.4}
CMRP_3MS      .CFCF  : CMR 3ms Porosity {F13.4}
CMFF          .CFCF  : CMR Free Fluid {F13.4}
KSDR          .MD    : Permeability from CMR - SDR Model {F13.4}
KTIM          .MD    : Permeability from CMR - Timur Model {F13.4}
T2LM          .MS    : T2 Logarithmic Mean {F13.4}
TCMR          .CFCF  : Total CMR Porosity {F13.4}
CMRP_3MS_MW[0].CFCF  : CMR 3ms Porosity - Multi Wait {AF13.4}
CBP1          .CFCF  : CMR Bin Porosity 1 {F13.4}
CBP2          .CFCF  : CMR Bin Porosity 2 {F13.4}
CBP3          .CFCF  : CMR Bin Porosity 3 {F13.4}
CBP4          .CFCF  : CMR Bin Porosity 4 {F13.4}
CBP5          .CFCF  : CMR Bin Porosity 5 {F13.4}
CBP6          .CFCF  : CMR Bin Porosity 6 {F13.4}
CBP7          .CFCF  : CMR Bin Porosity 7 {F13.4}
CBP8          .CFCF  : CMR Bin Porosity 8 {F13.4}
CFF2          .CFCF  : CMR Free Fluid Porosity for T2 Cutoff 2 {F13.4}
T2_DIST_MW[0] .CFCF  : T2 Distribution - Multi Wait {AF13.4}
T2CUTOFF      .MS    : T2 Cutoff {F13.4}
~Params ----------------------------------------------------
RUN .           ONE : RUN NUMBER
PDAT.  GROUND LEVEL : Permanent Datum
EPD .F       2111.0 : Elevation of Permanent Datum above Mean Sea Level
LMF . KELLY BUSHING : Logging Measured From (Name of Logging Elevation Reference)
APD .F         18.0 : Elevation of Depth Reference (LMF) above Permanent Datum
~Other -----------------------------------------------------
~ASCII -----------------------------------------------------
 10520.00000    8.75000 3100.00000   19.30090    0.06370    0.05560    1.27520    2.51490   98.29030    0.07580    0.06510    0.00300    0.00910    0.00020    0.00790    0.01650    0.01010    0.01370    0.01540    0.06370    0.00000   33.00000
 10519.50000    8.75000 3174.00000   19.30090    0.06370    0.05560    1.27520    2.51490   98.29030    0.07580    0.06510    0.00300    0.00910    0.00020    0.00790    0.01650    0.01010    0.01370    0.01540    0.06370    0.00000   33.00000
 10519.00000    8.75000 3199.00000   19.30090    0.06370    0.05560    1.27520    2.51490   98.29030    0.07580    0.06510    0.00300    0.00910    0.00020    0.00790    0.01650    0.01010    0.01370    0.01540    0.06370    0.00000   33.00000
 10518.50000    8.75000 3244.00000   19.30090    0.06370    0.05560    1.27520    2.51490   98.29030    0.07580    0.06510    0.00300    0.00910    0.00020    0.00790    0.01650    0.01010    0.01370    0.01540    0.06370    0.00000   33.00000
 10518.00000    8.75000 3341.00000   19.30090    0.06370    0.05560    1.27520    2.51490   98.29030    0.07580    0.06510    0.00300    0.00910    0.00020    0.00790    0.01650    0.01010    0.01370    0.01540    0.06370    0.00000   33.00000
 10517.50000    8.75000 3380.00000   19.30090    0.06370    0.05560    1.27520    2.51490   98.29030    0.07580    0.06510    0.00300    0.00910    0.00020    0.00790    0.01650    0.01010    0.01370    0.01540    0.06370    0.00000   33.00000
 10517.00000    8.75000 3416.00000   19.30090    0.06370    0.05560    1.27520    2.51490   98.29030    0.07580    0.06510    0.00300    0.00910    0.00020    0.00790    0.01650    0.01010    0.01370    0.01540    0.06370    0.00000   33.00000
 10516.50000    8.75000 3491.00000   19.30090    0.06370    0.05560    1.27520    2.51490   98.29030    0.07580    0.06510    0.00300    0.00910    0.00020    0.00790    0.01650    0.01010    0.01370    0.01540    0.06370    0.00000   33.00000
 10516.00000    8.75000 3552.00000   19.30090    0.06370    0.05560    1.27520    2.51490   98.29030    0.07580    0.06510    0.00300    0.00910    0.00020    0.00790    0.01650    0.01010    0.01370    0.01540    0.06370    0.00000   33.00000
 10515.50000    8.75000 3582.00000   19.30090    0.06830    0.05040    1.42500    1.36780  109.14410    0.07400    0.06960    0.00080    0.00490    0.00540    0.01240    0.00960    0.01090    0.01640    0.01350    0.06830    0.00000   33.00000
 10515.00000    8.75000 3558.00000   19.30090    0.07010    0.04650    1.72620    0.93380  133.78160    0.07010    0.07130    0.00000    0.00000    0.00540    0.01820    0.00380    0.01320    0.01900    0.01040    0.07010    0.00000   33.00000
 10514.50000    8.75000 3537.00000   19.30090    0.06980    0.04950    2.38760    1.40600  158.48860    0.06980    0.07060    0.00000    0.00000    0.00470    0.01570    0.00610    0.01210    0.01770    0.01360    0.06980    0.00000   33.00000
 10514.00000    8.75000 3576.00000   19.30090    0.06980    0.04950    2.38960    1.40720  158.48860    0.06980    0.07060    0.00000    0.00000    0.00470    0.01570    0.00610    0.01210    0.01770    0.01360    0.06980    0.00000   33.00000
 10513.50000    8.75000 3566.00000   19.30090    0.06960    0.04970    1.90550    1.43560  140.91380    0.07000    0.06980    0.00040    0.00000    0.00890    0.01100    0.00640    0.01310    0.01700    0.01320    0.06960    0.00000   33.00000
 10513.00000    8.75000 3556.00000   19.30090    0.07130    0.04840    1.38920    1.09720  109.90540    0.07320    0.07220    0.00190    0.00000    0.00990    0.01300    0.00440    0.01430    0.01920    0.01060    0.07130    0.00000   33.00000
 10512.50000    8.75000 3594.00000   19.30090    0.06830    0.04900    1.76050    1.30990  142.14870    0.06830    0.06970    0.00000    0.00000    0.00800    0.01130    0.00600    0.01370    0.01850    0.01080    0.06830    0.00000   33.00000
 10512.00000    8.75000 3568.00000   19.30090    0.06320    0.05290    2.00710    1.34190  161.88430    0.06610    0.06390    0.00070    0.00220    0.00400    0.00620    0.01250    0.01120    0.01430    0.01490    0.06320    0.00000   33.00000
 10511.50000    8.75000 3586.00000   19.30090    0.06280    0.05250    1.91800    1.55630  145.82850    0.06890    0.06270    0.00220    0.00390    0.00130    0.00900    0.01160    0.00960    0.01490    0.01640    0.06280    0.00000   33.00000
 10511.00000    8.75000 3594.00000   19.30090    0.06300    0.04760    1.56770    1.18100  137.20600    0.06750    0.06210    0.00370    0.00090    0.00040    0.01500    0.00660    0.00960    0.01810    0.01340    0.06300    0.00000   33.00000
 10510.50000    8.75000 3565.00000   19.30090    0.06310    0.04680    2.28940    0.93550  182.89270    0.06430    0.06260    0.00120    0.00000    0.00040    0.01600    0.00470    0.00930    0.01950    0.01320    0.06310    0.00030   33.00000
 10510.00000    8.75000 3618.00000   19.30090    0.06210    0.04880    1.72370    1.00080  160.03330    0.06400    0.06270    0.00190    0.00000    0.00250    0.01090    0.00580    0.01350    0.01910    0.01040    0.06210    0.00090   33.00000
 10509.50000    8.75000 3602.00000   19.30090    0.06840    0.05170    0.74740    1.47530   73.11000    0.07690    0.07100    0.00830    0.00030    0.01050    0.00610    0.00790    0.01530    0.01920    0.00930    0.06840    0.00060   33.00000
 10509.00000    8.75000 3585.00000   19.30090    0.07130    0.05250    0.54980    1.35380   51.20290    0.08510    0.07430    0.00680    0.00700    0.01590    0.00290    0.01090    0.01360    0.01870    0.00930    0.07130    0.00000   33.00000
 10508.50000    8.75000 3636.00000   19.30090    0.06760    0.05620    0.94910    2.14180   72.36050    0.08200    0.07300    0.00310    0.01130    0.00710    0.00430    0.01670    0.00930    0.01630    0.01390    0.06760    0.00000   33.00000
 10508.00000    8.75000 3607.00000   19.30090    0.06360    0.05620    1.43440    2.37330  109.25410    0.07400    0.06540    0.00130    0.00920    0.00050    0.00690    0.01600    0.01150    0.01470    0.01410    0.06360    0.00000   33.00000
 10507.50000    8.75000 3591.00000   19.30090    0.06410    0.05040    2.23280    1.07780  181.51890    0.06420    0.06400    0.00000    0.00000    0.00000    0.01370    0.00760    0.01430    0.02070    0.00780    0.06410    0.00000   33.00000
 10507.00000    8.75000 3645.00000   19.30090    0.06140    0.04530    1.56630    0.74160  164.69530    0.06160    0.06130    0.00030    0.00000    0.00000    0.01600    0.00240    0.01500    0.02370    0.00420    0.06140    0.00000   33.00000
 10506.50000    8.75000 3614.00000   19.30090    0.05940    0.04640    0.68860    0.95650   87.24980    0.06900    0.05880    0.00790    0.00160    0.00050    0.01250    0.00250    0.01590    0.02090    0.00700    0.05940    0.00000   33.00000
 10506.00000    8.75000 3612.00000   19.30090    0.06050    0.04990    0.44040    1.19650   55.99680    0.07700    0.05900    0.01160    0.00480    0.00450    0.00610    0.00680    0.01630    0.01810    0.00880    0.06050    0.00250   33.00000
 10505.50000    8.75000 3602.00000   19.30090    0.06670    0.05550    0.80490    1.92290   64.89270    0.08310    0.06610    0.00840    0.00800    0.00810    0.00320    0.00990    0.01460    0.01810    0.01280    0.06670    0.00420   33.00000
 10505.00000    8.75000 3622.00000   19.30090    0.06570    0.05550    1.08860    2.05840   80.25250    0.08060    0.06470    0.00560    0.00930    0.00650    0.00370    0.00980    0.01300    0.01810    0.01460    0.06570    0.00410   33.00000
 10504.50000    8.75000 3617.00000   19.30090    0.06190    0.05580    1.04940    2.46080   86.66270    0.07690    0.06170    0.00780    0.00710    0.00410    0.00200    0.00760    0.01570    0.01980    0.01280    0.06190    0.00360   33.00000
 10504.00000    8.75000 3664.00000   19.30090    0.06080    0.05670    1.14440    2.41340   97.65970    0.07400    0.06020    0.01090    0.00230    0.00390    0.00020    0.00280    0.02090    0.02290    0.01010    0.06080    0.00340   33.00000
