~Version ---------------------------------------------------
VERS.   2.0 : CWLS log ASCII Standard -VERSION 2.0
WRAP.    NO : One line per depth step
DLM . SPACE : Column Data Section Delimiter
~Well ------------------------------------------------------
STRT.ft       145.90000 : START DEPTH
STOP.ft      4093.90000 : STOP DEPTH
STEP.ft         0.50000 : STEP
NULL.           -999.25 : NULL VALUE
COMP. Statoil Petroleum : COMPANY
WELL.        15/9-F-1 C : WELL
FLD .             VOLVE : FIELD
LOC .   Maersk Inspirer : LOCATION
PROV.                   : PROVINCE
CNTY.                   : COUNTY
STAT.                   : STATE
CTRY.                   : COUNTRY
SRVC.                   : SERVICE COMPANY
DATE.                   : DATE
UWI .                   : UNIQUE WELL ID
API .                   : API NUMBER
~Curve Information -----------------------------------------
DEPT        .ft        : 
ABDCQF01    .g/cm3     : 
ABDCQF02    .g/cm3     : 
ABDCQF03    .g/cm3     : 
ABDCQF04    .g/cm3     : 
BS          .inches    : 
CALI        .inches    : 
DRHO        .g/cm3     : 
GR          .API       : 
NBGRCFM     .API       : 
NPHI        .v/v       : 
PEF         .b/elec    : 
RACEHM      .ohm.m     : 
RACELM      .ohm.m     : 
RD          .ohm.m     : 
RHOB        .g/cm3     : 
RM          .ohm.m     : 
ROP         .m/hr      : 
RPCEHM      .ohm.m     : 
RPCELM      .ohm.m     : 
RT          .ohm.m     : 
BADDATA_FLAG.unitless  : 
BVW         .v/v       : 
COAL_FLAG   .unitless  : 
KLOGH       .mD        : 
PHIF        .v/v       : 
SAND_FLAG   .unitless  : 
SW          .v/v       : 
VCARB       .v/v       : 
VSH         .v/v       : 
~Params ----------------------------------------------------
~Other -----------------------------------------------------
PETROPHYSICAL INTERPRETATION: INPUT

# --- LOG MNEMONICS AND UNITS ---
#Depth          ABDCQF01        ABDCQF02        ABDCQF03        ABDCQF04        BS              CALI            DRHO            GR              NBGRCFM         NPHI            PEF             RACEHM          RACELM          RD              RHOB            RM              ROP             RPCEHM          RPCELM          RT
#M              g/cm3           g/cm3           g/cm3           g/cm3           inches          inches          g/cm3           API             API             v/v             b/elec          ohm.m           ohm.m           ohm.m           g/cm3           ohm.m           m/hr            ohm.m           ohm.m           ohm.m
~ASCII -----------------------------------------------------
# ...
 3058.40000    2.54700    2.57750    2.56600    2.56110    8.50000    8.60570    0.04580   30.21070   31.12520    0.14000    8.22480    2.57430    2.55910    2.54500    2.56330    2.89400 -999.25000    2.89400    2.54500    2.89400 -999.25000 -999.25000 -999.25000 -999.25000 -999.25000 -999.25000 -999.25000 -999.25000 -999.25000
 3058.90000    2.55540    2.55860    2.55910    2.56170    8.50000    8.62740    0.05720   32.57470   36.04380    0.15520    8.82010    2.54860    2.55900    2.46270    2.56000    2.64140 -999.25000    2.64140    2.46270    2.64140 -999.25000 -999.25000 -999.25000 -999.25000 -999.25000 -999.25000 -999.25000 -999.25000 -999.25000
 3059.40000    2.55810    2.55910    2.55280    2.56590    8.50000    8.55690    0.05080   29.21930   33.35070    0.13560    8.57840    2.58010    2.56130    2.46360    2.55780    2.56240    0.94850    2.56240    2.46360    2.56240 -999.25000 -999.25000 -999.25000 -999.25000 -999.25000 -999.25000 -999.25000 -999.25000 -999.25000
 3059.90000    2.55190    2.56570    2.56180    2.55860    8.50000    8.52430    0.04620   26.58730   29.50980    0.12580    8.34680    2.60470    2.55890    2.60540    2.55790    2.93160    3.71090    2.93160    2.60530    2.93160 -999.25000 -999.25000 -999.25000 -999.25000 -999.25000 -999.25000 -999.25000 -999.25000 -999.25000
 3060.40000    2.54900    2.57420    2.58540    2.55570    8.50000    8.52430    0.04620   25.33820   27.22260    0.12350    8.47460    2.69820    2.56230    2.72950    2.56760    3.13260    9.04330    3.13260    2.72950    3.13260 -999.25000 -999.25000 -999.25000 -999.25000 -999.25000 -999.25000 -999.25000 -999.25000 -999.25000
 3060.90000    2.56780    2.57530    2.58490    2.57060    8.50000    8.68690    0.05660   24.28190   26.89260    0.11180    8.98300    2.74310    2.55690    2.75480    2.57300    3.20040   15.08710    3.20040    2.75480    3.20040 -999.25000 -999.25000 -999.25000 -999.25000 -999.25000 -999.25000 -999.25000 -999.25000 -999.25000
 3061.40000    2.56380    2.57020    2.57700    2.57770    8.50000    8.52430    0.04940   27.75550   28.39170    0.12690    8.43750    2.73170    2.53900    2.68780    2.57030    3.04850   16.19470    3.04850    2.68790    3.04850 -999.25000 -999.25000 -999.25000 -999.25000 -999.25000 -999.25000 -999.25000 -999.25000 -999.25000
 3061.90000    2.55190    2.57120    2.57790    2.56870    8.50000    8.52430    0.04770   29.46080   31.61150    0.13570    8.42930    2.62420    2.49490    2.59210    2.56470    2.92900   10.13620    2.92910    2.59210    2.92900 -999.25000 -999.25000 -999.25000 -999.25000 -999.25000 -999.25000 -999.25000 -999.25000 -999.25000
 3062.40000    2.55950    2.57090    2.57840    2.55860    8.50000    8.55690    0.04670   30.62610   31.75990    0.13570    8.17720    2.43490    2.42990    2.46130    2.56770    2.85960    7.80580    2.85960    2.46130    2.85960 -999.25000 -999.25000 -999.25000 -999.25000 -999.25000 -999.25000 -999.25000 -999.25000 -999.25000
 3062.90000    2.55740    2.57310    2.56110    2.56470    8.50000    8.52430    0.04730   34.12330   34.91390    0.14730    8.21380    2.32680    2.40230    2.31800    2.56620    2.55820    3.25380    2.55820    2.31800    2.55820 -999.25000 -999.25000 -999.25000 -999.25000 -999.25000 -999.25000 -999.25000 -999.25000 -999.25000
 3063.40000    2.55280    2.56310    2.55370    2.55420    8.50000    8.52430    0.05130   40.83240   42.87550    0.17740    8.13760    2.34950    2.41990    2.11120    2.55620    2.05650    5.36320    2.05650    2.11120    2.05650 -999.25000 -999.25000 -999.25000 -999.25000 -999.25000 -999.25000 -999.25000 -999.25000 -999.25000
 3063.90000    2.54990    2.55470    2.55630    2.54140    8.50000    8.52430    0.04710   35.71290   43.68190    0.16300    8.19820    2.40730    2.42050    2.18180    2.54980    2.21340    6.75900    2.21340    2.18180    2.21340 -999.25000 -999.25000 -999.25000 -999.25000 -999.25000 -999.25000 -999.25000 -999.25000 -999.25000
 3064.40000    2.55420    2.55780    2.57510    2.53910    8.50000    8.49980    0.04330   24.62440   31.85380    0.12580    8.04210    2.47740    2.39800    2.47950    2.55510    2.99260    6.21080    2.99250    2.47940    2.99260 -999.25000 -999.25000 -999.25000 -999.25000 -999.25000 -999.25000 -999.25000 -999.25000 -999.25000
 3064.90000    2.56530    2.56440    2.57780    2.56560    8.50000    8.47560    0.04420   26.26110   26.54260    0.12500    7.96850    2.60740    2.42070    2.70070    2.56850    3.33700    6.09520    3.33700    2.70070    3.33700 -999.25000 -999.25000 -999.25000 -999.25000 -999.25000 -999.25000 -999.25000 -999.25000 -999.25000
 3065.40000    2.57840    2.57310    2.57730    2.58370    8.50000    8.47550    0.04730   27.19100   30.22450    0.12760    8.01470    2.66290    2.42970    2.71110    2.57520    3.28090    5.26690    3.28090    2.71110    3.28090 -999.25000 -999.25000 -999.25000 -999.25000 -999.25000 -999.25000 -999.25000 -999.25000 -999.25000
 3065.90000    2.57200    2.59020    2.57830    2.57130    8.50000    8.47550    0.05120   29.55370   29.35000    0.13880    8.07530    2.54640    2.42140    2.57780    2.57740    3.07930    4.15790    3.07940    2.57780    3.07930 -999.25000 -999.25000 -999.25000 -999.25000 -999.25000 -999.25000 -999.25000 -999.25000 -999.25000
 3066.40000    2.55600    2.55810    2.55800    2.55990    8.50000    8.47550    0.04350   33.48880   36.28940    0.15780    7.86550    2.42620    2.40700    2.34240    2.55290    2.55130    3.82100    2.55140    2.34240    2.55130 -999.25000 -999.25000 -999.25000 -999.25000 -999.25000 -999.25000 -999.25000 -999.25000 -999.25000
 3066.90000    2.55360    2.54190    2.55080    2.55780    8.50000    8.52430    0.04710   38.64850   38.63340    0.16390    7.99790    2.31640    2.39970    2.20890    2.55120    2.31250    4.99450    2.31250    2.20890    2.31250 -999.25000 -999.25000 -999.25000 -999.25000 -999.25000 -999.25000 -999.25000 -999.25000 -999.25000
 3067.40000    2.54270    2.56850    2.56130    2.54440    8.50000    8.47550    0.04260   37.63810   40.75010    0.16360    7.77150    2.30270    2.40460    2.18840    2.55450    2.31050    7.33830    2.31050    2.18840    2.31050 -999.25000 -999.25000 -999.25000 -999.25000 -999.25000 -999.25000 -999.25000 -999.25000 -999.25000
 3067.90000    2.56340    2.56390    2.57550    2.55460    8.50000    8.50000    0.04920   33.35740   35.31740    0.15580    8.21590    2.36970    2.42910    2.30140    2.56170    2.48910    6.76240    2.48900    2.30140    2.48910 -999.25000 -999.25000 -999.25000 -999.25000 -999.25000 -999.25000 -999.25000 -999.25000 -999.25000
 3068.40000    2.55110    2.54720    2.55150    2.57130    8.50000    8.47550    0.04610   32.17270   34.08340    0.14570    8.18950    2.50200    2.48190    2.44030    2.55450    2.73650    7.05080    2.73650    2.44030    2.73650 -999.25000 -999.25000 -999.25000 -999.25000 -999.25000 -999.25000 -999.25000 -999.25000 -999.25000
 3068.90000    2.56210    2.58410    2.57360    2.57600    8.50000    8.47550    0.04960   26.76230   29.40830    0.12950    8.20480    2.68100    2.56480    2.67650    2.56900    3.00360    5.64840    3.00360    2.67650    3.00360 -999.25000 -999.25000 -999.25000 -999.25000 -999.25000 -999.25000 -999.25000 -999.25000 -999.25000
 3069.40000    2.56410    2.56760    2.57940    2.56260    8.50000    8.47560    0.04360   25.76510   29.57380    0.12500    8.25280    2.86280    2.63910    2.83920    2.56670    3.18270    5.44670    3.18270    2.83920    3.18270 -999.25000 -999.25000 -999.25000 -999.25000 -999.25000 -999.25000 -999.25000 -999.25000 -999.25000
 3069.90000    2.57860    2.57730    2.58870    2.58460    8.50000    8.47550    0.04750   23.86930   25.50060    0.11730    8.18980    2.96040    2.67420    2.99700    2.58230    3.46550    5.42920    3.46550    2.99700    3.46550 -999.25000 -999.25000 -999.25000 -999.25000 -999.25000 -999.25000 -999.25000 -999.25000 -999.25000
 3070.40000    2.58580    2.59360    2.57390    2.58240    8.50000    8.47550    0.04760   20.19090   24.30630    0.11260    8.42950    2.99010    2.70860    3.08900    2.58560    3.62410    5.89100    3.62410    3.08900    3.62410 -999.25000 -999.25000 -999.25000 -999.25000 -999.25000 -999.25000 -999.25000 -999.25000 -999.25000
