~Version ---------------------------------------------------
VERS.   2.0 : CWLS log ASCII Standard -VERSION 2.0
WRAP.    NO : One line per depth step
DLM . SPACE : Column Data Section Delimiter
~Well ------------------------------------------------------
STRT.ft  239.87760 : START DEPTH
STOP.ft 4186.87760 : STOP DEPTH
STEP.ft    0.50000 : STEP
NULL.      -999.25 : NULL VALUE
COMP. STATOILHYDRO : COMPANY
WELL.    15/9-F-12 : WELL
FLD .        VOLVE : FIELD
LOC .      UNKNOWN : LOCATION
PROV.              : PROVINCE
CNTY.      UNKNOWN : COUNTY
STAT.      UNKNOWN : STATE
CTRY.       Norway : COUNTRY
SRVC.      UNKNOWN : SERVICE COMPANY
DATE.      UNKNOWN : DATE
UWI . NO 15/9-F-12 : UNIQUE WELL ID
API .              : API NUMBER
~Curve Information -----------------------------------------
DEPT     .ft           : 
CARB_FLAG.UNKNOWN      : 
COAL_FLAG.UNKNOWN      : 
DT       .us/ft        : 
GR       .API          : 
NPHI     .v/v_decimal  : 
RD       .UNKNOWN      : 
RHOB     .g/cm3        : 
ROP5_RM  .UNKNOWN      : 
RS       .UNKNOWN      : 
RT       .ohm.m        : 
SAND_FLAG.UNKNOWN      : 
BVW      .v/v_decimal  : 
KLOGH    .mD           : 
PHIF     .v/v_decimal  : 
SW       .v/v_decimal  : 
VSH      .v/v_decimal  : 
~Params ----------------------------------------------------
~Other -----------------------------------------------------
~ASCII -----------------------------------------------------
# ...
 3486.37760    0.00000    0.00000 -999.25000   82.43363    0.24328    0.56186    2.27753   27.86714    0.73692    2.09886    0.50656    0.10299    6.57035    0.23927    0.43068    0.49911
 3486.87760    0.00000    0.00000 -999.25000   84.59207    0.24369    0.55265    2.29512   27.95576    0.59672    1.43992    0.00000    0.12375    4.29543    0.23369    0.52962    0.52788
 3487.37760    0.00000    0.00000 -999.25000   83.40960    0.25116    0.58268    2.30009   27.94607    0.52990    0.99575    0.00000    0.14834    5.04744    0.23499    0.63131    0.51210
 3487.87760    0.00000    0.00000 -999.25000   88.73835    0.23561    0.60515    2.33020   14.05654    0.51246    0.71635    0.00000    0.17449    1.66321    0.21892    0.79767    0.58322
 3488.37760    0.00000    0.00000 -999.25000   94.45868    0.24532    0.61755    2.34755    9.52494    0.54022    0.64494    0.00000    0.18180    0.48129    0.19449    0.94133    0.65944
 3488.87760    0.00000    0.00000 -999.25000   88.37213    0.24156    0.58226    2.35000    9.52000    0.55000    0.58718    0.00000    0.18030    0.35825    0.18030    1.00000    0.57832
 3489.37760    0.00000    0.00000 -999.25000   85.90757    0.24689    0.54743    2.34241   16.45273    0.51225    0.51710    0.00000    0.18450    0.52941    0.18450    1.00000    0.54540
 3489.87760    0.00000    0.00000 -999.25000   78.73828    0.25550    0.56268    2.30222   25.66292    0.44712    0.44712    1.00000    0.22009    8.34691    0.23606    0.93226    0.44982
 3490.37760    0.00000    0.00000 -999.25000   74.47913    0.24672    0.56248    2.26736   27.86714    0.41489    0.41489    1.00000    0.22828   16.46218    0.24396    0.93581    0.39303
 3490.87760    0.00000    0.00000 -999.25000   74.66694    0.26593    0.49962    2.25246   27.90285    0.40245    0.38737    1.00000    0.23624   26.75331    0.25657    0.92062    0.39551
 3491.37760    0.00000    0.00000 -999.25000   76.63674    0.25632    0.44221    2.25754   27.97286    0.40000    0.39514    1.00000    0.23386   17.97494    0.25105    0.93168    0.42185
 3491.87760    0.00000    0.00000 -999.25000   80.65636    0.24439    0.43000    2.27510   27.93713    0.43021    0.42266    1.00000    0.22620    8.16365    0.24049    0.94055    0.47540
 3492.37760    0.00000    0.00000 -999.25000   79.47668    0.24315    0.42242    2.31023   27.97288    0.47773    0.45266    1.00000    0.21860    5.58315    0.22852    0.95683    0.45969
 3492.87760    0.00000    0.00000 -999.25000   80.79135    0.23602    0.41988    2.30485   27.93728    0.48991    0.47485    1.00000    0.21356    4.73339    0.22737    0.93890    0.47721
 3493.37760    0.00000    0.00000 -999.25000   78.50448    0.24714    0.38224    2.26224   27.92000    0.45981    0.41963    1.00000    0.22711   12.47313    0.24586    0.92373    0.44670
 3493.87760    0.00000    0.00000 -999.25000   75.75016    0.25644    0.37000    2.25000   27.86716    0.46511    0.39248    1.00000    0.23464   21.49356    0.25356    0.92539    0.41002
 3494.37760    0.00000    0.00000 -999.25000   74.84522    0.24527    0.39268    2.27268   27.90282    0.45488    0.37488    1.00000    0.23998   14.48811    0.24167    0.99293    0.39792
 3494.87760    0.00000    0.00000 -999.25000   75.29126    0.25233    0.47554    2.28000   27.97283    0.42734    0.40777    1.00000    0.23020   14.15159    0.24208    0.95099    0.40390
 3495.37760    0.00000    0.00000 -999.25000   78.15854    0.24493    0.47735    2.28000   27.93712    0.45019    0.49553    1.00000    0.20919    9.67638    0.23911    0.87477    0.44210
 3495.87760    0.00000    0.00000 -999.25000   80.83491    0.24035    0.50022    2.29506   27.97287    0.51287    0.57287    1.00000    0.19463    5.75134    0.23236    0.83793    0.47783
 3496.37760    0.00000    0.00000 -999.25000   83.41656    0.24262    0.49495    2.34517   27.93735    0.59028    0.62754    0.00000    0.18502    2.27930    0.21269    0.87250    0.51222
 3496.87760    0.00000    0.00000 -999.25000   84.85537    0.24671    0.48243    2.36757   27.92000    0.64017    0.61734    0.00000    0.17074    0.33659    0.17074    1.00000    0.53144
 3497.37760    0.00000    0.00000 -999.25000   88.15348    0.24222    0.54798    2.35490   27.86712    0.61980    0.58732    0.00000    0.17762    0.32733    0.17762    1.00000    0.57542
 3497.87760    0.00000    0.00000 -999.25000   91.73031    0.23805    0.60022    2.34245   27.95569    0.61000    0.56489    0.00000    0.19595    1.09043    0.21587    0.90739    0.62304
 3498.37760    0.00000    0.00000 -999.25000   91.67888    0.24237    0.61000    2.34000   27.99000    0.59488    0.55248    0.00000    0.19812    1.21207    0.21839    0.90689    0.62238
 3498.87760    0.00000    0.00000 -999.25000   91.05771    0.23263    0.65531    2.33246   27.94469    0.59754    0.61045    0.00000    0.18860    1.21158    0.21699    0.86910    0.61407
 3499.37760    0.00000    0.00000 -999.25000   88.21619    0.24665    0.68515    2.32243   27.93000    0.61515    0.63000    0.00000    0.18570    2.25959    0.22590    0.82209    0.57621
 3499.87760    0.00000    0.00000 -999.25000   81.81566    0.23630    0.78050    2.31997   27.87017    0.58972    0.66740    1.00000    0.18049    3.55122    0.22255    0.81079    0.49092
 3500.37760    0.00000    0.00000 -999.25000   74.14695    0.23837    0.87798    2.31243   27.95574    0.53467    0.61959    1.00000    0.18722    8.29949    0.22589    0.82893    0.38862
 3500.87760    0.00000    0.00000 -999.25000   72.02102    0.24228    0.87733    2.32509   27.99000    0.60307    0.82656    1.00000    0.16260    9.00506    0.22325    0.72810    0.36030
 3501.37760    0.00000    0.00000 -999.25000   73.86821    0.23825    0.82469    2.33000   27.93713    0.65266    0.99062    1.00000    0.14853    6.67591    0.22006    0.67504    0.38486
 3501.87760    0.00000    0.00000 -999.25000   74.95830    0.23778    0.84775    2.33000   27.92752    0.71287    1.09550    1.00000    0.14132    5.98901    0.21984    0.64296    0.39942
 3502.37760    0.00000    0.00000 -999.25000   78.16860    0.23522    0.82979    2.36021   27.86958    0.85084    1.09733    1.00000    0.14114    2.00830    0.19198    0.74335    0.44223
 3502.87760    0.00000    0.00000 -999.25000   78.26133    0.22554    0.82000    2.38514   27.90289    0.89000    1.03711    1.00000    0.14497    0.42062    0.16111    0.89988    0.44347
 3503.37760    0.00000    0.00000 -999.25000   77.56221    0.21785    0.91808    2.37492   28.01880    0.79207    0.89273    1.00000    0.15629    1.90041    0.19717    0.79239    0.43421
 3503.87760    0.00000    0.00000 -999.25000   77.02976    0.22344    1.01795    2.34736   28.38986    0.75243    1.14455    1.00000    0.13837    3.14453    0.20846    0.66415    0.42709
 3504.37760    0.00000    0.00000 -999.25000   79.48277    0.22856    1.10043    2.30984   28.56043    0.75757    0.93034    1.00000    0.15344    4.44150    0.22276    0.68853    0.45979
 3504.87760    0.00000    0.00000 -999.25000   82.66109    0.22472    1.53534    2.36794   28.40629    0.96390    1.10183    0.11549    0.14094    1.47040    0.20222    0.69692    0.50214
 3505.37760    0.00000 -999.25000 -999.25000   80.32362 -999.25000    1.76217    2.43543   27.92014    1.57042    1.50238    1.00000    0.12160 -999.25000 -999.25000    0.89840 -999.25000
 3505.87760    0.00000 -999.25000 -999.25000   79.75557 -999.25000    2.60559    2.54063   27.62144    4.29257    3.20857    1.00000 -999.25000 -999.25000 -999.25000 -999.25000 -999.25000
 3506.37760    0.00000 -999.25000 -999.25000   79.34115 -999.25000 -999.25000    2.57000   26.95830 -999.25000 -999.25000 -999.25000 -999.25000 -999.25000 -999.25000 -999.25000 -999.25000
 3506.87760    0.00000 -999.25000 -999.25000   78.81551 -999.25000 -999.25000    2.60016   25.12679 -999.25000 -999.25000 -999.25000 -999.25000 -999.25000 -999.25000 -999.25000 -999.25000
 3507.37760    0.00000 -999.25000 -999.25000   70.70490 -999.25000 -999.25000    2.57221   19.75914 -999.25000 -999.25000 -999.25000 -999.25000 -999.25000 -999.25000 -999.25000 -999.25000
