~Version ---------------------------------------------------
VERS.   2.0 : CWLS log ASCII Standard -VERSION 2.0
WRAP.    NO : One line per depth step
DLM . SPACE : Column Data Section Delimiter
~Well ------------------------------------------------------
STRT.ft          145.90000 : START DEPTH
STOP.ft         3681.90000 : STOP DEPTH
STEP.ft            0.50000 : STEP
NULL.              -999.25 : NULL VALUE
COMP. Statoil Petroleum AS : COMPANY
WELL.           15/9-F-1 A : WELL
FLD .                VOLVE : FIELD
LOC .      Maersk Inspirer : LOCATION
PROV.                      : PROVINCE
CNTY.               Unused : COUNTY
STAT.                      : STATE
CTRY.                      : COUNTRY
SRVC.                      : SERVICE COMPANY
DATE.                      : DATE
UWI .                      : UNIQUE WELL ID
API .                      : API NUMBER
~Curve Information -----------------------------------------
DEPT     .ft        : 
ABDCQF01 .g/cm3     : 
ABDCQF02 .g/cm3     : 
ABDCQF03 .g/cm3     : 
ABDCQF04 .g/cm3     : 
BS       .inches    : 
CALI     .inches    : 
DRHO     .g/cm3     : 
DT       .us/ft     : 
DTS      .us/ft     : 
GR       .API       : 
NPHI     .v/v       : 
PEF      .b/elec    : 
RACEHM   .UNKNOWN   : 
RACELM   .UNKNOWN   : 
RHOB     .g/cm3     : 
ROP      .m/hr      : 
RPCEHM   .UNKNOWN   : 
RPCELM   .UNKNOWN   : 
RT       .ohm.m     : 
BVW      .V/V       : 
COAL_FLAG.unitless  : 
KLOGH    .mD        : 
PHIF     .V/V       : 
SAND_FLAG.unitless  : 
SW       .V/V       : 
VCARB    .V/V       : 
VSH      .V/V       : 
~Params ----------------------------------------------------
~Other -----------------------------------------------------
PETROPHYSICAL INTERPRETATION: INPUT

# --- LOG MNEMONICS AND UNITS ---
#Depth          ABDCQF01        ABDCQF02        ABDCQF03        ABDCQF04        BS              CALI            DRHO            DT              DTS             GR              NPHI            PEF             RACEHM          RACELM          RHOB            ROP             RPCEHM          RPCELM          RT
#M              g/cm3           g/cm3           g/cm3           g/cm3           inches          inches          g/cm3           us/ft           us/ft           API             v/v             b/elec          UNKNOWN         UNKNOWN         g/cm3           m/hr            UNKNOWN         UNKNOWN         ohm.m
~ASCII -----------------------------------------------------
# ...
 3590.90000    2.50690    2.45330    2.48060    2.47320    8.50000    8.67190    0.08240   76.37800  135.56010   48.44670    0.16580    5.67520    1.11230    1.02710    2.47310   28.57110    1.11820    1.09730    1.11820    0.11300    0.00000    0.15030    0.11300    1.00000    1.00000    0.00000    0.31310
 3591.40000    2.42950    2.45680    2.47920    2.44840    8.50000    8.70300    0.05700   74.43830  132.95990   49.18960    0.16040    5.67040    1.00680    1.01030    2.46020 -999.25000    1.03040    1.02660    1.03040    0.12010    0.00000    0.19190    0.12010    1.00000    1.00000    0.00000    0.31900
 3591.90000    2.44110    2.43630    2.44810    2.44100    8.50000    8.64840    0.06220   72.82820  128.33130   46.73050    0.17730    5.55360    0.92430    1.00920    2.44010 -999.25000    0.77200    0.87740    0.77200    0.13110    0.00000    0.34100    0.13110    1.00000    1.00000    0.00000    0.29940
 3592.40000    2.39080    2.40510    2.41140    2.41180    8.50000    8.67200    0.05340   73.33770  128.13840   45.59080    0.16540    5.58980    0.98240    1.02690    2.40690 -999.25000    1.00100    0.98590    1.00100    0.14640    0.00000    0.75100    0.14920    1.00000    0.98080    0.00000    0.29040
 3592.90000    2.46720    2.45550    2.45420    2.45330    8.50000    8.67190    0.05780   75.29040  132.06200   40.39980    0.17070    5.89660    0.91480    1.02660    2.45380 -999.25000    0.82710    0.89120    0.82710    0.12360    0.00000    0.35730    0.12360    1.00000    1.00000    0.00510    0.24920
 3593.40000    2.44910    2.43150    2.42500    2.44480    8.50000    8.67180    0.06570   75.40500  131.60060   36.12390    0.15360    5.62930    1.03630    1.05110    2.43330 -999.25000    1.12150    0.99870    1.12150    0.13480    0.00000    0.70780    0.13480    1.00000    1.00000    0.00200    0.21520
 3593.90000    2.44080    2.46800    2.49680    2.46890    8.50000    8.62500    0.05210   74.53970  124.91420   35.27800    0.14480    5.86390    1.01790    1.10600    2.47490 -999.25000    1.11470    1.04140    1.11470    0.11210    0.00000    0.29880    0.11210    1.00000    1.00000    0.08590    0.20860
 3594.40000    2.47160    2.49140    2.50980    2.49870    8.50000    8.62500    0.06340   76.42650  126.54210   44.83290    0.16600    5.96030    1.06070    1.21230    2.49280 -999.25000    0.86210    1.00810    0.86210    0.10230    0.00000    0.11950    0.10230    1.00000    1.00000    0.03810    0.28420
 3594.90000    2.43170    2.40510    2.44270    2.44440    8.50000    8.62510    0.06170   80.16930  136.15730   63.87400    0.18020    5.79280    0.99590    1.20600    2.42640 -999.25000    1.52300    1.25920    1.52300    0.11890    0.00000    0.17960    0.13860    1.00000    0.85820    0.00000    0.43570
 3595.40000    2.47200    2.44520    2.46430    2.48270    8.50000    8.62500    0.06350   81.13370  136.32460   31.36670    0.12850    5.72500    1.29150    1.28010    2.45370 -999.25000    0.94300    1.09390    0.94300    0.12370    0.00000    0.58790    0.12370    1.00000    1.00000    0.08070    0.17750
 3595.90000    2.47560    2.50440    2.52770    2.49610    8.50000    8.58600    0.07310   81.01690  135.59800   43.32320    0.17670    5.84420    0.96910    1.21940    2.49750 -999.25000    1.17640    1.13060    1.17640    0.09970    0.00000    0.11700    0.09970    0.00000    1.00000    0.05830    0.27230
 3596.40000    2.41540    2.41170    2.40360    2.37840    8.50000    8.67200    0.06400   80.81420  136.08850   56.83190    0.17400    5.69300    0.93510    1.13850    2.40200 -999.25000    0.80160    0.92750    0.80160    0.15190    0.00000    0.45120    0.15190    1.00000    1.00000    0.00000    0.37960
 3596.90000    2.39720    2.41010    2.41710    2.41460    8.50000    8.64850    0.06170   80.95200  137.07460   53.34280    0.19050    5.56760    0.88990    1.07930    2.41100 -999.25000    0.74940    0.86210    0.74940    0.14700    0.00000    0.44850    0.14700    1.00000    1.00000    0.00000    0.35200
 3597.40000    2.38460    2.38420    2.38020    2.38070    8.50000    8.62510    0.05840   80.90980  137.23110   51.46190    0.19130    5.56540    0.80460    1.03220    2.37900 -999.25000    0.59110    0.76030    0.59110    0.16450    0.00000    1.00250    0.16450    1.00000    1.00000    0.00000    0.33700
 3597.90000    2.37970    2.38770    2.38610    2.37920    8.50000    8.58600    0.05000   78.47340  131.41310   59.03030    0.17510    5.36030    0.89480    1.05490    2.38270 -999.25000    0.64180    0.79760    0.64180    0.16250    0.00000    0.61040    0.16250    1.00000    1.00000    0.00000    0.39710
 3598.40000    2.39140    2.41690    2.43220    2.42690    8.50000    8.67180    0.04800   74.84430  124.91900   42.79170    0.14720    5.61950    1.05010    1.14220    2.42000 -999.25000    0.75120    0.92280    0.75120    0.14210    0.00000    0.65660    0.14210    1.00000    1.00000    0.00000    0.26830
 3598.90000    2.45790    2.47700    2.50920    2.46440    8.50000    8.64860    0.05640   72.04970  119.99190   41.94520    0.12280    5.72720    1.25970    1.24390    2.48400   12.91250    1.29470    1.29480    1.29470    0.10710    0.00000    0.16950    0.10710    1.00000    1.00000    0.04560    0.26150
 3599.40000    2.54540    2.57730    2.59210    2.56560    8.50000    8.70290    0.05700   70.33280  117.39600   41.88270    0.12220    6.53390    1.58100    1.38430    2.57550   22.79220    2.00040    1.69480    2.00040    0.05710    0.00000    0.02290    0.05710    0.00000    1.00000    0.22030    0.26100
 3599.90000    2.51430    2.50030    2.50120    2.51340    8.50000    8.57810    0.05640   70.77110  117.80510   45.48440    0.13650    5.79130    1.67950    1.47790    2.50030   29.84340    2.18270    1.85860    2.18270    0.09820    0.00000    0.09770    0.09820    0.00000    1.00000    0.04580    0.28950
 3600.40000    2.46980    2.46190    2.44250    2.46370    8.50000    8.57820    0.07530   74.61930  123.25870   39.97050    0.19620    5.29080    1.48950    1.44810    2.45610   30.25740    1.53660    1.55640    1.53660    0.11830    0.00000    0.34700    0.12230    1.00000    0.96740    0.01250    0.24590
 3600.90000    2.37140    2.40890    2.40760    2.39730    8.50000    8.67200    0.04400   79.30950  134.01750   40.41480    0.17590    5.49810    1.16400    1.31140    2.39610   28.85680    1.09430    1.19600    1.09430    0.14000    0.00000    1.26560    0.15520    1.00000    0.90200    0.00000    0.24930
 3601.40000    2.42960    2.43120    2.39360    2.39950    8.50000    8.67180    0.06640   80.57850  140.65950   42.89090    0.17340    5.53110    1.16170    1.31370    2.40690   28.53910    0.76000    1.01670    0.76000    0.14920    0.00000    0.87090    0.14920    1.00000    1.00000    0.00000    0.26890
 3601.90000    2.40210    2.39710    2.40720    2.40240    8.50000    8.64850    0.05730   79.98700  142.44790   63.23610    0.17350    5.38810    0.96420    1.21150    2.40080   28.36380    1.01200    1.09460    1.01200    0.14550    0.00000    0.32600    0.15260    1.00000    0.95350    0.00000    0.43050
 3602.40000    2.43360    2.40740    2.41500    2.42070    8.50000    8.67200    0.06500   79.81180  141.96100   42.48850    0.16680    5.55550    1.02510    1.24930    2.41560   28.52880    0.80840    0.98330    0.80840    0.14450    0.00000    0.73550    0.14450    1.00000    1.00000    0.00000    0.26580
 3602.90000    2.42580    2.44210    2.47050    2.43830    8.50000    8.74990    0.06270   76.05000  136.09540   41.26670    0.11350    5.94630    1.00760    1.25410    2.44420   28.58000    0.80620    0.97470    0.80620    0.12890    0.00000    0.42060    0.12890    1.00000    1.00000    0.00000    0.25600
 3603.40000    2.46290    2.49650    2.50470    2.47120    8.50000    8.67190    0.06770   69.10040  125.48830   46.95910    0.10880    5.94330    1.09780    1.27690    2.48200   28.59180    0.84480    1.01730    0.84480    0.10820    0.00000    0.13450    0.10820    1.00000    1.00000    0.00420    0.30130
