~Version ---------------------------------------------------
VERS.   2.0 : CWLS log ASCII Standard -VERSION 2.0
WRAP.    NO : One line per depth step
DLM . SPACE : Column Data Section Delimiter
~Well ------------------------------------------------------
STRT.ft       145.90000 : START DEPTH
STOP.ft      3464.90000 : STOP DEPTH
STEP.ft         0.50000 : STEP
NULL.           -999.25 : NULL VALUE
COMP. Statoil Petroleum : COMPANY
WELL.        15/9-F-1 B : WELL
FLD .             VOLVE : FIELD
LOC .   Maersk Inspirer : LOCATION
PROV.                   : PROVINCE
CNTY.                   : COUNTY
STAT.                   : STATE
CTRY.                   : COUNTRY
SRVC.                   : SERVICE COMPANY
DATE.                   : DATE
UWI .                   : UNIQUE WELL ID
API .                   : API NUMBER
~Curve Information -----------------------------------------
DEPT     .ft        : 
ABDCQF01 .g/cm3     : 
ABDCQF02 .g/cm3     : 
ABDCQF03 .g/cm3     : 
ABDCQF04 .g/cm3     : 
BS       .inches    : 
CALI     .inches    : 
DRHO     .g/cm3     : 
DT       .us/ft     : 
DTS      .us/ft     : 
GR       .API       : 
NBGRCFM  .API       : 
NPHI     .v/v       : 
PEF      .b/elec    : 
RACEHM   .ohm.m     : 
RACELM   .ohm.m     : 
RD       .ohm.m     : 
RHOB     .g/cm3     : 
RM       .ohm.m     : 
ROP      .m/hr      : 
RPCEHM   .ohm.m     : 
RPCELM   .ohm.m     : 
RT       .ohm.m     : 
BVW      .V/V       : 
CARB_FLAG.V/V       : 
COAL_FLAG.UNITLESS  : 
KLOGH    .mD        : 
PHIF     .V/V       : 
SAND_FLAG.UNITLESS  : 
SW       .V/V       : 
VCARB    .V/V       : 
VSH      .V/V       : 
~Params ----------------------------------------------------
~Other -----------------------------------------------------
PETROPHYSICAL INTERPRETATION: INPUT

# --- LOG MNEMONICS AND UNITS ---
#Depth          ABDCQF01        ABDCQF02        ABDCQF03        ABDCQF04        BS              CALI            DRHO            DT              DTS             GR              NBGRCFM         NPHI            PEF             RACEHM          RACELM          RD              RHOB            RM              ROP             RPCEHM          RPCELM          RT
#M              g/cm3           g/cm3           g/cm3           g/cm3           inches          inches          g/cm3           us/ft           us/ft           API             API             v/v             b/elec          ohm.m           ohm.m           ohm.m           g/cm3           ohm.m           m/hr            ohm.m           ohm.m           ohm.m
~ASCII -----------------------------------------------------
# ...
 3124.40000    2.57260    2.56440    2.54530    2.56820    8.50000    8.66370    0.03850   78.01290  161.74960   35.59960 -999.25000    0.11830    7.41920    2.42310    2.21590    2.41430    2.56510    2.54600   14.86600    2.54620    2.41440    2.54620 -999.25000 -999.25000 -999.25000 -999.25000 -999.25000 -999.25000 -999.25000 -999.25000 -999.25000
 3124.90000    2.59960    2.58670    2.58690    2.59290    8.50000    8.63810    0.04120   73.58650  150.21940   22.63730 -999.25000    0.10260    7.00250    2.51680    2.20520    2.78790    2.59290    3.42390   14.39380    3.42390    2.78790    3.42390 -999.25000 -999.25000 -999.25000 -999.25000 -999.25000 -999.25000 -999.25000 -999.25000 -999.25000
 3125.40000    2.59470    2.58690    2.57780    2.59320    8.50000    8.57910    0.04410   77.39970  146.61190   31.60610 -999.25000    0.15530    6.57570    2.24940    2.12650    2.53760    2.58670    2.99400   13.59680    2.99370    2.53760    2.99370 -999.25000 -999.25000 -999.25000 -999.25000 -999.25000 -999.25000 -999.25000 -999.25000 -999.25000
 3125.90000    2.55110    2.54420    2.53760    2.54040    8.50000    8.66350    0.05460   84.98570  162.03270   52.89280 -999.25000    0.18420    6.84270    1.96180    2.02020    1.83140    2.54220    1.65090   13.60430    1.65090    1.83140    1.65090 -999.25000 -999.25000 -999.25000 -999.25000 -999.25000 -999.25000 -999.25000 -999.25000 -999.25000
 3126.40000    2.54920    2.54840    2.53870    2.54970    8.50000    8.66350    0.05600   86.00070  165.81470   46.81510 -999.25000    0.16980    7.30690    1.92130    1.92740    1.78540    2.54520    1.70210   13.98870    1.70210    1.78540    1.70210 -999.25000 -999.25000 -999.25000 -999.25000 -999.25000 -999.25000 -999.25000 -999.25000 -999.25000
 3126.90000    2.55430    2.55210    2.54180    2.55530    8.50000    8.63850    0.04500   83.36440  162.60720   46.28660 -999.25000    0.15040    6.59150    1.94990    1.88880    1.83770    2.54720    1.80220   14.63840    1.80230    1.83780    1.80230 -999.25000 -999.25000 -999.25000 -999.25000 -999.25000 -999.25000 -999.25000 -999.25000 -999.25000
 3127.40000    2.57470    2.56510    2.56230    2.55830    8.50000    8.59610    0.04880   81.01770  150.72880   39.37880 -999.25000    0.14320    6.73720    2.05440    1.91180    1.96750    2.56380    2.00900   14.98360    2.00910    1.96750    2.00910 -999.25000 -999.25000 -999.25000 -999.25000 -999.25000 -999.25000 -999.25000 -999.25000 -999.25000
 3127.90000    2.56270    2.55370    2.56060    2.55260    8.50000    8.66370    0.05290   82.11260  150.08500   44.19600 -999.25000    0.16240    7.12590    2.03340    1.93680    1.99070    2.55690    2.01320   14.97850    2.01310    1.99060    2.01310 -999.25000 -999.25000 -999.25000 -999.25000 -999.25000 -999.25000 -999.25000 -999.25000 -999.25000
 3128.40000    2.54870    2.52630    2.54930    2.54800    8.50000    8.61270    0.03830   82.62780  155.51420   42.15540 -999.25000    0.14520    6.49620    2.04200    1.95370    1.99660    2.54290    1.97920   14.97670    1.97940    1.99660    1.97940 -999.25000 -999.25000 -999.25000 -999.25000 -999.25000 -999.25000 -999.25000 -999.25000 -999.25000
 3128.90000    2.56650    2.56480    2.54420    2.56160    8.50000    8.66380    0.04920   82.03030  156.66690   42.72780 -999.25000    0.15490    6.80540    2.09870    1.95200    1.92230    2.55800    1.84880   14.97640    1.84880    1.92230    1.84880 -999.25000 -999.25000 -999.25000 -999.25000 -999.25000 -999.25000 -999.25000 -999.25000 -999.25000
 3129.40000    2.56300    2.55300    2.53800    2.56700    8.50000    8.57910    0.04750   82.72170  155.30300   42.86930 -999.25000    0.15280    6.46760    1.99520    1.92030    1.93830    2.55330    1.94960   14.92090    1.94960    1.93820    1.94960 -999.25000 -999.25000 -999.25000 -999.25000 -999.25000 -999.25000 -999.25000 -999.25000 -999.25000
 3129.90000    2.53690    2.53320    2.54000    2.53940    8.50000    8.61320    0.04860   83.71990  161.15470   42.20210 -999.25000    0.15550    6.77030    1.96280    1.89410    1.87830    2.53600    1.85770   14.96510    1.85780    1.87830    1.85780 -999.25000 -999.25000 -999.25000 -999.25000 -999.25000 -999.25000 -999.25000 -999.25000 -999.25000
 3130.40000    2.54360    2.53430    2.54000    2.56360    8.50000    8.66370    0.05450   84.69120  163.29610   47.49150 -999.25000    0.17010    6.98830    1.90040    1.88130    1.83890    2.54480    1.79810   14.97890    1.79800    1.83880    1.79800 -999.25000 -999.25000 -999.25000 -999.25000 -999.25000 -999.25000 -999.25000 -999.25000 -999.25000
 3130.90000    2.53520    2.52610    2.52410    2.54920    8.50000    8.66370    0.04390   82.40310  157.97410   41.69340 -999.25000    0.16210    6.74540    1.92010    1.91200    1.90800    2.53360    1.91630   14.95270    1.91640    1.90800    1.91640 -999.25000 -999.25000 -999.25000 -999.25000 -999.25000 -999.25000 -999.25000 -999.25000 -999.25000
 3131.40000    2.54010    2.54830    2.56120    2.53220    8.50000    8.66370    0.05270   81.30270  156.41360   39.49590 -999.25000    0.15050    7.32530    2.02910    1.94750    1.96910    2.54220    1.97670   14.91110    1.97670    1.96910    1.97670 -999.25000 -999.25000 -999.25000 -999.25000 -999.25000 -999.25000 -999.25000 -999.25000 -999.25000
 3131.90000    2.54740    2.54420    2.54960    2.56090    8.50000    8.66370    0.04810   82.84870  156.20260   40.44600 -999.25000    0.15800    7.32200    2.06900    1.97750    2.00540    2.54950    2.00200   14.89230    2.00200    2.00540    2.00200 -999.25000 -999.25000 -999.25000 -999.25000 -999.25000 -999.25000 -999.25000 -999.25000 -999.25000
 3132.40000    2.57000    2.54600    2.54980    2.57340    8.50000    8.62110    0.04250   82.89680  155.97450   40.83060 -999.25000    0.14550    6.57240    2.08670    2.01130    2.00510    2.56180    1.98480   14.88830    1.98480    2.00510    1.98480 -999.25000 -999.25000 -999.25000 -999.25000 -999.25000 -999.25000 -999.25000 -999.25000 -999.25000
 3132.90000    2.55940    2.55190    2.56760    2.56090    8.50000    8.57940    0.03580   82.65910  154.92250   39.90520 -999.25000    0.15630    6.13430    2.07890    1.99910    2.00430    2.55620    1.97720   14.90990    1.97730    2.00430    1.97730 -999.25000 -999.25000 -999.25000 -999.25000 -999.25000 -999.25000 -999.25000 -999.25000 -999.25000
 3133.40000    2.56580    2.56880    2.56380    2.54430    8.50000    8.66370    0.05350   82.85430  154.60300   41.74770 -999.25000    0.15430    7.11530    2.06570    1.98550    2.01320    2.55900    2.00600   14.96450    2.00600    2.01320    2.00600 -999.25000 -999.25000 -999.25000 -999.25000 -999.25000 -999.25000 -999.25000 -999.25000 -999.25000
 3133.90000    2.57060    2.56710    2.56880    2.55420    8.50000    8.66370    0.05160   81.73930  154.93000   39.40720 -999.25000    0.14940    6.81400    2.07560    1.97240    1.97970    2.56280    1.93270   14.97820    1.93270    1.97970    1.93270 -999.25000 -999.25000 -999.25000 -999.25000 -999.25000 -999.25000 -999.25000 -999.25000 -999.25000
 3134.40000    2.56480    2.52340    2.54090    2.54370    8.50000    8.57940    0.02950   83.02970  158.98030   38.77380 -999.25000    0.15070    6.07660    2.03560    1.90760    1.99190    2.54160    2.01580   14.98860    2.01580    1.99190    2.01580 -999.25000 -999.25000 -999.25000 -999.25000 -999.25000 -999.25000 -999.25000 -999.25000 -999.25000
 3134.90000    2.54680    2.55060    2.54900    2.54510    8.50000    8.61340    0.03990   85.29710  163.01850   44.69700 -999.25000    0.16500    6.24460    1.91840    1.78460    1.81470    2.54780    1.82230   14.98850    1.82240    1.81470    1.82240 -999.25000 -999.25000 -999.25000 -999.25000 -999.25000 -999.25000 -999.25000 -999.25000 -999.25000
 3135.40000    2.54710    2.51700    2.53830    2.55730    8.50000    8.61270    0.04000   88.99580  169.09980   42.94480 -999.25000    0.18430    6.42700    1.73730    1.67030    1.67130    2.54170    1.61130   14.98370    1.61120    1.67120    1.61120 -999.25000 -999.25000 -999.25000 -999.25000 -999.25000 -999.25000 -999.25000 -999.25000 -999.25000
