~Version ---------------------------------------------------
VERS.   2.0 : CWLS log ASCII Standard -VERSION 2.0
WRAP.    NO : One line per depth step
DLM . SPACE : Column Data Section Delimiter
~Well ------------------------------------------------------
STRT.ft       145.90000 : START DEPTH
STOP.ft      3464.90000 : STOP DEPTH
STEP.ft         0.50000 : STEP
NULL.           -999.25 : NULL VALUE
COMP. Statoil Petroleum : COMPANY
WELL.        15/9-F-1 B : WELL
FLD .             VOLVE : FIELD
LOC .   Maersk Inspirer : LOCATION
PROV.                   : PROVINCE
CNTY.                   : COUNTY
STAT.                   : STATE
CTRY.                   : COUNTRY
SRVC.                   : SERVICE COMPANY
DATE.                   : DATE
UWI .                   : UNIQUE WELL ID
API .                   : API NUMBER
~Curve Information -----------------------------------------
DEPT     .ft        : 
ABDCQF01 .g/cm3     : 
ABDCQF02 .g/cm3     : 
ABDCQF03 .g/cm3     : 
ABDCQF04 .g/cm3     : 
BS       .inches    : 
CALI     .inches    : 
DRHO     .g/cm3     : 
DT       .us/ft     : 
DTS      .us/ft     : 
GR       .API       : 
NBGRCFM  .API       : 
NPHI     .v/v       : 
PEF      .b/elec    : 
RACEHM   .ohm.m     : 
RACELM   .ohm.m     : 
RD       .ohm.m     : 
RHOB     .g/cm3     : 
RM       .ohm.m     : 
ROP      .m/hr      : 
RPCEHM   .ohm.m     : 
RPCELM   .ohm.m     : 
RT       .ohm.m     : 
BVW      .V/V       : 
CARB_FLAG.V/V       : 
COAL_FLAG.UNITLESS  : 
KLOGH    .mD        : 
PHIF     .V/V       : 
SAND_FLAG.UNITLESS  : 
SW       .V/V       : 
VCARB    .V/V       : 
VSH      .V/V       : 
~Params ----------------------------------------------------
~Other -----------------------------------------------------
PETROPHYSICAL INTERPRETATION: INPUT

# --- LOG MNEMONICS AND UNITS ---
#Depth          ABDCQF01        ABDCQF02        ABDCQF03        ABDCQF04        BS              CALI            DRHO            DT              DTS             GR              NBGRCFM         NPHI            PEF             RACEHM          RACELM          RD              RHOB            RM              ROP             RPCEHM          RPCELM          RT
#M              g/cm3           g/cm3           g/cm3           g/cm3           inches          inches          g/cm3           us/ft           us/ft           API             API             v/v             b/elec          ohm.m           ohm.m           ohm.m           g/cm3           ohm.m           m/hr            ohm.m           ohm.m           ohm.m
~ASCII -----------------------------------------------------
# ...
 3147.40000    2.47510    2.49220    2.46330    2.47300    8.50000    8.66370    0.04250   84.10750  152.17980   55.18280 -999.25000    0.18450    6.40300    1.68290    1.75140    1.65980    2.47320    1.59850   25.00990    1.59850    1.65980    1.59850 -999.25000 -999.25000 -999.25000 -999.25000 -999.25000 -999.25000 -999.25000 -999.25000 -999.25000
 3147.90000    2.50150    2.49170    2.50480    2.47920    8.50000    8.66370    0.04860   82.84500  150.68880   58.28680 -999.25000    0.17350    6.58970    1.71590    1.71610    1.69310    2.49200    1.65270   23.67190    1.65270    1.69310    1.65270 -999.25000 -999.25000 -999.25000 -999.25000 -999.25000 -999.25000 -999.25000 -999.25000 -999.25000
 3148.40000    2.52870    2.53050    2.54200    2.50990    8.50000    8.66400    0.06010   82.89830  149.74380   55.70660 -999.25000    0.17150    6.63710    1.78370    1.74610    1.83330    2.52240    1.89650   23.86970    1.89660    1.83330    1.89660 -999.25000 -999.25000 -999.25000 -999.25000 -999.25000 -999.25000 -999.25000 -999.25000 -999.25000
 3148.90000    2.50980    2.52840    2.49480    2.50560    8.50000    8.69760    0.05990   83.98870  150.11690   56.41260 -999.25000    0.18130    6.66150    1.82940    1.76540    1.82090    2.50750    1.81590   24.58410    1.81590    1.82090    1.81590 -999.25000 -999.25000 -999.25000 -999.25000 -999.25000 -999.25000 -999.25000 -999.25000 -999.25000
 3149.40000    2.50230    2.50000    2.49980    2.50170    8.50000    8.66370    0.05150   83.41600  149.51660   55.65230 -999.25000    0.16950    6.46550    1.80450    1.78000    1.79920    2.50020    1.76810   25.14330    1.76810    1.79920    1.76810 -999.25000 -999.25000 -999.25000 -999.25000 -999.25000 -999.25000 -999.25000 -999.25000 -999.25000
 3149.90000    2.49700    2.50310    2.51520    2.50470    8.50000    8.66400    0.05430   82.81490  149.27450   49.97910 -999.25000    0.17240    6.49870    1.80870    1.76720    1.82070    2.50380    1.83500   25.09580    1.83510    1.82070    1.83510 -999.25000 -999.25000 -999.25000 -999.25000 -999.25000 -999.25000 -999.25000 -999.25000 -999.25000
 3150.40000    2.47530    2.49120    2.46770    2.48430    8.50000    8.66370    0.04880   84.11240  151.53280   52.39040 -999.25000    0.18610    6.34010    1.74160    1.74320    1.74060    2.47600    1.70710   25.09580    1.70710    1.74060    1.70710 -999.25000 -999.25000 -999.25000 -999.25000 -999.25000 -999.25000 -999.25000 -999.25000 -999.25000
 3150.90000    2.49230    2.48370    2.49780    2.48540    8.50000    8.66370    0.04770   84.72620  154.15500   64.85680 -999.25000    0.17940    6.32610    1.73260    1.72840    1.68420    2.48820    1.60110   24.99900    1.60110    1.68420    1.60110 -999.25000 -999.25000 -999.25000 -999.25000 -999.25000 -999.25000 -999.25000 -999.25000 -999.25000
 3151.40000    2.49590    2.47810    2.48860    2.49380    8.50000    8.69760    0.05740   83.55000  152.44620   61.74440 -999.25000    0.17030    6.32970    1.74290    1.72670    1.69870    2.48480    1.64800   23.72390    1.64800    1.69860    1.64800 -999.25000 -999.25000 -999.25000 -999.25000 -999.25000 -999.25000 -999.25000 -999.25000 -999.25000
 3151.90000    2.49630    2.48730    2.49700    2.49060    8.50000    8.69730    0.05510   82.57590  149.96860   54.70110 -999.25000    0.16520    6.60760    1.71260    1.69710    1.72480    2.49120    1.73250   24.44390    1.73250    1.72480    1.73250 -999.25000 -999.25000 -999.25000 -999.25000 -999.25000 -999.25000 -999.25000 -999.25000 -999.25000
 3152.40000    2.48660    2.48400    2.46870    2.47860    8.50000    8.69760    0.05730   82.56880  149.44640   52.20860 -999.25000    0.18630    6.52220    1.69110    1.70280    1.70900    2.47520    1.68710   25.00690    1.68700    1.70890    1.68700 -999.25000 -999.25000 -999.25000 -999.25000 -999.25000 -999.25000 -999.25000 -999.25000 -999.25000
 3152.90000    2.48310    2.46720    2.48410    2.47140    8.50000    8.69760    0.04740   82.00430  148.91790   54.43270 -999.25000    0.16860    6.51150    1.68900    1.71140    1.64670    2.47530    1.52740   25.06560    1.52740    1.64670    1.52740 -999.25000 -999.25000 -999.25000 -999.25000 -999.25000 -999.25000 -999.25000 -999.25000 -999.25000
 3153.40000    2.50270    2.53010    2.51300    2.52020    8.50000    8.69760    0.05510   78.93290  144.81800   48.45020 -999.25000    0.16600    6.50210    1.73070    1.73030    1.88060    2.51570    2.05500   24.03520    2.05500    1.88060    2.05500 -999.25000 -999.25000 -999.25000 -999.25000 -999.25000 -999.25000 -999.25000 -999.25000 -999.25000
 3153.90000    2.48540    2.48940    2.50740    2.49900    8.50000    8.69760    0.05910   81.78580  147.39920   52.79580 -999.25000    0.17740    6.59610    1.76060    1.76620    1.76100    2.49500    1.74130   23.74410    1.74130    1.76100    1.74130 -999.25000 -999.25000 -999.25000 -999.25000 -999.25000 -999.25000 -999.25000 -999.25000 -999.25000
 3154.40000    2.46850    2.45500    2.46670    2.46720    8.50000    8.69760    0.04920   84.37070  151.48150   59.33680 -999.25000    0.18530    6.22250    1.78360    1.81430    1.75080    2.46190    1.65560   23.46660    1.65550    1.75080    1.65550 -999.25000 -999.25000 -999.25000 -999.25000 -999.25000 -999.25000 -999.25000 -999.25000 -999.25000
 3154.90000    2.45120    2.46840    2.46440    2.45490    8.50000    8.69760    0.04450   83.21280  149.42720   60.04770 -999.25000    0.16950    6.07580    1.88930    1.87750    1.84250    2.46090    1.76850   24.51490    1.76850    1.84260    1.76850 -999.25000 -999.25000 -999.25000 -999.25000 -999.25000 -999.25000 -999.25000 -999.25000 -999.25000
 3155.40000    2.47050    2.50760    2.50570    2.50000    8.50000    8.69730    0.04960   80.64390  144.26500   50.07980 -999.25000    0.16020    6.23080    2.09200    1.97460    2.13080    2.49840    2.26680   26.67190    2.26690    2.13090    2.26690 -999.25000 -999.25000 -999.25000 -999.25000 -999.25000 -999.25000 -999.25000 -999.25000 -999.25000
 3155.90000    2.48740    2.50030    2.49290    2.50280    8.50000    8.69760    0.06240   82.13480  147.63510   50.50930 -999.25000    0.17510    6.41360    2.14440    2.02770    2.18340    2.49280    2.29010   28.54410    2.29000    2.18340    2.29000 -999.25000 -999.25000 -999.25000 -999.25000 -999.25000 -999.25000 -999.25000 -999.25000 -999.25000
 3156.40000    2.46550    2.47410    2.47590    2.45370    8.50000    8.69760    0.04890   83.74800  149.14340   54.94090 -999.25000    0.17300    6.12170    2.04310    2.04380    2.03580    2.46720    2.02770   29.95700    2.02760    2.03580    2.02760 -999.25000 -999.25000 -999.25000 -999.25000 -999.25000 -999.25000 -999.25000 -999.25000 -999.25000
 3156.90000    2.48310    2.50540    2.52520    2.50310    8.50000    8.66370    0.04770   82.05770  148.07410   62.31650 -999.25000    0.15730    6.42530    1.98820    2.01800    1.92270    2.50590    1.78970   29.92450    1.78980    1.92270    1.78980 -999.25000 -999.25000 -999.25000 -999.25000 -999.25000 -999.25000 -999.25000 -999.25000 -999.25000
 3157.40000    2.53600    2.52200    2.49170    2.51140    8.50000    8.66370    0.06520   78.47520  148.48980   53.87570 -999.25000    0.16700    6.53150    1.96240    2.01470    1.97910    2.50760    1.94600   29.83010    1.94590    1.97910    1.94590 -999.25000 -999.25000 -999.25000 -999.25000 -999.25000 -999.25000 -999.25000 -999.25000 -999.25000
 3157.90000    2.52780    2.51930    2.53820    2.53870    8.50000    8.66370    0.05920   78.92700  147.96420   61.70410 -999.25000    0.14940    6.54360    2.01550    2.05200    2.05250    2.53310    2.03630   29.16760    2.03650    2.05260    2.03650 -999.25000 -999.25000 -999.25000 -999.25000 -999.25000 -999.25000 -999.25000 -999.25000 -999.25000
 3158.40000    2.51950    2.52880    2.53640    2.51990    8.50000    8.66370    0.05070   78.23090  145.70230   64.29080 -999.25000    0.15820    6.56460    2.23870    2.16480    2.17190    2.52520    2.11700   25.63530    2.11700    2.17190    2.11700 -999.25000 -999.25000 -999.25000 -999.25000 -999.25000 -999.25000 -999.25000 -999.25000 -999.25000
