~Version ---------------------------------------------------
VERS.   2.0 : CWLS log ASCII Standard -VERSION 2.0
WRAP.    NO : One line per depth step
DLM . SPACE : Column Data Section Delimiter
~Well ------------------------------------------------------
STRT.ft       145.90000 : START DEPTH
STOP.ft      4093.90000 : STOP DEPTH
STEP.ft         0.50000 : STEP
NULL.           -999.25 : NULL VALUE
COMP. Statoil Petroleum : COMPANY
WELL.        15/9-F-1 C : WELL
FLD .             VOLVE : FIELD
LOC .   Maersk Inspirer : LOCATION
PROV.                   : PROVINCE
CNTY.                   : COUNTY
STAT.                   : STATE
CTRY.                   : COUNTRY
SRVC.                   : SERVICE COMPANY
DATE.                   : DATE
UWI .                   : UNIQUE WELL ID
API .                   : API NUMBER
~Curve Information -----------------------------------------
DEPT        .ft        : 
ABDCQF01    .g/cm3     : 
ABDCQF02    .g/cm3     : 
ABDCQF03    .g/cm3     : 
ABDCQF04    .g/cm3     : 
BS          .inches    : 
CALI        .inches    : 
DRHO        .g/cm3     : 
GR          .API       : 
NBGRCFM     .API       : 
NPHI        .v/v       : 
PEF         .b/elec    : 
RACEHM      .ohm.m     : 
RACELM      .ohm.m     : 
RD          .ohm.m     : 
RHOB        .g/cm3     : 
RM          .ohm.m     : 
ROP         .m/hr      : 
RPCEHM      .ohm.m     : 
RPCELM      .ohm.m     : 
RT          .ohm.m     : 
BADDATA_FLAG.unitless  : 
BVW         .v/v       : 
COAL_FLAG   .unitless  : 
KLOGH       .mD        : 
PHIF        .v/v       : 
SAND_FLAG   .unitless  : 
SW          .v/v       : 
VCARB       .v/v       : 
VSH         .v/v       : 
~Params ----------------------------------------------------
~Other -----------------------------------------------------
PETROPHYSICAL INTERPRETATION: INPUT

# --- LOG MNEMONICS AND UNITS ---
#Depth          ABDCQF01        ABDCQF02        ABDCQF03        ABDCQF04        BS              CALI            DRHO            GR              NBGRCFM         NPHI            PEF             RACEHM          RACELM          RD              RHOB            RM              ROP             RPCEHM          RPCELM          RT
#M              g/cm3           g/cm3           g/cm3           g/cm3           inches          inches          g/cm3           API             API             v/v             b/elec          ohm.m           ohm.m           ohm.m           g/cm3           ohm.m           m/hr            ohm.m           ohm.m           ohm.m
~ASCII -----------------------------------------------------
# ...
 3933.40000    2.21510    2.21670    2.19430    2.19970    8.50000    8.55690    0.02930   21.35040   25.24870    0.18400    5.27600    7.44800    4.65160    8.68190    2.20320   12.81330   29.86250   12.81320    8.68190   12.81330    0.00000    0.04870    0.00000  564.10990    0.23680    1.00000    0.20580    0.00000    0.12700
 3933.90000    2.21030    2.23100    2.21640    2.21410    8.50000    8.55690    0.03540   21.92400   22.73070    0.18710    5.21560    7.98700    4.69510    9.13000    2.21530   13.80450   29.81060   13.80450    9.13000   13.80450    0.00000    0.04720    0.00000  481.51330    0.23390    1.00000    0.20170    0.00000    0.13200
 3934.40000    2.20550    2.20890    2.19130    2.21440    8.50000    8.55680    0.02890   22.98490   23.80460    0.18750    5.24080    8.64940    4.67140    9.57900    2.20390   14.55210   29.70100   14.55210    9.57890   14.55210    0.00000    0.04640    0.00000  427.01860    0.23790    1.00000    0.19520    0.00000    0.14150
 3934.90000    2.21830    2.21310    2.20230    2.21260    8.50000    8.52430    0.02800   23.25310   23.26050    0.19530    5.16170    9.00620    4.59250   10.10310    2.20920   15.38530   29.81630   15.38520   10.10310   15.38530    0.00000    0.04550    0.00000  416.20170    0.23930    1.00000    0.19010    0.00000    0.14390
 3935.40000    2.22250    2.20760    2.19970    2.22500    8.50000    8.52430    0.03180   20.97040   22.79760    0.18370    5.42570    9.68270    4.44940   10.50140    2.21050   17.52350   29.57160   17.52340   10.50140   17.52350    0.00000    0.04270    0.00000  576.12990    0.23420    1.00000    0.18260    0.00000    0.12360
 3935.90000    2.24040    2.20950    2.20070    2.19910    8.50000    8.55690    0.03160   20.19600   22.03230    0.18480    5.40450    9.26090    4.39980   10.24340    2.21170   16.69820   29.85610   16.69830   10.24340   16.69820    0.00000    0.04350    0.00000  664.96440    0.23420    1.00000    0.18590    0.00000    0.11680
 3936.40000    2.25940    2.21630    2.20530    2.21610    8.50000    8.55690    0.03310   21.24710   21.79830    0.18720    5.47830    9.13130    4.39390    9.98140    2.21800   15.26340   29.82210   15.26360    9.98150   15.26340    0.00000    0.04520    0.00000  536.04090    0.23300    1.00000    0.19390    0.00000    0.12610
 3936.90000    2.25500    2.22580    2.22070    2.24040    8.50000    8.55680    0.03690   21.45780   26.50910    0.18820    5.49640    9.33110    4.33970    9.71900    2.23080   15.20510   29.85250   15.20500    9.71900   15.20510    0.00000    0.04510    0.00000  479.25140    0.22900    1.00000    0.19690    0.00000    0.12790
 3937.40000    2.24650    2.22350    2.20420    2.24360    8.50000    8.52430    0.03600   22.12680   24.26960    0.19220    5.67900   10.25750    4.24110   10.77260    2.22530   19.02260   29.86160   19.02220   10.77260   19.02260    0.00000    0.04130    0.00000  451.99550    0.23250    1.00000    0.17780    0.00000    0.13390
 3937.90000    2.26700    2.22060    2.21200    2.22370    8.50000    8.52430    0.03260   21.95430   21.84860    0.18900    5.65810   12.47590    4.25640   11.76920    2.22370   21.76440   29.93620   21.76390   11.76920   21.76440    0.00000    0.03910    0.00000  460.63960    0.23180    1.00000    0.16870    0.00000    0.13230
 3938.40000    2.31770    2.22340    2.20970    2.24380    8.50000    8.52430    0.03820   21.79450   23.73620    0.17000    5.70140   17.06940    4.19540   13.46920    2.24020   28.82530   29.90380   28.82490   13.46890   28.82530    0.00000    0.03440    0.00000  371.17020    0.21850    1.00000    0.15720    0.00000    0.13090
 3938.90000    2.43230    2.24510    2.21760    2.24700    8.50000    8.52430    0.04240   22.53920   20.77080    0.17330    5.73800   14.66650    4.19300   13.46700    2.26830   28.36000   29.89570   28.35980   13.46720   28.36000    0.00000    0.03430    0.00000  277.83940    0.21020    1.00000    0.16320    0.00000    0.13750
 3939.40000    2.39410    2.22840    2.21240    2.24420    8.50000    8.55690    0.03970   19.28890   19.77840    0.16540    5.82210   13.46010    4.10950   12.74700    2.25700   29.18480   29.82400   29.18520   12.74690   29.18480    0.00000    0.03380    0.00000  511.16860    0.21090    1.00000    0.16000    0.00000    0.10870
 3939.90000    2.31700    2.22590    2.22250    2.22140    8.50000    8.52440    0.03550   17.52340   18.71260    0.17250    5.74400   11.44550    4.16070   12.06190    2.23580   25.67420   29.83350   25.67410   12.06200   25.67420    0.00000    0.03590    0.00000  851.44710    0.22100    1.00000    0.16230    0.00000    0.09310
 3940.40000    2.33090    2.21510    2.21140    2.23010    8.50000    8.55690    0.03530   18.44430   20.31670    0.16910    5.61490   11.23830    4.18940   11.97870    2.23550   26.49630   29.84230   26.49630   11.97860   26.49630    0.00000    0.03540    0.00000  702.40680    0.21980    1.00000    0.16110    0.00000    0.10130
 3940.90000    2.27260    2.22690    2.21080    2.22380    8.50000    8.55690    0.03490   18.29640   18.57710    0.17980    5.81830   11.98920    4.30690   12.43020    2.22820   24.00070   29.86860   24.00110   12.43030   24.00070    0.00000    0.03710    0.00000  818.09810    0.22650    1.00000    0.16390    0.00000    0.09990
 3941.40000    2.26450    2.22670    2.21070    2.23000    8.50000    8.55690    0.03300   18.67730   21.34000    0.18830    5.78310   13.13870    4.50150   13.19680    2.22720   23.39990   29.91870   23.39960   13.19670   23.39990    0.00000    0.03770    0.00000  817.11660    0.23030    1.00000    0.16370    0.00000    0.10330
 3941.90000    2.29440    2.22980    2.21010    2.22860    8.50000    8.55690    0.03530   19.46250   19.86770    0.17960    5.97710   13.83270    4.61480   13.92960    2.23200   24.41730   29.86930   24.41780   13.92980   24.41730    0.00000    0.03690    0.00000  643.93670    0.22520    1.00000    0.16380    0.00000    0.11030
 3942.40000    2.27520    2.21760    2.21190    2.22980    8.50000    8.55690    0.03280   18.50120   23.17230    0.18180    5.82130   12.25630    4.75260   12.83890    2.22700   20.16100   29.88230   20.16110   12.83900   20.16100    0.00000    0.03990    0.00000  805.66350    0.22770    1.00000    0.17530    0.00000    0.10180
 3942.90000    2.26270    2.21620    2.21080    2.21120    8.50000    8.52430    0.03180   19.57130   21.03310    0.18880    5.81720    8.73730    4.76800   10.40240    2.21980   15.03530   29.89790   15.03570   10.40260   15.03530    0.00000    0.04530    0.00000  729.44710    0.23300    1.00000    0.19460    0.00000    0.11120
 3943.40000    2.23220    2.22530    2.22030    2.21790    8.50000    8.52430    0.03160   19.41160   22.19520    0.18440    5.73530    8.05710    4.85080    9.84820    2.22150   13.69380   29.82310   13.69390    9.84830   13.69380    0.00000    0.04700    0.00000  719.08590    0.23070    1.00000    0.20360    0.00000    0.10980
 3943.90000    2.24240    2.23630    2.22520    2.23290    8.50000    8.52430    0.03800   17.43250   23.16460    0.18170    5.88250    7.43950    4.88720    9.00560    2.23150   12.10640   29.83350   12.10660    9.00570   12.10640    0.00000    0.04900    0.00000  951.81770    0.22620    1.00000    0.21670    0.00000    0.09230
 3944.40000    2.20310    2.20900    2.22240    2.21220    8.50000    8.52430    0.03390   15.77880   20.95240    0.20120    5.95630    7.04820    4.98470    8.57940    2.21090   10.59410   29.75790   10.59420    8.57950   10.59410    0.00000    0.05240    0.00000 1695.07900    0.24100    1.00000    0.21750    0.00000    0.07770
 3944.90000    2.19840    2.21550    2.20740    2.22360    8.50000    8.55690    0.03220   20.79960   21.36300    0.18940    5.84600    6.79610    5.12390    8.16150    2.20950    9.66860   29.89600    9.66860    8.16150    9.66860    0.00000    0.05460    0.00000  624.11510    0.23680    1.00000    0.23060    0.00000    0.12210
 3945.40000    2.22570    2.22720    2.20380    2.20820    8.50000    8.55690    0.02690   20.02340   23.72420    0.19430    5.70080    6.60650    5.23320    8.17180    2.21100    9.59310   29.97550    9.59300    8.17180    9.59310    0.00000    0.05480    0.00000  739.25490    0.23820    1.00000    0.23000    0.00000    0.11520
