~Version ---------------------------------------------------
VERS.   2.0 : CWLS log ASCII Standard -VERSION 2.0
WRAP.    NO : One line per depth step
DLM . SPACE : Column Data Section Delimiter
~Well ------------------------------------------------------
STRT.ft  239.87760 : START DEPTH
STOP.ft 4186.87760 : STOP DEPTH
STEP.ft    0.50000 : STEP
NULL.      -999.25 : NULL VALUE
COMP. STATOILHYDRO : COMPANY
WELL.    15/9-F-12 : WELL
FLD .        VOLVE : FIELD
LOC .      UNKNOWN : LOCATION
PROV.              : PROVINCE
CNTY.      UNKNOWN : COUNTY
STAT.      UNKNOWN : STATE
CTRY.       Norway : COUNTRY
SRVC.      UNKNOWN : SERVICE COMPANY
DATE.      UNKNOWN : DATE
UWI . NO 15/9-F-12 : UNIQUE WELL ID
API .              : API NUMBER
~Curve Information -----------------------------------------
DEPT     .ft           : 
CARB_FLAG.UNKNOWN      : 
COAL_FLAG.UNKNOWN      : 
DT       .us/ft        : 
GR       .API          : 
NPHI     .v/v_decimal  : 
RD       .UNKNOWN      : 
RHOB     .g/cm3        : 
ROP5_RM  .UNKNOWN      : 
RS       .UNKNOWN      : 
RT       .ohm.m        : 
SAND_FLAG.UNKNOWN      : 
BVW      .v/v_decimal  : 
KLOGH    .mD           : 
PHIF     .v/v_decimal  : 
SW       .v/v_decimal  : 
VSH      .v/v_decimal  : 
~Params ----------------------------------------------------
~Other -----------------------------------------------------
~ASCII -----------------------------------------------------
# ...
 2755.37760 -999.25000 -999.25000   63.54377   22.17645    0.04633    8.95685    2.27287    2.35328    8.93290    8.70586 -999.25000 -999.25000 -999.25000 -999.25000 -999.25000 -999.25000
 2755.87760 -999.25000 -999.25000   60.05164   18.72512    0.03728    8.79900    2.43468    3.32050    9.55261   10.28826 -999.25000 -999.25000 -999.25000 -999.25000 -999.25000 -999.25000
 2756.37760 -999.25000 -999.25000   57.73706   20.56308    0.03510    8.22247    2.35843    4.16239    9.79928   10.18806 -999.25000 -999.25000 -999.25000 -999.25000 -999.25000 -999.25000
 2756.87760 -999.25000 -999.25000   60.42075   22.18445    0.04057    6.79370    2.39845    4.58125    8.50545    8.71632 -999.25000 -999.25000 -999.25000 -999.25000 -999.25000 -999.25000
 2757.37760 -999.25000 -999.25000   61.24836   20.38572    0.04879    4.71643    2.37485    4.41674    6.41658    6.62606 -999.25000 -999.25000 -999.25000 -999.25000 -999.25000 -999.25000
 2757.87760 -999.25000 -999.25000   69.64278   18.87043    0.09315    3.14089    2.25477    5.09001    3.65272    3.99903 -999.25000 -999.25000 -999.25000 -999.25000 -999.25000 -999.25000
 2758.37760 -999.25000 -999.25000   68.75660   15.68979    0.12206    2.37961    2.29816    6.55684    2.15928    2.23948 -999.25000 -999.25000 -999.25000 -999.25000 -999.25000 -999.25000
 2758.87760 -999.25000 -999.25000   70.50489   14.88740    0.13743    1.95286    2.27504    7.75195    1.98841    2.01664 -999.25000 -999.25000 -999.25000 -999.25000 -999.25000 -999.25000
 2759.37760 -999.25000 -999.25000   68.66205   14.79473    0.13973    1.76087    2.41801    9.40950    2.01735    1.85324 -999.25000 -999.25000 -999.25000 -999.25000 -999.25000 -999.25000
 2759.87760 -999.25000 -999.25000   67.98757   18.54748    0.14368    1.63567    2.28649    9.77179    1.88165    1.72238 -999.25000 -999.25000 -999.25000 -999.25000 -999.25000 -999.25000
 2760.37760 -999.25000 -999.25000   74.01905   16.72322    0.14644    1.54144    2.34349   10.50326    1.78525    1.63591 -999.25000 -999.25000 -999.25000 -999.25000 -999.25000 -999.25000
 2760.87760 -999.25000 -999.25000   68.49568   16.48727    0.14177    1.63974    2.28926    8.82019    1.70696    1.54356 -999.25000 -999.25000 -999.25000 -999.25000 -999.25000 -999.25000
 2761.37760 -999.25000 -999.25000   68.71511   16.29781    0.15308    2.07370    2.25202    9.10428    1.72205    1.52294 -999.25000 -999.25000 -999.25000 -999.25000 -999.25000 -999.25000
 2761.87760 -999.25000 -999.25000   64.83968   17.77792    0.11229    3.27136    2.28116    9.14244    2.88040    2.88414 -999.25000 -999.25000 -999.25000 -999.25000 -999.25000 -999.25000
 2762.37760 -999.25000 -999.25000   66.30283   16.93463    0.06546    3.90257    2.34895    9.20510    5.13638    4.72818 -999.25000 -999.25000 -999.25000 -999.25000 -999.25000 -999.25000
 2762.87760 -999.25000 -999.25000   64.97199   18.52285    0.07161    4.78244    2.33744    5.91210    5.78946    5.30114 -999.25000 -999.25000 -999.25000 -999.25000 -999.25000 -999.25000
 2763.37760 -999.25000 -999.25000   70.50208   17.91545    0.06576    5.15409    2.48857    4.75196    5.82112    5.68007 -999.25000 -999.25000 -999.25000 -999.25000 -999.25000 -999.25000
 2763.87760 -999.25000 -999.25000   68.58036   19.16465    0.06556    5.05803    2.39090    4.30636    5.51650    5.61760 -999.25000 -999.25000 -999.25000 -999.25000 -999.25000 -999.25000
 2764.37760 -999.25000 -999.25000   65.83697   25.23167    0.08373    5.59386    2.32632    5.09102    3.83917    3.59120 -999.25000 -999.25000 -999.25000 -999.25000 -999.25000 -999.25000
 2764.87760 -999.25000 -999.25000   62.46684   22.52695    0.06471    5.69378    2.44015    6.23735    4.73377    4.76147 -999.25000 -999.25000 -999.25000 -999.25000 -999.25000 -999.25000
 2765.37760 -999.25000 -999.25000   68.34484   16.76846    0.05952    5.33013    2.44420    8.96380    5.65720    5.49050 -999.25000 -999.25000 -999.25000 -999.25000 -999.25000 -999.25000
 2765.87760 -999.25000 -999.25000   68.17182   22.49182    0.08363    5.83276    2.34543    9.08783    4.69645    4.80565 -999.25000 -999.25000 -999.25000 -999.25000 -999.25000 -999.25000
 2766.37760 -999.25000 -999.25000   66.52934   18.89311    0.07671    5.99444    2.45061    9.20060    4.67605    5.03965 -999.25000 -999.25000 -999.25000 -999.25000 -999.25000 -999.25000
 2766.87760 -999.25000 -999.25000   68.54587   17.24209    0.07906    6.15365    2.37768    9.42648    4.91523    5.40373 -999.25000 -999.25000 -999.25000 -999.25000 -999.25000 -999.25000
 2767.37760 -999.25000 -999.25000   61.38529   18.06759    0.09014    5.99228    2.40739    9.28635    5.07165    5.32249 -999.25000 -999.25000 -999.25000 -999.25000 -999.25000 -999.25000
 2767.87760 -999.25000 -999.25000   63.38716   17.91857    0.08468    6.19000    2.38773    7.62117    5.47986    5.99310 -999.25000 -999.25000 -999.25000 -999.25000 -999.25000 -999.25000
 2768.37760 -999.25000 -999.25000   61.02177   18.06937    0.08714    6.21866    2.37738    6.39904    5.61048    5.91368 -999.25000 -999.25000 -999.25000 -999.25000 -999.25000 -999.25000
 2768.87760 -999.25000 -999.25000   66.96929   18.71572    0.07216    6.87276    2.38320    6.22399    5.39997    5.77651 -999.25000 -999.25000 -999.25000 -999.25000 -999.25000 -999.25000
 2769.37760 -999.25000 -999.25000   64.85854   17.95402    0.06078    6.97454    2.35625    6.71623    6.19819    6.75462 -999.25000 -999.25000 -999.25000 -999.25000 -999.25000 -999.25000
 2769.87760 -999.25000 -999.25000   59.83389   15.05091    0.05666    7.23199    2.47648    7.81786    7.55364    7.35526 -999.25000 -999.25000 -999.25000 -999.25000 -999.25000 -999.25000
 2770.37760 -999.25000 -999.25000   59.95221   18.16432    0.06195    7.50331    2.39454    7.38156    8.76813    8.19932 -999.25000 -999.25000 -999.25000 -999.25000 -999.25000 -999.25000
 2770.87760 -999.25000 -999.25000   67.47609   18.60092    0.07280    7.91562    2.28975    6.10821    8.70149    8.31127 -999.25000 -999.25000 -999.25000 -999.25000 -999.25000 -999.25000
 2771.37760 -999.25000 -999.25000   62.34708   16.97697    0.06226    7.82646    2.41630    5.07070    8.33535    8.37345 -999.25000 -999.25000 -999.25000 -999.25000 -999.25000 -999.25000
 2771.87760 -999.25000 -999.25000   60.60499   18.30670    0.04144    7.10803    2.42513    2.81935    9.26980    8.82772 -999.25000 -999.25000 -999.25000 -999.25000 -999.25000 -999.25000
 2772.37760 -999.25000 -999.25000   63.92577   18.04890    0.06074    6.35648    2.46501    3.07870    7.47621    7.13470 -999.25000 -999.25000 -999.25000 -999.25000 -999.25000 -999.25000
 2772.87760 -999.25000 -999.25000   63.62980   17.28379    0.07572    5.55567    2.36106    3.61967    5.38733    5.54941 -999.25000 -999.25000 -999.25000 -999.25000 -999.25000 -999.25000
 2773.37760 -999.25000 -999.25000   69.35855   26.09353    0.07591    4.78984    2.36034    4.62375    4.30327    4.46109 -999.25000 -999.25000 -999.25000 -999.25000 -999.25000 -999.25000
 2773.87760 -999.25000 -999.25000   70.63854   30.82812    0.08496    4.70525    2.35381    5.87650    3.48512    3.56980 -999.25000 -999.25000 -999.25000 -999.25000 -999.25000 -999.25000
 2774.37760 -999.25000 -999.25000   55.06599   24.44455    0.05722    5.07832    2.36610    6.54598    5.46047    5.20925 -999.25000 -999.25000 -999.25000 -999.25000 -999.25000 -999.25000
 2774.87760 -999.25000 -999.25000   64.66015   19.34955    0.06435    5.03291    2.41137    5.52680    6.36466    5.84582 -999.25000 -999.25000 -999.25000 -999.25000 -999.25000 -999.25000
 2775.37760 -999.25000 -999.25000   74.57498   26.86573    0.07721    5.16304    2.40017    4.53642    6.20889    6.08358 -999.25000 -999.25000 -999.25000 -999.25000 -999.25000 -999.25000
 2775.87760 -999.25000 -999.25000   68.11825   31.73789    0.07424    5.79346    2.46487    4.07850    4.07317    4.17438 -999.25000 -999.25000 -999.25000 -999.25000 -999.25000 -999.25000
 2776.37760 -999.25000 -999.25000   69.41784   27.47707    0.05428    5.01063    2.43992    4.29676    4.24037    3.93689 -999.25000 -999.25000 -999.25000 -999.25000 -999.25000 -999.25000
