~Version ---------------------------------------------------
VERS.   2.0 : CWLS log ASCII Standard -VERSION 2.0
WRAP.    NO : One line per depth step
DLM . SPACE : Column Data Section Delimiter
~Well ------------------------------------------------------
STRT.ft          145.90000 : START DEPTH
STOP.ft         3681.90000 : STOP DEPTH
STEP.ft            0.50000 : STEP
NULL.              -999.25 : NULL VALUE
COMP. Statoil Petroleum AS : COMPANY
WELL.           15/9-F-1 A : WELL
FLD .                VOLVE : FIELD
LOC .      Maersk Inspirer : LOCATION
PROV.                      : PROVINCE
CNTY.               Unused : COUNTY
STAT.                      : STATE
CTRY.                      : COUNTRY
SRVC.                      : SERVICE COMPANY
DATE.                      : DATE
UWI .                      : UNIQUE WELL ID
API .                      : API NUMBER
~Curve Information -----------------------------------------
DEPT     .ft        : 
ABDCQF01 .g/cm3     : 
ABDCQF02 .g/cm3     : 
ABDCQF03 .g/cm3     : 
ABDCQF04 .g/cm3     : 
BS       .inches    : 
CALI     .inches    : 
DRHO     .g/cm3     : 
DT       .us/ft     : 
DTS      .us/ft     : 
GR       .API       : 
NPHI     .v/v       : 
PEF      .b/elec    : 
RACEHM   .UNKNOWN   : 
RACELM   .UNKNOWN   : 
RHOB     .g/cm3     : 
ROP      .m/hr      : 
RPCEHM   .UNKNOWN   : 
RPCELM   .UNKNOWN   : 
RT       .ohm.m     : 
BVW      .V/V       : 
COAL_FLAG.unitless  : 
KLOGH    .mD        : 
PHIF     .V/V       : 
SAND_FLAG.unitless  : 
SW       .V/V       : 
VCARB    .V/V       : 
VSH      .V/V       : 
~Params ----------------------------------------------------
~Other -----------------------------------------------------
PETROPHYSICAL INTERPRETATION: INPUT

# --- LOG MNEMONICS AND UNITS ---
#Depth          ABDCQF01        ABDCQF02        ABDCQF03        ABDCQF04        BS              CALI            DRHO            DT              DTS             GR              NPHI            PEF             RACEHM          RACELM          RHOB            ROP             RPCEHM          RPCELM          RT
#M              g/cm3           g/cm3           g/cm3           g/cm3           inches          inches          g/cm3           us/ft           us/ft           API             v/v             b/elec          UNKNOWN         UNKNOWN         g/cm3           m/hr            UNKNOWN         UNKNOWN         ohm.m
~ASCII -----------------------------------------------------
# ...
 3161.90000    2.54470    2.54870    2.55450    2.54670    8.50000    8.67190    0.05370   75.96170  144.81670   36.58270    0.16620    7.80850    2.38380    2.42220    2.54630   24.88020    2.88330    2.55930    2.88330 -999.25000 -999.25000 -999.25000 -999.25000 -999.25000 -999.25000 -999.25000 -999.25000
 3162.40000    2.52810    2.54250    2.54320    2.52970    8.50000    8.67190    0.04520   78.67180  148.97400   44.73200    0.15460    7.68790    2.31330    2.41520    2.53600   26.00420    2.56760    2.41960    2.56760 -999.25000 -999.25000 -999.25000 -999.25000 -999.25000 -999.25000 -999.25000 -999.25000
 3162.90000    2.54950    2.55900    2.56440    2.56190    8.50000    8.64830    0.04810   79.68870  149.14850   40.54090    0.13930    7.63960    2.37690    2.41990    2.55760   26.35270    2.23950    2.30160    2.23950 -999.25000 -999.25000 -999.25000 -999.25000 -999.25000 -999.25000 -999.25000 -999.25000
 3163.40000    2.54070    2.55370    2.56820    2.56060    8.50000    8.62500    0.04550   77.50460  142.67780   31.03400    0.12380    7.71150    2.43350    2.39900    2.55820   26.45530    2.37300    2.36100    2.37300 -999.25000 -999.25000 -999.25000 -999.25000 -999.25000 -999.25000 -999.25000 -999.25000
 3163.90000    2.54960    2.55620    2.58110    2.56660    8.50000    8.62500    0.04550   74.30070  136.75200   27.64720    0.11230    7.62410    2.45320    2.36410    2.56410   24.95340    2.90540    2.59080    2.90540 -999.25000 -999.25000 -999.25000 -999.25000 -999.25000 -999.25000 -999.25000 -999.25000
 3164.40000    2.54990    2.54560    2.58300    2.55630    8.50000    8.62500    0.04250   71.84110  135.08880   24.02160    0.11750    7.47560    2.51760    2.35180    2.55910   22.03060    3.14460    2.72010    3.14460 -999.25000 -999.25000 -999.25000 -999.25000 -999.25000 -999.25000 -999.25000 -999.25000
 3164.90000    2.54280    2.56680    2.56940    2.58490    8.50000    8.62500    0.04290   71.79280  136.31280   29.33210    0.12020    7.58260    2.62180    2.35830    2.56640   21.65750    3.13420    2.74500    3.13420 -999.25000 -999.25000 -999.25000 -999.25000 -999.25000 -999.25000 -999.25000 -999.25000
 3165.40000    2.56190    2.56940    2.58470    2.57240    8.50000    8.62500    0.04350   72.54390  138.66030   27.64420    0.12100    7.53370    2.64010    2.35350    2.56970   22.08150    3.11540    2.75140    3.11540 -999.25000 -999.25000 -999.25000 -999.25000 -999.25000 -999.25000 -999.25000 -999.25000
 3165.90000    2.54870    2.56200    2.56730    2.57450    8.50000    8.62500    0.04610   73.30190  140.48160   31.06890    0.12520    7.64530    2.55690    2.35020    2.56450   22.80330    3.04610    2.69920    3.04610 -999.25000 -999.25000 -999.25000 -999.25000 -999.25000 -999.25000 -999.25000 -999.25000
 3166.40000    2.55130    2.57110    2.56330    2.56020    8.50000    8.67190    0.04800   74.05410  143.53880   36.62140    0.13620    7.67800    2.44400    2.32920    2.55900   22.99970    2.86000    2.57160    2.86000 -999.25000 -999.25000 -999.25000 -999.25000 -999.25000 -999.25000 -999.25000 -999.25000
 3166.90000    2.53810    2.54690    2.56210    2.54460    8.50000    8.67190    0.04600   75.12460  148.59510   38.65610    0.14960    7.53740    2.33930    2.31970    2.54850   24.33790    2.49320    2.37330    2.49320 -999.25000 -999.25000 -999.25000 -999.25000 -999.25000 -999.25000 -999.25000 -999.25000
 3167.40000    2.56070    2.55040    2.54400    2.54050    8.50000    8.67190    0.04670   77.02060  148.97000   38.75290    0.15530    7.58260    2.26910    2.31940    2.54610   26.39680    2.28690    2.25700    2.28690 -999.25000 -999.25000 -999.25000 -999.25000 -999.25000 -999.25000 -999.25000 -999.25000
 3167.90000    2.56060    2.55070    2.55950    2.54690    8.50000    8.62510    0.04890   78.61420  147.90380   32.76130    0.14890    7.77480    2.24480    2.32290    2.55230   27.00300    2.33510    2.25640    2.33510 -999.25000 -999.25000 -999.25000 -999.25000 -999.25000 -999.25000 -999.25000 -999.25000
 3168.40000    2.55160    2.56650    2.56180    2.56700    8.50000    8.67180    0.05030   78.76010  146.78940   31.36160    0.14220    7.68370    2.29760    2.33170    2.56090   25.39940    2.48570    2.34830    2.48570 -999.25000 -999.25000 -999.25000 -999.25000 -999.25000 -999.25000 -999.25000 -999.25000
 3168.90000    2.55290    2.55020    2.55690    2.54090    8.50000    8.67180    0.04390   77.52390  145.12140   29.29040    0.13190    7.64990    2.39040    2.39130    2.54950   23.82320    2.63750    2.46930    2.63750 -999.25000 -999.25000 -999.25000 -999.25000 -999.25000 -999.25000 -999.25000 -999.25000
 3169.40000    2.54890    2.56680    2.57150    2.55250    8.50000    8.62500    0.04460   76.15160  141.85970   25.29070    0.12420    7.75750    2.55170    2.47990    2.55920   21.99560    2.83030    2.64600    2.83030 -999.25000 -999.25000 -999.25000 -999.25000 -999.25000 -999.25000 -999.25000 -999.25000
 3169.90000    2.55110    2.56680    2.58080    2.56830    8.50000    8.62510    0.04590   74.70490  138.57350   26.74100    0.12490    7.66740    2.75290    2.58330    2.56820   20.71940    2.93020    2.78240    2.93020 -999.25000 -999.25000 -999.25000 -999.25000 -999.25000 -999.25000 -999.25000 -999.25000
 3170.40000    2.56140    2.57320    2.57890    2.55820    8.50000    8.62500    0.04440   73.41530  138.05280   23.00310    0.11880    7.60170    2.89250    2.66780    2.56860   19.52200    3.15760    2.93910    3.15760 -999.25000 -999.25000 -999.25000 -999.25000 -999.25000 -999.25000 -999.25000 -999.25000
 3170.90000    2.57900    2.58690    2.58550    2.57490    8.50000    8.62500    0.04390   72.57190  138.25740   21.75940    0.10630    7.49400    2.90960    2.72690    2.58090   19.12640    3.43400    3.07280    3.43400 -999.25000 -999.25000 -999.25000 -999.25000 -999.25000 -999.25000 -999.25000 -999.25000
 3171.40000    2.57550    2.58630    2.60000    2.58670    8.50000    8.62490    0.04800   71.53870  136.94400   23.49360    0.10110    7.74150    2.90500    2.78300    2.58700   16.83160    3.48600    3.11770    3.48600 -999.25000 -999.25000 -999.25000 -999.25000 -999.25000 -999.25000 -999.25000 -999.25000
 3171.90000    2.58520    2.59790    2.57410    2.57280    8.50000    8.57810    0.04650   70.77290  135.62930   30.98890    0.10450    7.77410    2.94860    2.84400    2.57820   19.03700    3.16130    3.00800    3.16130 -999.25000 -999.25000 -999.25000 -999.25000 -999.25000 -999.25000 -999.25000 -999.25000
 3172.40000    2.59290    2.57820    2.58480    2.56670    8.50000    8.62500    0.04690   71.07060  136.80540   33.13270    0.10940    7.63220    2.94070    2.88750    2.57700   19.81660    2.93590    2.92330    2.93590 -999.25000 -999.25000 -999.25000 -999.25000 -999.25000 -999.25000 -999.25000 -999.25000
 3172.90000    2.57750    2.58290    2.58650    2.56750    8.50000    8.62500    0.04570   72.79190  140.63540   25.16390    0.12950    7.74310    2.88880    2.88480    2.57340   19.91640    3.02400    2.95440    3.02400 -999.25000 -999.25000 -999.25000 -999.25000 -999.25000 -999.25000 -999.25000 -999.25000
 3173.40000    2.57420    2.58430    2.57060    2.58810    8.50000    8.57810    0.04690   73.81090  142.63720   25.38430    0.12110    7.54510    2.86930    2.86130    2.57560   19.78930    3.30280    3.04290    3.30280 -999.25000 -999.25000 -999.25000 -999.25000 -999.25000 -999.25000 -999.25000 -999.25000
 3173.90000    2.55930    2.58470    2.57070    2.57050    8.50000    8.62490    0.04270   73.08100  141.14900   27.79260    0.11420    7.61390    2.92980    2.83650    2.57130   19.21800    3.18650    2.98330    3.18650 -999.25000 -999.25000 -999.25000 -999.25000 -999.25000 -999.25000 -999.25000 -999.25000
 3174.40000    2.57220    2.58170    2.59020    2.55120    8.50000    8.62500    0.04320   72.05490  138.83820   25.99730    0.10860    7.64240    2.91430    2.80330    2.57150   18.20490    3.30310    3.02850    3.30310 -999.25000 -999.25000 -999.25000 -999.25000 -999.25000 -999.25000 -999.25000 -999.25000
