~Version ---------------------------------------------------
VERS.   2.0 : CWLS log ASCII Standard -VERSION 2.0
WRAP.    NO : One line per depth step
DLM . SPACE : Column Data Section Delimiter
~Well ------------------------------------------------------
STRT.ft          145.90000 : START DEPTH
STOP.ft         4684.90000 : STOP DEPTH
STEP.ft            0.50000 : STEP
NULL.              -999.25 : NULL VALUE
COMP. STATOIL PETROLEUM AS : COMPANY
WELL.          15/9-F-15 D : WELL
FLD .                VOLVE : FIELD
LOC .                      : LOCATION
PROV.                      : PROVINCE
CNTY.      MAERSK INSPIRER : COUNTY
STAT.                      : STATE
CTRY.                      : COUNTRY
SRVC.                      : SERVICE COMPANY
DATE.                      : DATE
UWI .                      : UNIQUE WELL ID
API .                      : API NUMBER
~Curve Information -----------------------------------------
DEPT     .ft        : 
ABDCQF01 .g/cm3     : 
ABDCQF02 .g/cm3     : 
ABDCQF03 .g/cm3     : 
ABDCQF04 .g/cm3     : 
BS       .inches    : 
CALI     .inches    : 
DRHO     .g/cm3     : 
GR       .API       : 
NBGRCFM  .API       : 
NPHI     .v/v       : 
PEF      .b/elec    : 
RACEHM   .ohm.m     : 
RACELM   .ohm.m     : 
RD       .ohm.m     : 
RHOB     .g/cm3     : 
RM       .ohm.m     : 
ROP      .m/hr      : 
RPCEHM   .ohm.m     : 
RPCELM   .ohm.m     : 
RT       .ohm.m     : 
BVW      .v/v       : 
COAL_FLAG.unitless  : 
KLOGH    .mD        : 
PHIF     .v/v       : 
SAND_FLAG.unitless  : 
SW       .v/v       : 
VCARB    .v/v       : 
VSH      .v/v       : 
~Params ----------------------------------------------------
~Other -----------------------------------------------------
PETROPHYSICAL INTERPRETATION: INPUT

# --- LOG MNEMONICS AND UNITS ---
#Depth          ABDCQF01        ABDCQF02        ABDCQF03        ABDCQF04        BS              CALI            DRHO            GR              NBGRCFM         NPHI            PEF             RACEHM          RACELM          RD              RHOB            RM              ROP             RPCEHM          RPCELM          RT
#M              g/cm3           g/cm3           g/cm3           g/cm3           inches          inches          g/cm3           API             API             v/v             b/elec          ohm.m           ohm.m           ohm.m           g/cm3           ohm.m           m/hr            ohm.m           ohm.m           ohm.m
~ASCII -----------------------------------------------------
# ...
 4570.90000    2.63500    2.94590    2.87050    2.75850    8.50000    8.62500    0.03560   39.77950   42.66030    0.25030    7.91880    6.74190    1.45510    3.41530    2.77510    4.00900   16.84480    4.00930    3.41540    3.56190    0.02000    0.00000    0.15790    0.02000    0.00000    1.00000    0.26450    0.32910
 4571.40000    2.70730    2.81560    3.27150    2.66550    8.50000    8.62500    0.07040   42.17190   45.83020    0.25000    7.79830    3.40130    1.80980    2.61670    2.77150    1.87660   18.73340    1.87650    2.61670    1.95680    0.02000    0.00000    0.09000    0.02000    0.00000    1.00000    0.22810    0.35620
 4571.90000    2.72640    2.67270    2.79620    2.71450    8.50000    8.62470    0.04710   44.28620   43.27000    0.27050    7.88350    2.24730    1.53380    2.22050    2.72280    2.80750   23.24220    2.80750    2.22050    2.72950    0.02000    0.00000    0.06510    0.02000    0.00000    1.00000    0.20810    0.37190
 4572.40000    2.69640    2.70250    2.70610    2.70170    8.50000    8.62470    0.05850   41.25860   43.56040    0.26380    7.80020    2.70110    1.55510    2.00030    2.70740    2.39400   27.58580    2.39400    2.00030    2.50410    0.02000    0.00000    0.10420    0.02000    0.00000    1.00000    0.23740    0.34910
 4572.90000    2.69480    2.71390    2.66380    2.73440    8.50000    8.62500    0.02910   47.76530   44.77910    0.27850    8.22140    1.98520    1.57280    1.92900    2.69150    2.61970   28.83260    2.61970    1.92900    2.62490    0.02000    0.00000    0.03080    0.02000    0.00000    1.00000    0.16490    0.40790
 4573.40000    2.66630    2.74880    2.80150    2.71870    8.50000    8.62500    0.04580   51.26900   49.46200    0.28360    8.28410    1.78280    1.60710    1.86640    2.74630    2.53780   28.80640    2.53780    1.86640    2.54320    0.02000    0.00000    0.01550    0.02000    0.00000    1.00000    0.12830    0.44120
 4573.90000    2.58070    2.72580    2.71500    2.63830    8.50000    8.60150    0.04990   49.62410   49.01870    0.28050    7.34510    1.66820    1.61070    1.82600    2.67350    2.54640   28.77810    2.54640    1.82600    2.55510    0.02000    0.00000    0.01810    0.02000    0.00000    1.00000    0.13630    0.43370
 4574.40000    2.72770    2.67540    2.77030    2.66640    8.50000    8.62450    0.02970   53.47760   53.38600    0.26840    7.25480    1.67370    1.61560    1.86300    2.68680    2.72810   28.81470    2.72810    1.86300    2.74840    0.02000    0.00000    0.01180    0.02000    0.00000    1.00000    0.11500    0.45420
 4574.90000    2.72260    2.65630    2.73430    2.69770    8.50000    8.57820    0.08730   61.48440   57.58010    0.26140    6.89810    1.67390    1.63380    1.83100    2.70790    2.37150   28.81270    2.37150    1.83100    2.47310    0.02000    0.00000    0.00170    0.02000    0.00000    1.00000    0.03450    0.54700
 4575.40000    2.72390    2.60950    2.50730    2.69240    8.50000    8.62500    0.02650   49.65850   48.23520    0.27270    7.06890    1.77450    1.58260    1.97570    2.63280    3.31360   28.79310    3.31360    1.97570    3.30750    0.02000    0.00000    0.01970    0.02000    0.00000    1.00000    0.14070    0.42960
 4575.90000    2.75250    2.72420    2.56330    2.73230    8.50000    8.62470    0.03330   44.73530   46.39820    0.28970    8.39160    1.73820    1.56560    1.89070    2.71350    2.84540   28.58080    2.84540    1.89070    2.87080    0.02000    0.00000    0.06200    0.02000    0.00000    1.00000    0.20520    0.37420
 4576.40000    2.73520    2.80270    2.65190    2.72540    8.50000    8.57810    0.01480   50.89780   51.06740    0.27410    8.75740    1.74390    1.54990    1.79980    2.73230    2.28520   26.69420    2.28520    1.79980    2.28160    0.02000    0.00000    0.01630    0.02000    0.00000    1.00000    0.13100    0.43870
 4576.90000    2.72960    2.65520    2.57920    2.70590    8.50000    8.62470    0.02700   52.99040   53.31520    0.29490    7.73860    1.76300    1.48850    1.71110    2.67250    1.98740   25.17480    1.98740    1.71110    1.96010    0.02000    0.00000    0.00870    0.02000    0.00000    1.00000    0.10040    0.46910
 4577.40000    2.73900    2.69100    2.66270    2.73300    8.50000    8.62500    0.03490   46.73120   45.93000    0.31730    8.06290    1.52700    1.37310    1.56160    2.69670    1.74840   24.25870    1.74840    1.56160    1.75350    0.02000    0.00000    0.05920    0.02000    0.00000    1.00000    0.20240    0.37640
 4577.90000    2.71490    2.69200    2.82530    2.66160    8.50000    8.67160    0.04840   46.67180   46.33470    0.32320    8.21490    1.42940    1.25510    1.46700    2.71320    1.65630   23.77910    1.65630    1.46700    1.61060    0.02000    0.00000    0.03820    0.02000    0.00000    1.00000    0.17690    0.39760
 4578.40000    2.70140    2.70440    2.77170    2.64610    8.50000    8.62500    0.03140   55.58710   45.69240    0.33390    8.24350    1.31670    1.08110    1.34010    2.71340    1.49930   22.78250    1.49930    1.34010    1.48760    0.02000    0.00000    0.00690    0.02000    0.00000    1.00000    0.09010    0.47990
 4578.90000    2.68350    2.68330    2.70360    2.66110    8.50000    8.64850    0.02720   55.30370   49.58140    0.29900    8.40860    0.96380    0.87510    1.06100    2.68610    1.31070   18.03720    1.31070    1.06100    1.26270    0.02000    0.00000    0.00630    0.02000    0.00000    1.00000    0.08600    0.48430
 4579.40000    2.66060    2.68400    2.55340    2.65190    8.50000    8.70310    0.05200   45.17850   42.73220    0.28360    7.22200    0.86310    0.80680    0.69260    2.62450    0.86740   10.44540    0.86750    0.69260    0.80890    0.02000    0.00000    0.04930    0.02000    0.00000    1.00000    0.19160    0.38520
 4579.90000    2.70820    2.80280    2.97790    2.78100    8.50000    8.70310    0.01760   41.45460   42.88090    0.27000    8.38310    0.80050    0.93650    0.56300    2.77730    0.61250   15.84380    0.61250    0.56300    0.54680    0.02000    0.00000    0.10780    0.02000    0.00000    1.00000    0.23960    0.34750
 4580.40000    3.07860    3.04120    3.06120    3.10550    8.50000    8.68740    0.06470   54.58350   56.72860    0.24480    9.91760    1.21270    1.13380    1.36180    3.06230    2.08490   26.96330    2.08480    1.36170    1.98240    0.02000    0.00000    0.00650    0.02000    0.00000    1.00000    0.08700    0.48320
 4580.90000    2.96620    2.86630    2.74960    2.88060    8.50000    8.57840    0.05960   30.12470   26.34490    0.22400    8.81600    3.22020    1.69720    3.73790    2.86450    6.85460   31.07740    6.85450    3.73790    7.05570    0.02000    0.00000    0.69320    0.02000    0.00000    1.00000    0.37090    0.25770
 4581.40000    2.88870    2.79760    2.79230    2.91150    8.50000    8.64800    0.09530   23.34890   22.34340    0.10010    7.44880    4.56010    2.59200    5.59090    2.84790    9.32710   30.89360    9.32720    5.59090    9.01750    0.02000    0.00000    3.65760    0.02000    0.00000    1.00000    0.50870    0.17740
 4581.90000    2.54070    2.50070    2.48570    2.52860    8.50000    8.57800    0.05030   23.29630   21.38910    0.09700    5.72310    5.96520    3.72840    6.78440    2.51980    8.52080   28.78360    8.52090    6.78440    8.66680    0.04660    0.00000   13.73370    0.09340    0.00000    0.49940    0.19270    0.17880
 4582.40000    2.49930    2.54930    2.57340    2.51860    8.50000    8.56290    0.05270   19.42650   17.44370    0.10700    5.71870    6.66230    4.81160    8.32120    2.53640   10.40280   24.03250   10.40280    8.32120   10.39890    0.04230    0.00000   30.71690    0.09170    0.00000    0.46100    0.25670    0.13850
 4582.90000    2.41440    2.43960    2.40540    2.38390    8.50000    8.54690    0.05880   17.34210   15.30800    0.12640    5.12000    6.38480    5.47790    8.26720    2.42230    9.94280   22.23160    9.94280    8.26730    9.96640    0.04720    0.00000  115.72920    0.13860    1.00000    0.34060    0.09910    0.11610
