~Version ---------------------------------------------------
VERS.   2.0 : CWLS log ASCII Standard -VERSION 2.0
WRAP.    NO : One line per depth step
DLM . SPACE : Column Data Section Delimiter
~Well ------------------------------------------------------
STRT.ft          145.90000 : START DEPTH
STOP.ft         4684.90000 : STOP DEPTH
STEP.ft            0.50000 : STEP
NULL.              -999.25 : NULL VALUE
COMP. STATOIL PETROLEUM AS : COMPANY
WELL.          15/9-F-15 D : WELL
FLD .                VOLVE : FIELD
LOC .                      : LOCATION
PROV.                      : PROVINCE
CNTY.      MAERSK INSPIRER : COUNTY
STAT.                      : STATE
CTRY.                      : COUNTRY
SRVC.                      : SERVICE COMPANY
DATE.                      : DATE
UWI .                      : UNIQUE WELL ID
API .                      : API NUMBER
~Curve Information -----------------------------------------
DEPT     .ft        : 
ABDCQF01 .g/cm3     : 
ABDCQF02 .g/cm3     : 
ABDCQF03 .g/cm3     : 
ABDCQF04 .g/cm3     : 
BS       .inches    : 
CALI     .inches    : 
DRHO     .g/cm3     : 
GR       .API       : 
NBGRCFM  .API       : 
NPHI     .v/v       : 
PEF      .b/elec    : 
RACEHM   .ohm.m     : 
RACELM   .ohm.m     : 
RD       .ohm.m     : 
RHOB     .g/cm3     : 
RM       .ohm.m     : 
ROP      .m/hr      : 
RPCEHM   .ohm.m     : 
RPCELM   .ohm.m     : 
RT       .ohm.m     : 
BVW      .v/v       : 
COAL_FLAG.unitless  : 
KLOGH    .mD        : 
PHIF     .v/v       : 
SAND_FLAG.unitless  : 
SW       .v/v       : 
VCARB    .v/v       : 
VSH      .v/v       : 
~Params ----------------------------------------------------
~Other -----------------------------------------------------
PETROPHYSICAL INTERPRETATION: INPUT

# --- LOG MNEMONICS AND UNITS ---
#Depth          ABDCQF01        ABDCQF02        ABDCQF03        ABDCQF04        BS              CALI            DRHO            GR              NBGRCFM         NPHI            PEF             RACEHM          RACELM          RD              RHOB            RM              ROP             RPCEHM          RPCELM          RT
#M              g/cm3           g/cm3           g/cm3           g/cm3           inches          inches          g/cm3           API             API             v/v             b/elec          ohm.m           ohm.m           ohm.m           g/cm3           ohm.m           m/hr            ohm.m           ohm.m           ohm.m
~ASCII -----------------------------------------------------
# ...
 4195.90000    2.18370    2.21490    2.19800    2.21640    8.50000    8.54690    0.03920   29.64150   30.73070    0.19150    4.28980    9.44310    6.59710   11.65280    2.20240   15.13300   31.08680   15.13300   11.65280   15.17420    0.04660    0.00000   63.09950    0.24010    1.00000    0.19410    0.00000    0.23560
 4196.40000    2.19330    2.20990    2.20030    2.20460    8.50000    8.54690    0.03490   33.84960   28.23740    0.20940    4.16290    9.33450    6.55660   11.47470    2.19790   14.82500   31.10000   14.82510   11.47470   14.71130    0.04770    0.00000   33.15710    0.24880    1.00000    0.19170    0.00000    0.27440
 4196.90000    2.18010    2.20670    2.20420    2.19980    8.50000    8.54690    0.03700   34.04150   30.43780    0.20570    4.35240    9.37560    6.57850   11.09710    2.19350   13.77090   31.11650   13.77100   11.09710   13.67470    0.04910    0.00000   33.97300    0.24880    1.00000    0.19750    0.00000    0.27320
 4197.40000    2.20380    2.21080    2.22300    2.21530    8.50000    8.54690    0.04160   32.87640   32.04460    0.21280    4.45780    9.18920    6.62830   11.02440    2.20880   13.54440   31.12640   13.54450   11.02440   13.51310    0.04930    0.00000   37.71820    0.24640    1.00000    0.20010    0.00000    0.26610
 4197.90000    2.19820    2.21980    2.22770    2.20650    8.50000    8.54690    0.04520   32.27600   32.18540    0.20700    4.39890    9.20430    6.68140   11.12480    2.21560   13.50810   31.11840   13.50810   11.12480   13.50670    0.04910    0.00000   38.04550    0.24170    1.00000    0.20320    0.00000    0.26150
 4198.40000    2.18970    2.21680    2.21560    2.20150    8.50000    8.54690    0.04090   33.41730   32.00310    0.20690    4.37620    9.37570    6.74690   11.02380    2.20680   12.91300   31.05240   12.91310   11.02380   12.90950    0.05010    0.00000   46.66660    0.24470    1.00000    0.20470    0.00000    0.25430
 4198.90000    2.20070    2.21040    2.20710    2.21340    8.50000    8.54690    0.04040   29.99100   32.89420    0.21830    4.41570    9.62780    6.80500   10.95230    2.20660   12.55260   31.08200   12.55260   10.95230   12.57700    0.05080    0.00000   66.67590    0.24930    1.00000    0.20360    0.00000    0.24120
 4199.40000    2.19610    2.21540    2.19130    2.20590    8.50000    8.54690    0.03680   33.17130   31.08420    0.21660    4.31370   10.01920    6.86910   10.82840    2.20120   12.06640   31.17980   12.06640   10.82840   12.05070    0.05190    0.00000   38.91190    0.25050    1.00000    0.20720    0.00000    0.26820
 4199.90000    2.20850    2.22000    2.20230    2.21520    8.50000    8.54690    0.04030   33.68240   32.63910    0.20560    4.36530   10.19110    7.00500   10.81980    2.20670   11.77180   31.18650   11.77180   10.81980   11.76520    0.05220    0.00000   32.44080    0.24420    1.00000    0.21360    0.00000    0.27140
 4200.40000    2.19970    2.22000    2.19530    2.21610    8.50000    8.54690    0.03700   33.14220   31.27770    0.19530    4.31250   10.47750    7.05760   11.04300    2.20460   12.09540   31.20560   12.09540   11.04300   12.08880    0.05140    0.00000   34.76620    0.24080    1.00000    0.21330    0.00000    0.26510
 4200.90000    2.22380    2.21570    2.20770    2.20530    8.50000    8.54690    0.04190   32.31810   32.88340    0.20550    4.32890   10.79860    7.16710   11.37900    2.20900   12.51650   30.50380   12.51650   11.37900   12.54450    0.05070    0.00000   40.19680    0.24340    1.00000    0.20840    0.00000    0.26030
 4201.40000    2.21440    2.19840    2.21720    2.20370    8.50000    8.54690    0.04160   32.51980   31.02930    0.20660    4.23450   10.87750    7.13920   11.83670    2.20720   13.27770   29.55540   13.27760   11.83670   13.35020    0.04960    0.00000   38.36870    0.24450    1.00000    0.20290    0.00000    0.26350
 4201.90000    2.21010    2.20710    2.20490    2.19180    8.50000    8.54690    0.03680   31.32850   32.97560    0.20100    4.26910   10.78490    7.14300   12.26020    2.19860   13.99580   28.82530   13.99580   12.26020   14.02230    0.04840    0.00000   52.37100    0.24520    1.00000    0.19760    0.00000    0.24910
 4202.40000    2.19950    2.20140    2.19750    2.20730    8.50000    8.54690    0.04190   28.59980   27.98070    0.20150    4.38600   10.89590    7.16350   12.37030    2.19920   13.99700   28.82960   13.99700   12.37030   14.08890    0.04830    0.00000   81.31680    0.24520    1.00000    0.19690    0.00000    0.22790
 4202.90000    2.21070    2.18900    2.19450    2.19280    8.50000    8.54690    0.03990   30.24290   31.55650    0.20300    4.29790   11.25230    7.23440   12.50240    2.19320   13.99650   28.84170   13.99650   12.50240   14.03220    0.04850    0.00000   66.90650    0.24780    1.00000    0.19560    0.00000    0.23970
 4203.40000    2.19990    2.21170    2.22150    2.19200    8.50000    8.54690    0.03990   33.59160   29.31160    0.19470    4.26530   11.47480    7.21570   12.82120    2.19960   14.46160   28.80240   14.46160   12.82120   14.46150    0.04790    0.00000   30.26750    0.24230    1.00000    0.19760    0.00000    0.27300
 4203.90000    2.18680    2.22270    2.23880    2.20050    8.50000    8.54690    0.03440   31.83000   31.75130    0.19610    4.21580   11.72220    7.26940   12.82210    2.20980   14.47120   28.81740   14.47120   12.82210   14.48180    0.04750    0.00000   46.62880    0.23940    1.00000    0.19860    0.00000    0.24960
 4204.40000    2.19880    2.24010    2.22710    2.21700    8.50000    8.54690    0.03860   31.21150   30.81660    0.19910    4.38590   11.61360    7.20010   12.84520    2.21750   14.67530   28.85320   14.67530   12.84520   14.66450    0.04720    0.00000   44.18550    0.23790    1.00000    0.19840    0.00000    0.25090
 4204.90000    2.19420    2.24420    2.27040    2.20040    8.50000    8.54690    0.03680   32.12990   31.15790    0.19210    4.46510   11.69370    7.24040   12.82190    2.21960   14.64670   28.83960   14.64670   12.82190   14.63290    0.04720    0.00000   34.18540    0.23440    1.00000    0.20120    0.00000    0.26020
 4205.40000    2.19560    2.24430    2.29100    2.19310    8.50000    8.54690    0.04420   29.59160   30.25960    0.19500    4.67360   11.69430    7.23770   12.82140    2.22200   14.53540   28.81970   14.53540   12.82140   14.54640    0.04710    0.00000   57.30300    0.23470    1.00000    0.20070    0.00000    0.23550
 4205.90000    2.18140    2.20930    2.26790    2.20560    8.50000    8.54690    0.03810   30.15560   29.61030    0.19720    4.46350   11.67800    7.22510   12.50230    2.21790   14.10080   28.81750   14.10080   12.50230   14.06090    0.04790    0.00000   54.14980    0.23700    1.00000    0.20190    0.00000    0.24030
 4206.40000    2.19400    2.20990    2.24570    2.22360    8.50000    8.54690    0.04370   28.99150   29.19480    0.20140    4.46660   11.42410    7.15770   12.22700    2.22520   13.62440   28.77490   13.62440   12.22700   13.63840    0.04840    0.00000   64.47920    0.23620    1.00000    0.20500    0.00000    0.23110
 4206.90000    2.19440    2.19820    2.20120    2.19440    8.50000    8.54690    0.03600   30.08850   30.95300    0.19490    4.27760   11.36720    7.17260   12.15220    2.19410   13.58660   28.76730   13.58660   12.15220   13.57850    0.04890    0.00000   58.16060    0.24430    1.00000    0.20040    0.00000    0.24330
 4207.40000    2.20750    2.21000    2.21510    2.19940    8.50000    8.54690    0.04700   28.93760   29.57610    0.19720    4.64510   11.23090    7.14700   12.13110    2.20520   13.76340   28.79510   13.76340   12.13110   13.71210    0.04830    0.00000  104.20430    0.24140    1.00000    0.20000    0.00000    0.21260
 4207.90000    2.19530    2.21550    2.20000    2.19580    8.50000    8.54690    0.04170   29.18580   28.24300    0.20380    4.42770   11.15070    7.10360   12.04490    2.19880   13.63590   28.83050   13.63600   12.04500   13.60320    0.04880    0.00000   82.80120    0.24620    1.00000    0.19830    0.00000    0.22800
