~Version ---------------------------------------------------
VERS.   2.0 : CWLS log ASCII Standard -VERSION 2.0
WRAP.    NO : One line per depth step
DLM . SPACE : Column Data Section Delimiter
~Well ------------------------------------------------------
STRT.ft       145.90000 : START DEPTH
STOP.ft      3464.90000 : STOP DEPTH
STEP.ft         0.50000 : STEP
NULL.           -999.25 : NULL VALUE
COMP. Statoil Petroleum : COMPANY
WELL.        15/9-F-1 B : WELL
FLD .             VOLVE : FIELD
LOC .   Maersk Inspirer : LOCATION
PROV.                   : PROVINCE
CNTY.                   : COUNTY
STAT.                   : STATE
CTRY.                   : COUNTRY
SRVC.                   : SERVICE COMPANY
DATE.                   : DATE
UWI .                   : UNIQUE WELL ID
API .                   : API NUMBER
~Curve Information -----------------------------------------
DEPT     .ft        : 
ABDCQF01 .g/cm3     : 
ABDCQF02 .g/cm3     : 
ABDCQF03 .g/cm3     : 
ABDCQF04 .g/cm3     : 
BS       .inches    : 
CALI     .inches    : 
DRHO     .g/cm3     : 
DT       .us/ft     : 
DTS      .us/ft     : 
GR       .API       : 
NBGRCFM  .API       : 
NPHI     .v/v       : 
PEF      .b/elec    : 
RACEHM   .ohm.m     : 
RACELM   .ohm.m     : 
RD       .ohm.m     : 
RHOB     .g/cm3     : 
RM       .ohm.m     : 
ROP      .m/hr      : 
RPCEHM   .ohm.m     : 
RPCELM   .ohm.m     : 
RT       .ohm.m     : 
BVW      .V/V       : 
CARB_FLAG.V/V       : 
COAL_FLAG.UNITLESS  : 
KLOGH    .mD        : 
PHIF     .V/V       : 
SAND_FLAG.UNITLESS  : 
SW       .V/V       : 
VCARB    .V/V       : 
VSH      .V/V       : 
~Params ----------------------------------------------------
~Other -----------------------------------------------------
PETROPHYSICAL INTERPRETATION: INPUT

# --- LOG MNEMONICS AND UNITS ---
#Depth          ABDCQF01        ABDCQF02        ABDCQF03        ABDCQF04        BS              CALI            DRHO            DT              DTS             GR              NBGRCFM         NPHI            PEF             RACEHM          RACELM          RD              RHOB            RM              ROP             RPCEHM          RPCELM          RT
#M              g/cm3           g/cm3           g/cm3           g/cm3           inches          inches          g/cm3           us/ft           us/ft           API             API             v/v             b/elec          ohm.m           ohm.m           ohm.m           g/cm3           ohm.m           m/hr            ohm.m           ohm.m           ohm.m
~ASCII -----------------------------------------------------
# ...
 3319.90000    2.54080    2.54440    2.55020    2.53660    8.50000    8.69760    0.05750   70.06140  121.73290   38.55010 -999.25000    0.09350    6.08400    1.54980    1.63570    1.76020    2.53720    1.96240   24.29170    1.96240    1.76030    1.96240    0.06450    0.00000    0.00000    0.03980    0.06450    0.00000    1.00000    0.23270    0.23140
 3320.40000    2.54220    2.53090    2.52210    2.57670    8.50000    8.69760    0.06830   69.09580  119.39450   42.07370 -999.25000    0.09710    6.03500    1.76860    1.71110    1.68760    2.53510    1.50850   25.13180    1.50860    1.68760    1.50860    0.06560    0.00000    0.00000    0.03870    0.06560    0.00000    1.00000    0.19590    0.25560
 3320.90000    2.49800    2.51540    2.56410    2.53380    8.50000    8.69760    0.05270   68.70890  118.18170   29.44930 -999.25000    0.10590    6.16010    1.99230    1.73400    2.07760    2.52050    2.26200   25.88430    2.26220    2.07770    2.26220    0.07410    0.00000    0.00000    0.10780    0.07410    0.00000    1.00000    0.28520    0.16870
 3321.40000    2.59680    2.58770    2.60300    2.62560    8.50000    8.69760    0.06280   67.26950  113.11270   46.45130 -999.25000    0.06640    6.63460    1.98340    1.68230    2.14050    2.59450    2.73980   24.79870    2.73960    2.14050    2.73960    0.03180    0.00000    0.00000    0.00280    0.03180    0.00000    1.00000    0.28170    0.28570
 3321.90000    2.56530    2.54810    2.52290    2.53770    8.50000    8.68070    0.06860   69.29300  117.15230   50.36630 -999.25000    0.11920    6.48420    1.53080    1.63770    1.56010    2.53520    1.44760   20.29980    1.44740    1.56000    1.44740    0.06550    0.00000    0.00000    0.02960    0.06550    0.00000    1.00000    0.12600    0.31300
 3322.40000    2.50570    2.48410    2.49330    2.48700    8.50000    8.68050    0.04560   71.72480  122.89260   47.87050 -999.25000    0.13320    6.00420    1.56740    1.67250    1.68440    2.48970    1.70120   22.95680    1.70120    1.68450    1.70120    0.09160    0.00000    0.00000    0.21880    0.09160    0.00000    1.00000    0.06040    0.29560
 3322.90000    2.55710    2.52180    2.52550    2.52970    8.50000    8.69760    0.05890   70.97510  120.81770   41.29690 -999.25000    0.11090    6.30880    1.83720    1.76920    1.79460    2.52910    1.75380   25.90510    1.75410    1.79470    1.75410    0.06910    0.00000    0.00000    0.05130    0.06910    0.00000    1.00000    0.19020    0.25010
 3323.40000    2.58070    2.57780    2.57740    2.55470    8.50000    8.69760    0.06470   69.50580  119.54220   57.49930 -999.25000    0.10530    6.29680    1.91420    1.83850    2.02010    2.56840    2.17110   25.84690    2.17110    2.02010    2.17110    0.04660    0.00000    0.00000    0.00580    0.04660    0.00000    1.00000    0.13270    0.36190
 3323.90000    2.54830    2.54610    2.55300    2.55600    8.50000    8.69760    0.04770   68.68110  119.23060   61.04560 -999.25000    0.11130    6.37580    2.22570    1.96670    2.49410    2.54980    3.08980   25.27620    3.08990    2.49420    3.08990    0.05730    0.00000    0.00000    0.01150    0.05730    0.00000    1.00000    0.07430    0.38650
 3324.40000    2.61960    2.60340    2.59330    2.58470    8.50000    8.69730    0.06290   70.37540  119.60140   52.85790 -999.25000    0.11480    6.37810    2.37250    2.04540    2.28330    2.59550    2.29020   25.41290    2.29030    2.28340    2.29030    0.03110    0.00000    0.00000    0.00220    0.03110    0.00000    1.00000    0.22310    0.33000
 3324.90000    2.55590    2.55660    2.56030    2.55650    8.50000    8.69760    0.05900   71.18250  120.86930   45.36780 -999.25000    0.11270    6.27740    2.32610    2.03260    2.33250    2.55430    2.30970   25.93450    2.30980    2.33250    2.30980    0.05470    0.00000    0.00000    0.01560    0.05470    0.00000    1.00000    0.20620    0.27830
 3325.40000    2.56300    2.53960    2.55540    2.55430    8.50000    8.69760    0.05820   71.48570  121.84940   77.64880 -999.25000    0.12700    6.21350    2.22030    1.81980    2.35180    2.55130    2.48480   25.21590    2.48480    2.35180    2.48480    0.05640    0.00000    0.00000    0.00640    0.05640    0.00000    1.00000    0.00000    0.50080
 3325.90000    2.58500    2.56670    2.57400    2.56090    8.50000    8.69760    0.06430   69.81210  119.81620   46.01740 -999.25000    0.15890    6.53200    1.87270    1.38450    2.04190    2.56660    2.44350   24.73290    2.44360    2.04180    2.44360    0.04770    0.00000    0.00000    0.00910    0.04770    0.00000    1.00000    0.22550    0.28310
 3326.40000    2.60620    2.57840    2.57180    2.59200    8.50000    8.69760    0.04910   71.73140  121.75240   55.89960 -999.25000    0.08750    6.36650    0.87180    0.79810    1.14510    2.59020    1.60910   22.93210    1.60890    1.14500    1.60890    0.03420    0.00000    0.00000    0.00250    0.03420    0.00000    1.00000    0.18570    0.35120
 3326.90000    2.50420    2.55970    2.50310    2.46300    8.50000    8.61340    0.09900   81.31770  131.98690   47.18490 -999.25000    0.20340    5.74180    0.58290    0.60560    0.59430    2.48980    0.56750   21.15230    0.56750    0.59420    0.56750    0.09120    0.00000    0.00000    0.21690    0.09120    0.00000    1.00000    0.06640    0.29100
 3327.40000    2.33710    2.34140    2.32470    2.31490    8.50000    8.66370    0.04860   84.30500  134.69430   34.55190 -999.25000    0.19810    5.56360    0.51030    0.49140    0.48080    2.32430    0.48690   22.92310    0.48690    0.48080    0.48690    0.17090    0.00000    0.00000  353.25470    0.18610    1.00000    0.91850    0.00000    0.20380
 3327.90000    2.39490    2.39560    2.38220    2.36510    8.50000    8.63020    0.07370   84.62760  144.79140   38.43510 -999.25000    0.20660    5.86370    0.42510    0.44080    0.40520    2.37940    0.40310   26.01230    0.40310    0.40510    0.40310    0.15460    0.00000    0.00000   30.54190    0.15460    1.00000    1.00000    0.00000    0.23070
 3328.40000    2.29140    2.28990    2.29230    2.30730    8.50000    8.61300    0.04240   83.83720  141.95550   42.39510 -999.25000    0.21280    5.73470    0.51010    0.46480    0.50350    2.29020    0.53730   27.53270    0.53730    0.50360    0.53730    0.16690    0.00000    0.00000 1162.82320    0.20570    1.00000    0.81150    0.00000    0.25780
 3328.90000    2.37580    2.35480    2.38260    2.39330    8.50000    8.66370    0.04940   84.12350  140.82060   41.13830 -999.25000    0.18820    5.62780    0.49800    0.46540    0.54280    2.37710    0.58220   27.78650    0.58220    0.54270    0.58220    0.15550    0.00000    0.00000   31.02320    0.15590    1.00000    0.99710    0.00000    0.24920
 3329.40000    2.33100    2.34600    2.33360    2.33580    8.50000    8.66370    0.06210   84.44050  145.47090   38.85630 -999.25000    0.22200    5.60090    0.41330    0.42410    0.41280    2.32950    0.40620   27.89660    0.40620    0.41280    0.40620    0.18310    0.00000    0.00000  246.46010    0.18310    1.00000    1.00000    0.00000    0.23350
 3329.90000    2.31210    2.31900    2.34520    2.33030    8.50000    8.66370    0.04600   81.17850  138.70570   35.56330 -999.25000    0.21240    5.56910    0.39780    0.42200    0.38530    2.33020    0.37320   27.79830    0.37320    0.38530    0.37320    0.18280    0.00000    0.00000  267.85570    0.18280    1.00000    1.00000    0.00000    0.21080
 3330.40000    2.36290    2.36030    2.36910    2.37910    8.50000    8.66370    0.03760   78.45180  134.15770   39.61320 -999.25000    0.17970    5.89490    0.50120    0.47420    0.58430    2.37060    0.68690   27.91630    0.68680    0.58430    0.68680    0.14570    0.00000    0.00000   43.16020    0.15980    1.00000    0.91200    0.00000    0.23880
 3330.90000    2.34540    2.38570    2.37040    2.36260    8.50000    8.61320    0.05630   79.24680  139.08590   39.69600 -999.25000    0.19760    5.39430    0.45550    0.49520    0.47700    2.35840    0.46970   27.88780    0.46980    0.47700    0.46980    0.16650    0.00000    0.00000   70.73900    0.16650    1.00000    1.00000    0.00000    0.23940
