~Version ---------------------------------------------------
VERS.   2.0 : CWLS log ASCII Standard -VERSION 2.0
WRAP.    NO : One line per depth step
DLM . SPACE : Column Data Section Delimiter
~Well ------------------------------------------------------
STRT.ft          188.50000 : START DEPTH
STOP.ft         4770.50000 : STOP DEPTH
STEP.ft            0.50000 : STEP
NULL.              -999.25 : NULL VALUE
COMP. Statoil Petroleum AS : COMPANY
WELL.          15/9-F-11 B : WELL
FLD .                VOLVE : FIELD
LOC .      Maersk Inspirer : LOCATION
PROV.                      : PROVINCE
CNTY.                      : COUNTY
STAT.                      : STATE
CTRY.                      : COUNTRY
SRVC.                      : SERVICE COMPANY
DATE.                      : DATE
UWI .                      : UNIQUE WELL ID
API .                      : API NUMBER
~Curve Information -----------------------------------------
DEPT     .ft        : 
ABDCQF01 .g/cm3     : 
ABDCQF02 .g/cm3     : 
ABDCQF03 .g/cm3     : 
ABDCQF04 .g/cm3     : 
BS       .inches    : 
CALI     .inches    : 
DRHO     .g/cm3     : 
GR       .API       : 
NPHI     .v/v       : 
PEF      .b/elec    : 
RACEHM   .ohm.m     : 
RACELM   .ohm.m     : 
RD       .ohm.m     : 
RHOB     .g/cm3     : 
RM       .ohm.m     : 
ROP      .m/hr      : 
RPCEHM   .ohm.m     : 
RPCELM   .ohm.m     : 
RT       .ohm.m     : 
BVW      .v/v       : 
CARB_FLAG.unitless  : 
COAL_FLAG.unitless  : 
KLOGH    .mD        : 
PHIF     .v/v       : 
SAND_FLAG.UNKNOWN   : 
SW       .v/v       : 
VSH      .v/v       : 
~Params ----------------------------------------------------
~Other -----------------------------------------------------
PETROPHYSICAL_INTERPRETATION: INPUT

# --- LOG MNEMONICS AND UNITS ---
#Depth     ABDCQF01   ABDCQF02   ABDCQF03   ABDCQF04   BS         CALI       DRHO       GR         NPHI       PEF        RACEHM     RACELM     RD         RHOB       RM         ROP        RPCEHM     RPCELM     RT
#M         g/cm3      g/cm3      g/cm3      g/cm3      inches     inches     g/cm3      API        v/v        b/elec     ohm.m      ohm.m      ohm.m      g/cm3      ohm.m      m/hr       ohm.m      ohm.m      ohm.m
~ASCII -----------------------------------------------------
# ...
 3607.50000    2.49100    2.29600    2.36900    2.29300    8.50000    8.57800    0.06600   53.26000    0.19600    4.89800    3.61300    4.15300    3.91400    2.34700    4.12400   30.03700    4.12400    3.91400    4.12400    0.07900    0.00000    0.00000    0.94800    0.19200    1.00000    0.41200    0.39600
 3608.00000    2.50600    2.32300    2.38300    2.32000    8.50000    8.62500    0.07000   52.84600    0.20200    5.02700    3.69400    4.10600    3.92500    2.37100    4.24100   30.01000    4.24100    3.92500    4.24100    0.07800    0.00000    0.00000    0.91900    0.18700    1.00000    0.41700    0.39200
 3608.50000    2.43800    2.34700    2.55500    2.38400    8.50000    8.62500    0.06300   53.29000    0.21400    5.37800    3.80900    4.09400    3.83200    2.42500    4.12900   29.83200    4.12900    3.83200    4.12900    0.07300    0.00000    0.00000    0.29300    0.12900    1.00000    0.56800    0.39600
 3609.00000    2.46200    2.39300    2.33700    2.39400    8.50000    8.62500    0.06300   57.53700    0.19700    5.17800    3.83300    4.00700    3.96000    2.38200    4.32900   29.95600    4.32900    3.96000    4.32900    0.07700    0.00000    0.00000    0.37100    0.18100    1.00000    0.42800    0.43100
 3609.50000    2.52000    2.40500    2.35000    2.39100    8.50000    8.62500    0.06700   57.19400    0.19900    5.23300    3.91800    4.02900    4.00100    2.39600    4.45000   29.96400    4.45000    4.00100    4.45000    0.07600    0.00000    0.00000    0.36300    0.17600    1.00000    0.43100    0.42800
 3610.00000    2.56100    2.39200    2.32400    2.39300    8.50000    8.62500    0.06200   55.46500    0.19900    5.20500    4.21600    4.03200    4.27300    2.39500    4.94100   29.97200    4.94100    4.27300    4.94100    0.07300    0.00000    0.00000    0.49400    0.17700    1.00000    0.41000    0.41400
 3610.50000    2.59600    2.43600    2.32900    2.39200    8.50000    8.62500    0.05600   55.30600    0.20000    5.33000    4.50800    4.07000    4.67100    2.41200    5.80600   29.97900    5.80500    4.67100    5.80600    0.06500    0.00000    0.00000    0.23800    0.13600    1.00000    0.47500    0.41200
 3611.00000    2.69000    2.45700    2.38000    2.43500    8.50000    8.62500    0.08200   55.75800    0.19500    5.49500    4.67500    4.16800    4.74100    2.47100    5.84300   29.96500    5.84300    4.74100    5.84300    0.06100    0.00000    0.00000    0.11900    0.10300    1.00000    0.59500    0.41600
 3611.50000    2.68100    2.46900    2.40800    2.43700    8.50000    8.67200    0.07900   56.94000    0.19600    5.61600    4.82500    4.26000    4.68600    2.49100    5.50600   29.97700    5.50600    4.68600    5.50600    0.06100    0.00000    0.00000    0.07900    0.09100    0.00000    0.67300    0.42600
 3612.00000    2.71200    2.48400    2.41100    2.44900    8.50000    8.62500    0.05200   58.41800    0.19900    5.92200    4.64700    4.36700    4.52300    2.51500    5.02400   29.99800    5.02400    4.52300    5.02400    0.06200    0.00000    0.00000    0.04700    0.07700    0.00000    0.80100    0.43800
 3612.50000    2.79400    2.52300    2.44000    2.43700    8.50000    8.62500    0.08700   57.59900    0.19300    5.60800    4.61700    4.48500    4.38000    2.53800    4.78700   30.00400    4.78700    4.38000    4.78700    0.06000    0.00000    0.00000    0.04300    0.06400    0.00000    0.94900    0.43100
 3613.00000    2.67200    2.51100    2.32900    2.44200    8.50000    8.67200    0.03600   55.95600    0.19800    6.16900    4.99000    4.37000    5.02700    2.45800    6.24200   29.95100    6.24200    5.02700    6.24200    0.06000    0.00000    0.00000    0.13200    0.11000    1.00000    0.54800    0.41800
 3613.50000    2.76600    2.49700    2.36400    2.43200    8.50000    8.67200    0.06700   51.72700    0.19700    5.99700    5.41400    4.27400    6.31900    2.50000   10.05400   30.00400   10.05300    6.31900   10.05400    0.04700    0.00000    0.00000    0.17400    0.08600    0.00000    0.54300    0.38300
 3614.00000    2.74100    2.49700    2.36700    2.33500    8.50000    8.62500    0.07400   39.84400    0.19300    5.77000    6.99000    4.12500    7.54500    2.47200   17.71600   25.90900   17.71500    7.54500   17.71600    0.03700    0.00000    0.00000    1.75100    0.10200    1.00000    0.36600    0.28600
 3614.50000    2.66800    2.34600    2.36400    2.34300    8.50000    8.57800    0.08800   38.36200    0.20000    5.37800   10.70000    3.99800   10.16400    2.41000   52.78300   26.28000   52.78400   10.16400   52.78300    0.02500    0.00000    0.00000    4.31600    0.13700    1.00000    0.18500    0.27300
 3615.00000    2.41400    2.27900    2.33200    2.27600    8.50000    8.62500    0.06300   34.69200    0.19000    4.99500   10.83300    4.00200   11.49000    2.31600   72.68800   29.68800   72.67900   11.49000   72.68800    0.02400    0.00000    0.00000   26.04200    0.20100    1.00000    0.12000    0.24300
 3615.50000    2.32200    2.27600    2.31000    2.27300    8.50000    8.57800    0.06100   34.04500    0.18600    5.07000   13.10100    4.05700   13.56800    2.29500  159.81500   30.11100  159.81100   13.56800  159.81500    0.02100    0.00000    0.00000   32.28900    0.20600    1.00000    0.10100    0.23800
 3616.00000    2.33800    2.27300    2.30500    2.26700    8.50000    8.62500    0.05900   33.56300    0.17500    4.93600   14.44800    4.08100   15.07900    2.29300  504.44600   29.96300  504.56500   15.08000  504.44600    0.02000    0.00000    0.00000   32.60400    0.20300    1.00000    0.09900    0.23400
 3616.50000    2.30000    2.26800    2.32600    2.27400    8.50000    8.57800    0.05800   32.46700    0.17900    4.90900   15.11700    4.13000   14.93500    2.29500  368.27900   29.98200  367.49300   14.93500  368.27900    0.02000    0.00000    0.00000   39.70800    0.20300    1.00000    0.09700    0.22500
 3617.00000    2.29200    2.28100    2.29600    2.26900    8.50000    8.57800    0.04800   32.96600    0.18000    4.83100   18.74000    4.13500   16.41400    2.28200 1141.85800   29.86500 1141.35600   16.41400 1141.85800    0.02000    0.00000    0.00000   39.88900    0.20800    1.00000    0.09400    0.22900
 3617.50000    2.38000    2.29800    2.29800    2.27300    8.50000    8.57800    0.05600   36.44000    0.19300    4.98900   26.96000    4.18600   18.22900    2.30400 62290.77000   29.91800 62290.77000   18.22900 62290.77000    0.01900    0.00000    0.00000   21.25700    0.20600    1.00000    0.09400    0.25800
 3618.00000    2.49600    2.29600    2.30400    2.28800    8.50000    8.57800    0.06200   39.99900    0.20000    5.04200   26.89600    4.17900   19.27700    2.34000 10519.98100   29.97000 10491.46300   19.27700 10519.98100    0.01900    0.00000    0.00000    9.73400    0.19600    1.00000    0.09800    0.28700
 3618.50000    2.60000    2.32000    2.29400    2.29100    8.50000    8.62500    0.05900   43.95000    0.20500    5.18000   72.65000    4.15300   22.31700    2.34100 62290.77000   29.93700 62290.77000   22.31700 62290.77000    0.01900    0.00000    0.00000    5.11600    0.19800    1.00000    0.09800    0.31900
 3619.00000    2.68900    2.34900    2.28500    2.30300    8.50000    8.62500    0.07100   42.13900    0.21100    5.33400   78.17100    4.15100   18.65700    2.36000 62290.77000   29.91500 62290.77000   18.65600 62290.77000    0.01900    0.00000    0.00000    6.46600    0.19400    1.00000    0.09800    0.30400
 3619.50000    2.67800    2.34500    2.31400    2.30900    8.50000    8.62500    0.06800   47.00200    0.21100    5.44400 6381.09900    4.17800   21.62600    2.36200 62290.77000   29.98700 62290.77000   21.62500 62290.77000    0.01900    0.00000    0.00000    2.78600    0.19300    1.00000    0.09900    0.34400
 3620.00000    2.69500    2.34600    2.25600    2.32800    8.50000    8.62500    0.06200   49.30200    0.21600    5.48000 6381.09900    4.12500   23.37900    2.36300 62290.77000   30.00500 62290.77000   23.37800 62290.77000    0.01900    0.00000    0.00000    1.94100    0.19500    1.00000    0.09800    0.36300
