~Version ---------------------------------------------------
VERS.   2.0 : CWLS log ASCII Standard -VERSION 2.0
WRAP.    NO : One line per depth step
DLM . SPACE : Column Data Section Delimiter
~Well ------------------------------------------------------
STRT.ft          145.90000 : START DEPTH
STOP.ft         4684.90000 : STOP DEPTH
STEP.ft            0.50000 : STEP
NULL.              -999.25 : NULL VALUE
COMP. STATOIL PETROLEUM AS : COMPANY
WELL.          15/9-F-15 D : WELL
FLD .                VOLVE : FIELD
LOC .                      : LOCATION
PROV.                      : PROVINCE
CNTY.      MAERSK INSPIRER : COUNTY
STAT.                      : STATE
CTRY.                      : COUNTRY
SRVC.                      : SERVICE COMPANY
DATE.                      : DATE
UWI .                      : UNIQUE WELL ID
API .                      : API NUMBER
~Curve Information -----------------------------------------
DEPT     .ft        : 
ABDCQF01 .g/cm3     : 
ABDCQF02 .g/cm3     : 
ABDCQF03 .g/cm3     : 
ABDCQF04 .g/cm3     : 
BS       .inches    : 
CALI     .inches    : 
DRHO     .g/cm3     : 
GR       .API       : 
NBGRCFM  .API       : 
NPHI     .v/v       : 
PEF      .b/elec    : 
RACEHM   .ohm.m     : 
RACELM   .ohm.m     : 
RD       .ohm.m     : 
RHOB     .g/cm3     : 
RM       .ohm.m     : 
ROP      .m/hr      : 
RPCEHM   .ohm.m     : 
RPCELM   .ohm.m     : 
RT       .ohm.m     : 
BVW      .v/v       : 
COAL_FLAG.unitless  : 
KLOGH    .mD        : 
PHIF     .v/v       : 
SAND_FLAG.unitless  : 
SW       .v/v       : 
VCARB    .v/v       : 
VSH      .v/v       : 
~Params ----------------------------------------------------
~Other -----------------------------------------------------
PETROPHYSICAL INTERPRETATION: INPUT

# --- LOG MNEMONICS AND UNITS ---
#Depth          ABDCQF01        ABDCQF02        ABDCQF03        ABDCQF04        BS              CALI            DRHO            GR              NBGRCFM         NPHI            PEF             RACEHM          RACELM          RD              RHOB            RM              ROP             RPCEHM          RPCELM          RT
#M              g/cm3           g/cm3           g/cm3           g/cm3           inches          inches          g/cm3           API             API             v/v             b/elec          ohm.m           ohm.m           ohm.m           g/cm3           ohm.m           m/hr            ohm.m           ohm.m           ohm.m
~ASCII -----------------------------------------------------
# ...
 3233.40000   -0.09410   -0.11310   -0.40890   -0.48640   12.25000 -999.25000 -999.25000   17.67410 -999.25000 -999.25000 -999.25000    5.19200    5.20700    5.02450 -999.25000    4.99010   19.20300    4.99010    5.02450    5.00380 -999.25000 -999.25000 -999.25000 -999.25000 -999.25000 -999.25000 -999.25000 -999.25000
 3233.90000   -0.00270    0.40950   -0.28390   -0.24560   12.25000 -999.25000 -999.25000   10.88870 -999.25000 -999.25000 -999.25000    5.22010    5.27610    5.38960 -999.25000    5.57550   19.99830    5.57550    5.38960    5.53560 -999.25000 -999.25000 -999.25000 -999.25000 -999.25000 -999.25000 -999.25000 -999.25000
 3234.40000   -0.16480    0.00490   -0.43650   -0.82730   12.25000 -999.25000 -999.25000   10.00260 -999.25000 -999.25000 -999.25000    5.50760    5.40760    5.44690 -999.25000    5.51570   18.76840    5.51570    5.44690    5.54090 -999.25000 -999.25000 -999.25000 -999.25000 -999.25000 -999.25000 -999.25000 -999.25000
 3234.90000   -4.70990   -6.86850   -8.96060   -7.47930   12.25000 -999.25000 -999.25000   13.30390 -999.25000 -999.25000 -999.25000    5.56330    5.40200    5.63700 -999.25000    5.94540   17.50900    5.94540    5.63700    5.96720 -999.25000 -999.25000 -999.25000 -999.25000 -999.25000 -999.25000 -999.25000 -999.25000
 3235.40000    0.58160    0.51550   -0.29810   -0.21160   12.25000 -999.25000 -999.25000   14.00850 -999.25000 -999.25000 -999.25000    5.54950    5.39670    5.72800 -999.25000    6.27750   17.74960    6.27750    5.72800    6.28440 -999.25000 -999.25000 -999.25000 -999.25000 -999.25000 -999.25000 -999.25000 -999.25000
 3235.90000    0.03840   -0.30110   -0.11680   -0.33850   12.25000 -999.25000 -999.25000   13.73450 -999.25000 -999.25000 -999.25000    5.41180    5.33140    5.77340 -999.25000    6.55450   18.13010    6.55450    5.77340    6.55350 -999.25000 -999.25000 -999.25000 -999.25000 -999.25000 -999.25000 -999.25000 -999.25000
 3236.40000    0.25210    0.07420   -0.18510   -0.33980   12.25000 -999.25000 -999.25000   14.95230 -999.25000 -999.25000 -999.25000    5.27460    5.23930    5.70070 -999.25000    6.63140   17.70200    6.63140    5.70070    6.62780 -999.25000 -999.25000 -999.25000 -999.25000 -999.25000 -999.25000 -999.25000 -999.25000
 3236.90000    0.28840    0.26460   -0.25290   -0.25400   12.25000 -999.25000 -999.25000   14.39390 -999.25000 -999.25000 -999.25000    5.12790    5.16660    5.56850 -999.25000    6.49300   16.56910    6.49300    5.56860    6.47340 -999.25000 -999.25000 -999.25000 -999.25000 -999.25000 -999.25000 -999.25000 -999.25000
 3237.40000    0.51540    0.09530   -0.49550   -0.35620   12.25000 -999.25000 -999.25000   13.52200 -999.25000 -999.25000 -999.25000    4.91340    5.07240    5.30720 -999.25000    6.08170   15.10920    6.08180    5.30720    5.93120 -999.25000 -999.25000 -999.25000 -999.25000 -999.25000 -999.25000 -999.25000 -999.25000
 3237.90000   -0.39790   -0.92650   -2.24010   -1.90170   12.25000 -999.25000 -999.25000   14.45380 -999.25000 -999.25000 -999.25000    4.82870    5.06920    4.88070 -999.25000    5.13480   15.03290    5.13490    4.88070    5.09320 -999.25000 -999.25000 -999.25000 -999.25000 -999.25000 -999.25000 -999.25000 -999.25000
 3238.40000    0.10460   -0.61100   -2.55570   -1.75640   12.25000 -999.25000 -999.25000   19.09950 -999.25000 -999.25000 -999.25000    4.78310    5.10130    4.40880 -999.25000    4.15390   15.73320    4.15400    4.40890    4.07930 -999.25000 -999.25000 -999.25000 -999.25000 -999.25000 -999.25000 -999.25000 -999.25000
 3238.90000    0.39950    0.68000   -0.80600   -0.41780   12.25000 -999.25000 -999.25000   17.03420 -999.25000 -999.25000 -999.25000    4.48240    5.04650    4.25840 -999.25000    4.04040   16.39010    4.04040    4.25840    4.08930 -999.25000 -999.25000 -999.25000 -999.25000 -999.25000 -999.25000 -999.25000 -999.25000
 3239.40000    0.39940    0.16870   -0.20980   -0.44550   12.25000 -999.25000 -999.25000   10.65000 -999.25000 -999.25000 -999.25000    4.09970    4.88670    4.30160 -999.25000    4.28570   17.33220    4.28570    4.30160    4.25330 -999.25000 -999.25000 -999.25000 -999.25000 -999.25000 -999.25000 -999.25000 -999.25000
 3239.90000    0.20860    0.55490   -0.13160   -0.78870   12.25000 -999.25000 -999.25000    7.97210 -999.25000 -999.25000 -999.25000    4.07970    4.82390    4.22780 -999.25000    4.19190   18.87980    4.19190    4.22780    4.19580 -999.25000 -999.25000 -999.25000 -999.25000 -999.25000 -999.25000 -999.25000 -999.25000
 3240.40000    0.55420    0.45400    0.07840    0.03170   12.25000 -999.25000 -999.25000    6.91280 -999.25000 -999.25000 -999.25000    4.28140    4.81910    4.25870 -999.25000    4.22120   18.68750    4.22120    4.25870    4.24490 -999.25000 -999.25000 -999.25000 -999.25000 -999.25000 -999.25000 -999.25000 -999.25000
 3240.90000    0.09710    0.32920    0.10370   -0.54310   12.25000 -999.25000 -999.25000    6.24110 -999.25000 -999.25000 -999.25000    4.67330    4.86790    4.54850 -999.25000    4.66210   17.89920    4.66210    4.54850    4.67260 -999.25000 -999.25000 -999.25000 -999.25000 -999.25000 -999.25000 -999.25000 -999.25000
 3241.40000    0.22990    0.32200    0.10630   -0.42330   12.25000 -999.25000 -999.25000    7.54720 -999.25000 -999.25000 -999.25000    4.88610    4.90560    4.74320 -999.25000    5.03640   18.35850    5.03630    4.74320    5.07150 -999.25000 -999.25000 -999.25000 -999.25000 -999.25000 -999.25000 -999.25000 -999.25000
 3241.90000    0.01020    0.20020   -0.22050   -0.54910   12.25000 -999.25000 -999.25000    7.61040 -999.25000 -999.25000 -999.25000    5.04050    5.01330    5.19200 -999.25000    5.87120   18.80090    5.87120    5.19190    5.91940 -999.25000 -999.25000 -999.25000 -999.25000 -999.25000 -999.25000 -999.25000 -999.25000
 3242.40000    0.23220    0.11810   -0.37200   -0.56470   12.25000 -999.25000 -999.25000   11.30210 -999.25000 -999.25000 -999.25000    5.18050    5.17910    5.52280 -999.25000    6.39720   18.07320    6.39720    5.52280    6.41650 -999.25000 -999.25000 -999.25000 -999.25000 -999.25000 -999.25000 -999.25000 -999.25000
 3242.90000    0.37420    0.07880   -0.44480   -0.71080   12.25000 -999.25000 -999.25000   12.29880 -999.25000 -999.25000 -999.25000    5.31670    5.35410    5.79110 -999.25000    6.74530   17.32850    6.74530    5.79110    6.73860 -999.25000 -999.25000 -999.25000 -999.25000 -999.25000 -999.25000 -999.25000 -999.25000
 3243.40000    0.54170    0.14420   -0.44380   -0.44640   12.25000 -999.25000 -999.25000   12.11440 -999.25000 -999.25000 -999.25000    5.49410    5.55550    5.97810 -999.25000    6.91770   16.02170    6.91770    5.97800    6.94150 -999.25000 -999.25000 -999.25000 -999.25000 -999.25000 -999.25000 -999.25000 -999.25000
 3243.90000   -0.53480   -1.13710   -2.06040   -2.04940   12.25000 -999.25000 -999.25000   11.91430 -999.25000 -999.25000 -999.25000    5.66690    5.72210    6.23360 -999.25000    7.33090   15.39880    7.33090    6.23360    7.34340 -999.25000 -999.25000 -999.25000 -999.25000 -999.25000 -999.25000 -999.25000 -999.25000
 3244.40000    0.27110   -0.10870   -1.15510   -1.29130   12.25000 -999.25000 -999.25000   11.99760 -999.25000 -999.25000 -999.25000    5.87200    5.96790    6.38880 -999.25000    7.22650   14.22660    7.22650    6.38880    7.24420 -999.25000 -999.25000 -999.25000 -999.25000 -999.25000 -999.25000 -999.25000 -999.25000
 3244.90000    0.49510   -0.05490   -0.30630   -0.18780   12.25000 -999.25000 -999.25000   15.14380 -999.25000 -999.25000 -999.25000    5.88020    6.14700    6.68490 -999.25000    7.58110   13.10970    7.58110    6.68490    7.40750 -999.25000 -999.25000 -999.25000 -999.25000 -999.25000 -999.25000 -999.25000 -999.25000
 3245.40000    0.26090    0.25830   -0.49460   -0.45880   12.25000 -999.25000 -999.25000   23.25470 -999.25000 -999.25000 -999.25000    7.61140    6.84420    5.75850 -999.25000    5.07760   13.77710    5.07760    5.75850    5.03390 -999.25000 -999.25000 -999.25000 -999.25000 -999.25000 -999.25000 -999.25000 -999.25000
