~Version ---------------------------------------------------
VERS.   2.0 : CWLS log ASCII Standard -VERSION 2.0
WRAP.    NO : One line per depth step
DLM . SPACE : Column Data Section Delimiter
~Well ------------------------------------------------------
STRT.ft          145.90000 : START DEPTH
STOP.ft         4684.90000 : STOP DEPTH
STEP.ft            0.50000 : STEP
NULL.              -999.25 : NULL VALUE
COMP. STATOIL PETROLEUM AS : COMPANY
WELL.          15/9-F-15 D : WELL
FLD .                VOLVE : FIELD
LOC .                      : LOCATION
PROV.                      : PROVINCE
CNTY.      MAERSK INSPIRER : COUNTY
STAT.                      : STATE
CTRY.                      : COUNTRY
SRVC.                      : SERVICE COMPANY
DATE.                      : DATE
UWI .                      : UNIQUE WELL ID
API .                      : API NUMBER
~Curve Information -----------------------------------------
DEPT     .ft        : 
ABDCQF01 .g/cm3     : 
ABDCQF02 .g/cm3     : 
ABDCQF03 .g/cm3     : 
ABDCQF04 .g/cm3     : 
BS       .inches    : 
CALI     .inches    : 
DRHO     .g/cm3     : 
GR       .API       : 
NBGRCFM  .API       : 
NPHI     .v/v       : 
PEF      .b/elec    : 
RACEHM   .ohm.m     : 
RACELM   .ohm.m     : 
RD       .ohm.m     : 
RHOB     .g/cm3     : 
RM       .ohm.m     : 
ROP      .m/hr      : 
RPCEHM   .ohm.m     : 
RPCELM   .ohm.m     : 
RT       .ohm.m     : 
BVW      .v/v       : 
COAL_FLAG.unitless  : 
KLOGH    .mD        : 
PHIF     .v/v       : 
SAND_FLAG.unitless  : 
SW       .v/v       : 
VCARB    .v/v       : 
VSH      .v/v       : 
~Params ----------------------------------------------------
~Other -----------------------------------------------------
PETROPHYSICAL INTERPRETATION: INPUT

# --- LOG MNEMONICS AND UNITS ---
#Depth          ABDCQF01        ABDCQF02        ABDCQF03        ABDCQF04        BS              CALI            DRHO            GR              NBGRCFM         NPHI            PEF             RACEHM          RACELM          RD              RHOB            RM              ROP             RPCEHM          RPCELM          RT
#M              g/cm3           g/cm3           g/cm3           g/cm3           inches          inches          g/cm3           API             API             v/v             b/elec          ohm.m           ohm.m           ohm.m           g/cm3           ohm.m           m/hr            ohm.m           ohm.m           ohm.m
~ASCII -----------------------------------------------------
# ...
 4008.40000    2.52080    2.55720    2.56520    2.56580    8.50000    8.57810    0.04230   85.33930   81.58390    0.29940    6.56650    3.81930    6.85150    4.34150    2.55010    3.70110   29.40560    3.70110    4.34140    3.73550    0.05710    0.00000    0.00100    0.05710    0.00000    1.00000    0.00000    0.78540
 4008.90000    2.55490    2.56700    2.55040    2.56960    8.50000    8.57810    0.03770   81.74750   83.44010    0.30580    6.76340    4.14710    7.07230    4.58660    2.55640    3.91500   29.39010    3.91500    4.58660    3.88910    0.05350    0.00000    0.00100    0.05350    0.00000    1.00000    0.00000    0.73240
 4009.40000    2.52110    2.59350    2.57800    2.57830    8.50000    8.57810    0.04420   84.66730   80.16970    0.30540    6.49370    4.10610    7.00320    4.50080    2.56840    3.79510   29.41330    3.79500    4.50080    3.81080    0.04660    0.00000    0.00100    0.04660    0.00000    1.00000    0.00000    0.75530
 4009.90000    2.54180    2.56270    2.58570    2.56530    8.50000    8.57810    0.04200   85.23170   83.70340    0.28340    6.62940    3.99930    6.78900    4.37710    2.56620    3.68070   29.37400    3.68070    4.37710    3.68470    0.04790    0.00000    0.00100    0.04790    0.00000    1.00000    0.00000    0.76750
 4010.40000    2.55450    2.58260    2.68420    2.54280    8.50000    8.57810    0.06760   82.07910   78.73560    0.27250    6.52870    4.15290    6.65280    4.18320    2.61010    3.47260   29.35820    3.47260    4.18320    3.47860    0.02270    0.00000    0.00100    0.02270    0.00000    1.00000    0.00000    0.73930
 4010.90000    2.55950    2.58260    2.67660    2.54660    8.50000    8.57810    0.06930   81.62010   81.98900    0.28270    6.48480    3.83240    6.37200    3.97500    2.59700    3.38040   29.37640    3.38030    3.97500    3.39760    0.03030    0.00000    0.00100    0.03030    0.00000    1.00000    0.00000    0.72820
 4011.40000    2.54410    2.60140    2.65870    2.55630    8.50000    8.57810    0.06540   77.67830   72.86600    0.26790    6.36790    4.20580    6.25280    4.12360    2.59920    3.55770   29.38010    3.55760    4.12360    3.65270    0.02900    0.00000    0.00100    0.02900    0.00000    1.00000    0.00000    0.70770
 4011.90000    2.51950    2.55510    2.57840    2.52620    8.50000    8.57810    0.04940   74.27440   69.74330    0.25450    6.05560    4.97990    6.06550    4.85320    2.55110    4.69980   29.36310    4.69980    4.85310    4.69400    0.05650    0.00000    0.00100    0.05650    0.00000    1.00000    0.00000    0.68080
 4012.40000    2.54130    2.54160    2.56280    2.46450    8.50000    8.54710    0.03820   75.08930   73.07990    0.25010    6.09350    5.34070    6.09590    5.15090    2.51640    5.13340   29.35240    5.13340    5.15080    5.18920    0.06440    0.00000    0.00100    0.07630    0.00000    0.84350    0.00000    0.67530
 4012.90000    2.55010    2.55020    2.55710    2.41810    8.50000    8.54700    0.05480   71.69230   72.95320    0.24490    5.78180    5.62550    6.28850    5.67860    2.50250    5.63290   29.33900    5.63290    5.67860    5.58790    0.06320    0.00000    0.00100    0.08430    0.00000    0.74980    0.00000    0.63470
 4013.40000    2.46960    2.55360    2.54180    2.39760    8.50000    8.57810    0.04060   71.15800   71.36930    0.23780    5.78080    6.24550    6.68680    5.67340    2.47330    5.15120   29.37170    5.15110    5.67340    5.31730    0.06780    0.00000    0.00110    0.10100    0.00000    0.67150    0.00000    0.64090
 4013.90000    2.51110    2.55710    2.54560    2.44000    8.50000    8.57810    0.05620   70.32230   65.71300    0.24150    6.02780    6.46940    6.43030    6.48160    2.50530    7.01110   29.00260    7.01110    6.48160    7.07320    0.05750    0.00000    0.00110    0.08270    0.00000    0.69580    0.00000    0.62650
 4014.40000    2.50540    2.55910    2.53380    2.38990    8.50000    8.57810    0.05410   69.37840   66.23360    0.23940    5.87900    7.23530    6.35860    7.97480    2.49750    9.88430   20.62960    9.88390    7.97470   10.21720    0.05020    0.00000    0.00160    0.08710    0.00000    0.57610    0.00000    0.61070
 4014.90000    2.42630    2.56730    2.54950    2.37340    8.50000    8.57810    0.05310   66.91910   67.45670    0.23430    5.89340    8.81420    6.16680    8.95450    2.49590   14.03030   25.59880   14.03040    8.95450   13.97010    0.04350    0.00000    0.00170    0.08810    0.00000    0.49440    0.00000    0.60780
 4015.40000    2.43490    2.56520    2.53800    2.33240    8.50000    8.62490    0.04670   65.61660   64.75330    0.23240    5.96670   11.41020    5.60970   11.34670    2.48840   32.47540   31.09360   32.47370   11.34640   33.69330    0.04390    0.00000    0.00310    0.09230    0.00000    0.47590    0.00000    0.58380
 4015.90000    2.50460    2.55490    2.53410    2.36810    8.50000    8.62500    0.04820   62.47770   58.61870    0.22130    6.25190   15.84270    5.10130   18.08510    2.50150  212.83920   34.43430  212.40020   18.08470 10681.17380    0.04120    0.00000    0.00540    0.08490    0.00000    0.48550    0.00000    0.54920
 4016.40000    2.49360    2.53720    2.55620    2.38310    8.50000    8.60150    0.04830   61.02870   60.54660    0.21550    6.06820 6381.09910    4.98750   38.77610    2.50590 62290.76950   37.58300 62290.76950   38.77630 62290.76950    0.03940    0.00000    0.00700    0.08230    0.00000    0.47820    0.00000    0.53460
 4016.90000    2.46170    2.49710    2.54880    2.28200    8.50000    8.57810    0.04370   58.84470   55.61820    0.21120    5.72710 6381.09910    4.91740   43.96500    2.46820 62290.76950   34.96610 62290.76950   43.96300 62290.76950    0.04010    0.00000    0.01990    0.10390    0.00000    0.38640    0.00000    0.50370
 4017.40000    2.43420    2.47210    2.52730    2.30340    8.50000    8.57810    0.04710   52.25360   47.70190    0.21960    5.60990 6381.09910    5.07810  104.90050    2.44920 62290.76950   32.44310 62290.76950  104.89160 62290.76950    0.03990    0.00000    0.07420    0.11470    1.00000    0.34790    0.00000    0.44980
 4017.90000    2.39730    2.47020    2.51480    2.29880    8.50000    8.62500    0.05120   47.88860   49.58420    0.20700    5.50020 6381.09910    5.11940  139.56750    2.42750 62290.76950   31.77960 62290.76950  139.56290 62290.76950    0.04010    0.00000    0.19470    0.12710    1.00000    0.31570    0.00000    0.41410
 4018.40000    2.30630    2.46630    2.47490    2.24180    8.50000    8.57810    0.04830   47.01800   44.81550    0.18930    5.34850 6381.09910    5.18660  990.05770    2.37990 62290.76950   31.79180 62290.76950  990.20900 62290.76950    0.04260    0.00000    0.64480    0.17830    1.00000    0.23910    0.00000    0.40190
 4018.90000    2.25630    2.44980    2.45860    2.19880    8.50000    8.54680    0.04400   46.60500   45.91780    0.19180    4.97700 6381.09910    5.37500  158.57470    2.35480 62290.76950   31.76320 62290.76950  158.55600 62290.76950    0.04220    0.00000    1.19580    0.18790    1.00000    0.22450    0.00000    0.38060
 4019.40000    2.22280    2.45820    2.44590    2.19750    8.50000    8.54690    0.05450   50.89350   48.78910    0.18900    4.78730 6381.09910    5.26450  302.56290    2.33530 62290.76950   31.73160 62290.76950  302.59600 62290.76950    0.04300    0.00000    0.37460    0.19350    1.00000    0.22220    0.00000    0.44160
 4019.90000    2.20690    2.50410    2.58910    2.22120    8.50000    8.54690    0.04840   39.98090   36.19280    0.19560    4.96270 6381.09910    5.41340   95.00770    2.35910 62290.76950   31.69770 62290.76950   95.00870 62290.76950    0.04190    0.00000    2.42790    0.18800    1.00000    0.22280    0.00000    0.34650
 4020.40000    2.18760    2.45130    2.44210    2.19240    8.50000    8.54690    0.07100   36.69580   37.20370    0.18690    4.44450 6381.09910    5.54740   61.02900    2.31720 62290.76950   31.70640 62290.76950   61.02910 62290.76950    0.04240    0.00000    8.59780    0.19880    1.00000    0.21320    0.00000    0.29510
