~Version ---------------------------------------------------
VERS.   2.0 : CWLS log ASCII Standard -VERSION 2.0
WRAP.    NO : One line per depth step
DLM . SPACE : Column Data Section Delimiter
~Well ------------------------------------------------------
STRT.ft       145.90000 : START DEPTH
STOP.ft      4093.90000 : STOP DEPTH
STEP.ft         0.50000 : STEP
NULL.           -999.25 : NULL VALUE
COMP. Statoil Petroleum : COMPANY
WELL.        15/9-F-1 C : WELL
FLD .             VOLVE : FIELD
LOC .   Maersk Inspirer : LOCATION
PROV.                   : PROVINCE
CNTY.                   : COUNTY
STAT.                   : STATE
CTRY.                   : COUNTRY
SRVC.                   : SERVICE COMPANY
DATE.                   : DATE
UWI .                   : UNIQUE WELL ID
API .                   : API NUMBER
~Curve Information -----------------------------------------
DEPT        .ft        : 
ABDCQF01    .g/cm3     : 
ABDCQF02    .g/cm3     : 
ABDCQF03    .g/cm3     : 
ABDCQF04    .g/cm3     : 
BS          .inches    : 
CALI        .inches    : 
DRHO        .g/cm3     : 
GR          .API       : 
NBGRCFM     .API       : 
NPHI        .v/v       : 
PEF         .b/elec    : 
RACEHM      .ohm.m     : 
RACELM      .ohm.m     : 
RD          .ohm.m     : 
RHOB        .g/cm3     : 
RM          .ohm.m     : 
ROP         .m/hr      : 
RPCEHM      .ohm.m     : 
RPCELM      .ohm.m     : 
RT          .ohm.m     : 
BADDATA_FLAG.unitless  : 
BVW         .v/v       : 
COAL_FLAG   .unitless  : 
KLOGH       .mD        : 
PHIF        .v/v       : 
SAND_FLAG   .unitless  : 
SW          .v/v       : 
VCARB       .v/v       : 
VSH         .v/v       : 
~Params ----------------------------------------------------
~Other -----------------------------------------------------
PETROPHYSICAL INTERPRETATION: INPUT

# --- LOG MNEMONICS AND UNITS ---
#Depth          ABDCQF01        ABDCQF02        ABDCQF03        ABDCQF04        BS              CALI            DRHO            GR              NBGRCFM         NPHI            PEF             RACEHM          RACELM          RD              RHOB            RM              ROP             RPCEHM          RPCELM          RT
#M              g/cm3           g/cm3           g/cm3           g/cm3           inches          inches          g/cm3           API             API             v/v             b/elec          ohm.m           ohm.m           ohm.m           g/cm3           ohm.m           m/hr            ohm.m           ohm.m           ohm.m
~ASCII -----------------------------------------------------
# ...
 3195.90000    2.61300    2.61460    2.62080    2.61160    8.50000    8.52430    0.04750   50.25300   45.83770    0.19180    7.94240    3.06340    2.83420    3.18130    2.61210    3.71500   12.45450    3.71500    3.18130    3.71500 -999.25000 -999.25000 -999.25000 -999.25000 -999.25000 -999.25000 -999.25000 -999.25000 -999.25000
 3196.40000    2.58800    2.62200    2.59140    2.59310    8.50000    8.47550    0.04110   52.26860   56.48740    0.19370    7.85030    3.16150    2.91250    3.15770    2.59660    3.53760   15.50610    3.53760    3.15770    3.53760 -999.25000 -999.25000 -999.25000 -999.25000 -999.25000 -999.25000 -999.25000 -999.25000 -999.25000
 3196.90000    2.59740    2.58700    2.61350    2.61830    8.50000    8.47560    0.04050   44.88030   51.86130    0.19990    7.85750    3.16550    3.00590    3.16090    2.60220    3.39050   20.79740    3.39050    3.16090    3.39050 -999.25000 -999.25000 -999.25000 -999.25000 -999.25000 -999.25000 -999.25000 -999.25000 -999.25000
 3197.40000    2.61390    2.61750    2.61930    2.60250    8.50000    8.47540    0.04240   51.77800   56.72350    0.18830    7.90690    3.19870    3.06000    3.22730    2.61010    3.50610   25.00180    3.50610    3.22730    3.50610 -999.25000 -999.25000 -999.25000 -999.25000 -999.25000 -999.25000 -999.25000 -999.25000 -999.25000
 3197.90000    2.62500    2.61440    2.62950    2.61580    8.50000    8.47540    0.04300   51.55690   52.99750    0.18420    7.74050    3.23200    3.07320    3.29490    2.61830    3.64570   24.94300    3.64570    3.29490    3.64570 -999.25000 -999.25000 -999.25000 -999.25000 -999.25000 -999.25000 -999.25000 -999.25000 -999.25000
 3198.40000    2.63280    2.62950    2.60790    2.62180    8.50000    8.52430    0.04220   49.93010   52.61400    0.18710    8.07840    3.27790    3.08930    3.35770    2.62040    3.78180   24.79080    3.78170    3.35770    3.78180 -999.25000 -999.25000 -999.25000 -999.25000 -999.25000 -999.25000 -999.25000 -999.25000 -999.25000
 3198.90000    2.62550    2.64020    2.62430    2.64010    8.50000    8.42670    0.03930   50.51400   56.14400    0.16580    7.70610    3.30910    3.09870    3.36720    2.63170    3.83740   22.81600    3.83740    3.36720    3.83740 -999.25000 -999.25000 -999.25000 -999.25000 -999.25000 -999.25000 -999.25000 -999.25000 -999.25000
 3199.40000    2.62610    2.66110    2.64730    2.63730    8.50000    8.47550    0.04540   42.84040   49.22000    0.16660    8.21000    3.28560    3.10600    3.37070    2.64380    3.83730   21.65250    3.83740    3.37070    3.83730 -999.25000 -999.25000 -999.25000 -999.25000 -999.25000 -999.25000 -999.25000 -999.25000 -999.25000
 3199.90000    2.62240    2.61010    2.62080    2.62350    8.50000    8.49980    0.04090   52.19960   44.36190    0.20340    7.96260    3.32240    3.17670    3.38860    2.61500    3.77050   21.79000    3.77050    3.38860    3.77050 -999.25000 -999.25000 -999.25000 -999.25000 -999.25000 -999.25000 -999.25000 -999.25000 -999.25000
 3200.40000    2.62360    2.63560    2.64180    2.64090    8.50000    8.42670    0.03800   51.39360   56.29010    0.17900    7.78250    3.45080    3.27350    3.37210    2.63160    3.58530   22.04310    3.58530    3.37210    3.58530 -999.25000 -999.25000 -999.25000 -999.25000 -999.25000 -999.25000 -999.25000 -999.25000 -999.25000
 3200.90000    2.64500    2.67500    2.66680    2.67170    8.50000    8.42680    0.04310   46.20020   54.24110    0.16500    7.76780    3.51500    3.34360    3.57110    2.66070    3.85890   21.98780    3.85890    3.57110    3.85890 -999.25000 -999.25000 -999.25000 -999.25000 -999.25000 -999.25000 -999.25000 -999.25000 -999.25000
 3201.40000    2.67060    2.66450    2.65080    2.66510    8.50000    8.42670    0.04500   52.23580   45.64570    0.17710    7.72900    3.53760    3.34670    3.70660    2.65830    4.07760   21.81990    4.07760    3.70670    4.07760 -999.25000 -999.25000 -999.25000 -999.25000 -999.25000 -999.25000 -999.25000 -999.25000 -999.25000
 3201.90000    2.62660    2.63840    2.62030    2.63280    8.50000    8.45100    0.03960   56.22790   54.06350    0.18580    7.55750    3.57990    3.32140    3.67370    2.62650    3.96450   16.85480    3.96450    3.67370    3.96450 -999.25000 -999.25000 -999.25000 -999.25000 -999.25000 -999.25000 -999.25000 -999.25000 -999.25000
 3202.40000    2.63190    2.63110    2.62840    2.61470    8.50000    8.49970    0.03690   50.24770   58.62680    0.16350    7.81890    3.51310    3.15500    3.65190    2.62410    3.95020   16.83800    3.95020    3.65190    3.95020 -999.25000 -999.25000 -999.25000 -999.25000 -999.25000 -999.25000 -999.25000 -999.25000 -999.25000
 3202.90000    2.62600    2.64130    2.65980    2.63550    8.50000    8.39400    0.02890   51.16600   54.45440    0.15160    6.95200    3.48350    3.03770    3.62650    2.63660    3.94810   18.28680    3.94810    3.62650    3.94810 -999.25000 -999.25000 -999.25000 -999.25000 -999.25000 -999.25000 -999.25000 -999.25000 -999.25000
 3203.40000    2.64730    2.65980    2.64280    2.63410    8.50000    8.42690    0.04000   53.57220   55.70480    0.16600    7.42200    3.45370    2.90100    3.62920    2.64170    4.06600   19.79240    4.06600    3.62920    4.06600 -999.25000 -999.25000 -999.25000 -999.25000 -999.25000 -999.25000 -999.25000 -999.25000 -999.25000
 3203.90000    2.62650    2.64880    2.61200    2.62150    8.50000    8.52430    0.04660   61.46920   55.79910    0.18100    7.84340    3.53990    2.71150    3.66820    2.62510    4.18970   22.01810    4.18970    3.66820    4.18970 -999.25000 -999.25000 -999.25000 -999.25000 -999.25000 -999.25000 -999.25000 -999.25000 -999.25000
 3204.40000    2.62550    2.62390    2.61680    2.61520    8.50000    8.52430    0.04990   74.56300   64.91170    0.20190    7.70040    3.64220    2.64760    3.76330    2.61890    4.38090   25.60860    4.38080    3.76320    4.38090 -999.25000 -999.25000 -999.25000 -999.25000 -999.25000 -999.25000 -999.25000 -999.25000 -999.25000
 3204.90000    2.61860    2.62570    2.61760    2.60760    8.50000    8.45120    0.04400   79.82430   74.69320    0.22110    7.08910    4.09360    2.62420    4.00510    2.61530    4.77730   26.35810    4.77740    4.00520    4.77730 -999.25000 -999.25000 -999.25000 -999.25000 -999.25000 -999.25000 -999.25000 -999.25000 -999.25000
 3205.40000    2.62150    2.64430    2.67440    2.61710    8.50000    8.47550    0.03110  163.71340   88.45300    0.24160    7.09680    2.99780    2.38070    8.73260    2.63480  107.49470   25.98000   92.29300    8.73390  107.49470    0.00000 -999.25000 -999.25000 -999.25000 -999.25000 -999.25000 -999.25000 -999.25000 -999.25000
 3205.90000    2.62760    2.67380    2.82240    2.68750    8.50000    8.42690    0.00970  305.84900  129.59010    0.32490    8.58440    1.83580    2.06560    1.31610    2.70110    1.02120   25.43890    1.02130    1.31610    1.02120    0.00000 -999.25000 -999.25000 -999.25000 -999.25000 -999.25000 -999.25000 -999.25000 -999.25000
 3206.40000    2.62080    2.54310    2.60760    2.72660    8.50000    8.52440    0.05140  265.08290  319.52430    0.32240    7.91660    1.78220    1.91190    2.60230    2.61390    4.23850   24.97870    4.23860    2.60230    4.23850    0.00000 -999.25000 -999.25000 -999.25000 -999.25000 -999.25000 -999.25000 -999.25000 -999.25000
 3206.90000    2.46670    2.48380    2.49810    2.48410    8.50000    8.52430    0.03780  227.81820  311.31020    0.33500    7.12130    1.36570    2.07770    1.29470    2.48170    1.10670   24.95610    1.10660    1.29470    1.10670    0.00000 -999.25000 -999.25000 -999.25000 -999.25000 -999.25000 -999.25000 -999.25000 -999.25000
 3207.40000    2.57850    2.43120    2.35490    2.46010    8.50000    8.52430    0.05820  267.85020  240.59120    0.46720    7.75510    3.41200    2.51680    3.87470    2.43910    6.01760   24.99830    6.01740    3.87460    6.01760    0.00000 -999.25000 -999.25000 -999.25000 -999.25000 -999.25000 -999.25000 -999.25000 -999.25000
 3207.90000    2.29740    2.27990    2.28190    2.27400    8.50000    8.47560    0.03090  270.30800  279.87800    0.48510    7.66020    3.17730    2.56520    3.63500    2.27840    5.04710   24.97570    5.04700    3.63490    5.04710    0.00000 -999.25000 -999.25000 -999.25000 -999.25000 -999.25000 -999.25000 -999.25000 -999.25000
