~Version ---------------------------------------------------
VERS.   2.0 : CWLS log ASCII Standard -VERSION 2.0
WRAP.    NO : One line per depth step
DLM . SPACE : Column Data Section Delimiter
~Well ------------------------------------------------------
STRT.ft  239.87760 : START DEPTH
STOP.ft 4186.87760 : STOP DEPTH
STEP.ft    0.50000 : STEP
NULL.      -999.25 : NULL VALUE
COMP. STATOILHYDRO : COMPANY
WELL.    15/9-F-12 : WELL
FLD .        VOLVE : FIELD
LOC .      UNKNOWN : LOCATION
PROV.              : PROVINCE
CNTY.      UNKNOWN : COUNTY
STAT.      UNKNOWN : STATE
CTRY.       Norway : COUNTRY
SRVC.      UNKNOWN : SERVICE COMPANY
DATE.      UNKNOWN : DATE
UWI . NO 15/9-F-12 : UNIQUE WELL ID
API .              : API NUMBER
~Curve Information -----------------------------------------
DEPT     .ft           : 
CARB_FLAG.UNKNOWN      : 
COAL_FLAG.UNKNOWN      : 
DT       .us/ft        : 
GR       .API          : 
NPHI     .v/v_decimal  : 
RD       .UNKNOWN      : 
RHOB     .g/cm3        : 
ROP5_RM  .UNKNOWN      : 
RS       .UNKNOWN      : 
RT       .ohm.m        : 
SAND_FLAG.UNKNOWN      : 
BVW      .v/v_decimal  : 
KLOGH    .mD           : 
PHIF     .v/v_decimal  : 
SW       .v/v_decimal  : 
VSH      .v/v_decimal  : 
~Params ----------------------------------------------------
~Other -----------------------------------------------------
~ASCII -----------------------------------------------------
# ...
 1744.87760 -999.25000 -999.25000  131.37302  125.09023    0.48484    0.84881    1.72248   51.75560    1.05583    0.77536 -999.25000 -999.25000 -999.25000 -999.25000 -999.25000 -999.25000
 1745.37760 -999.25000 -999.25000  131.66028  121.36488    0.50671    0.86782    1.82024   51.80693    1.20058    0.81816 -999.25000 -999.25000 -999.25000 -999.25000 -999.25000 -999.25000
 1745.87760 -999.25000 -999.25000  131.89698  113.79914    0.65700    0.89089    1.71507   51.30598    1.14935    0.85183 -999.25000 -999.25000 -999.25000 -999.25000 -999.25000 -999.25000
 1746.37760 -999.25000 -999.25000  138.06054  118.81183    0.40029    0.87921    1.76790   51.70432    1.11639    0.83831 -999.25000 -999.25000 -999.25000 -999.25000 -999.25000 -999.25000
 1746.87760 -999.25000 -999.25000  134.14456  119.26109    0.45160    0.89309    1.71981   51.75560    1.08257    0.86788 -999.25000 -999.25000 -999.25000 -999.25000 -999.25000 -999.25000
 1747.37760 -999.25000 -999.25000  136.79697  114.89582    0.53102    0.91123    1.73883   51.75560    0.98927    0.84530 -999.25000 -999.25000 -999.25000 -999.25000 -999.25000 -999.25000
 1747.87760 -999.25000 -999.25000  138.71349  125.86332    0.59501    0.89684    1.72436   51.77544    1.07883    0.82318 -999.25000 -999.25000 -999.25000 -999.25000 -999.25000 -999.25000
 1748.37760 -999.25000 -999.25000  132.13251  126.45827    0.43214    0.91865    1.75148   51.75560    1.14280    0.81514 -999.25000 -999.25000 -999.25000 -999.25000 -999.25000 -999.25000
 1748.87760 -999.25000 -999.25000  132.34743  115.94876    0.49102    0.85429    1.84300   51.76634    1.24218    0.92400 -999.25000 -999.25000 -999.25000 -999.25000 -999.25000 -999.25000
 1749.37760 -999.25000 -999.25000  128.02566  136.40895    0.36158    0.85143    1.79950   51.75560    1.02393    0.73948 -999.25000 -999.25000 -999.25000 -999.25000 -999.25000 -999.25000
 1749.87760 -999.25000 -999.25000  139.29484  138.59960    0.39040    0.85624    1.77728   51.75560    1.11864    0.74233 -999.25000 -999.25000 -999.25000 -999.25000 -999.25000 -999.25000
 1750.37760 -999.25000 -999.25000  125.02246  130.41133    0.46247    0.84255    1.80167   51.75560    1.20490    0.76160 -999.25000 -999.25000 -999.25000 -999.25000 -999.25000 -999.25000
 1750.87760 -999.25000 -999.25000  124.29741  124.58103    0.43327    0.84814    1.84471   51.76669    1.15886    0.75833 -999.25000 -999.25000 -999.25000 -999.25000 -999.25000 -999.25000
 1751.37760 -999.25000 -999.25000  122.42410  128.06364    0.49872    0.84880    1.94459   51.75560    1.17604    0.74112 -999.25000 -999.25000 -999.25000 -999.25000 -999.25000 -999.25000
 1751.87760 -999.25000 -999.25000  135.30386  127.10528    0.45614    0.85503    1.84799   50.78973    1.13003    0.77797 -999.25000 -999.25000 -999.25000 -999.25000 -999.25000 -999.25000
 1752.37760 -999.25000 -999.25000  124.96713  131.49466    0.44436    0.87779    1.74664   50.02008    1.19361    0.78795 -999.25000 -999.25000 -999.25000 -999.25000 -999.25000 -999.25000
 1752.87760 -999.25000 -999.25000  126.71123  123.59845    0.53379    0.85315    1.83372   49.19509    1.07524    0.77973 -999.25000 -999.25000 -999.25000 -999.25000 -999.25000 -999.25000
 1753.37760 -999.25000 -999.25000  134.54207  134.13019    0.38079    0.85544    1.76396   49.43273    1.17588    0.79449 -999.25000 -999.25000 -999.25000 -999.25000 -999.25000 -999.25000
 1753.87760 -999.25000 -999.25000  132.87896  128.26223    0.51784    0.83854    1.80058   49.42892    1.27819    0.74757 -999.25000 -999.25000 -999.25000 -999.25000 -999.25000 -999.25000
 1754.37760 -999.25000 -999.25000  136.66667  119.99231    0.28350    0.85128    1.97988   49.27324    1.03273    0.77396 -999.25000 -999.25000 -999.25000 -999.25000 -999.25000 -999.25000
 1754.87760 -999.25000 -999.25000  135.34060  125.59208    0.42562    0.82257    1.82972   49.42970    0.91192    0.72119 -999.25000 -999.25000 -999.25000 -999.25000 -999.25000 -999.25000
 1755.37760 -999.25000 -999.25000  130.83180  124.34371    0.36955    0.82873    1.85050   49.42276    1.19701    0.74427 -999.25000 -999.25000 -999.25000 -999.25000 -999.25000 -999.25000
 1755.87760 -999.25000 -999.25000  135.83360  121.27304    0.38752    0.84268    1.81832   49.39590    1.17599    0.76443 -999.25000 -999.25000 -999.25000 -999.25000 -999.25000 -999.25000
 1756.37760 -999.25000 -999.25000  136.04100  132.66942    0.42182    0.85182    1.79621   49.41997    1.09228    0.80483 -999.25000 -999.25000 -999.25000 -999.25000 -999.25000 -999.25000
 1756.87760 -999.25000 -999.25000  135.03475  130.77323    0.62327    0.87103    1.82843   49.14928    1.11295    0.80475 -999.25000 -999.25000 -999.25000 -999.25000 -999.25000 -999.25000
 1757.37760 -999.25000 -999.25000  135.90720  118.56184    0.41335    0.84902    1.79452   49.43310    0.99930    0.79845 -999.25000 -999.25000 -999.25000 -999.25000 -999.25000 -999.25000
 1757.87760 -999.25000 -999.25000  135.32920  121.71600    0.36943    0.86350    1.78736   48.61590    1.00195    0.80963 -999.25000 -999.25000 -999.25000 -999.25000 -999.25000 -999.25000
 1758.37760 -999.25000 -999.25000  131.97779  130.03177    0.43948    0.85859    1.84050   47.71190    1.08635    0.79292 -999.25000 -999.25000 -999.25000 -999.25000 -999.25000 -999.25000
 1758.87760 -999.25000 -999.25000  139.40691  134.72787    0.39799    0.85631    1.83464   48.85585    1.03812    0.77521 -999.25000 -999.25000 -999.25000 -999.25000 -999.25000 -999.25000
 1759.37760 -999.25000 -999.25000  140.90761  124.18573    0.41565    0.85941    1.83078   49.31382    1.39352    0.82510 -999.25000 -999.25000 -999.25000 -999.25000 -999.25000 -999.25000
 1759.87760 -999.25000 -999.25000  130.96441  129.29176    0.43078    0.87931    1.85989   49.41766    1.04941    0.77279 -999.25000 -999.25000 -999.25000 -999.25000 -999.25000 -999.25000
 1760.37760 -999.25000 -999.25000  134.14666  118.82300    0.45508    0.88702    1.88464   49.87190    1.39949    0.87546 -999.25000 -999.25000 -999.25000 -999.25000 -999.25000 -999.25000
 1760.87760 -999.25000 -999.25000  131.24973  125.58866    0.51760    0.89785    1.88583   49.43310    1.45987    0.80026 -999.25000 -999.25000 -999.25000 -999.25000 -999.25000 -999.25000
 1761.37760 -999.25000 -999.25000  136.79391  122.01848    0.34588    0.86890    1.91493   49.42482    1.16964    0.75532 -999.25000 -999.25000 -999.25000 -999.25000 -999.25000 -999.25000
 1761.87760 -999.25000 -999.25000  129.86265  112.23471    0.48120    0.87114    1.79182   49.43146    1.30478    0.73416 -999.25000 -999.25000 -999.25000 -999.25000 -999.25000 -999.25000
 1762.37760 -999.25000 -999.25000  131.76828  115.25993    0.30788    0.90112    1.87943   49.87190    0.98872    0.77418 -999.25000 -999.25000 -999.25000 -999.25000 -999.25000 -999.25000
 1762.87760 -999.25000 -999.25000  122.05662  110.66754    0.23523    0.93020    1.90534   49.43148    1.30984    0.90456 -999.25000 -999.25000 -999.25000 -999.25000 -999.25000 -999.25000
 1763.37760 -999.25000 -999.25000  130.76153  113.63501    0.29853    1.00887    1.87397   49.43310    1.48418    0.90870 -999.25000 -999.25000 -999.25000 -999.25000 -999.25000 -999.25000
 1763.87760 -999.25000 -999.25000  135.71010  115.39810    0.28270    0.93000    2.06590   49.43310    1.77350    0.81300 -999.25000 -999.25000 -999.25000 -999.25000 -999.25000 -999.25000
 1764.37760 -999.25000 -999.25000  134.33492  112.93890    0.33656    0.83636    2.04801   49.87364    1.39177    0.76002 -999.25000 -999.25000 -999.25000 -999.25000 -999.25000 -999.25000
 1764.87760 -999.25000 -999.25000  136.53262  113.31055    0.34309    0.84208    2.06621   49.42563    0.97950    0.75863 -999.25000 -999.25000 -999.25000 -999.25000 -999.25000 -999.25000
 1765.37760 -999.25000 -999.25000  137.87526  113.94518    0.31768    0.82938    2.06601   49.43310    1.46558    0.74540 -999.25000 -999.25000 -999.25000 -999.25000 -999.25000 -999.25000
 1765.87760 -999.25000 -999.25000  135.24078  118.86326    0.38349    0.81718    2.05948   49.43207    0.96735    0.69771 -999.25000 -999.25000 -999.25000 -999.25000 -999.25000 -999.25000
