~Version ---------------------------------------------------
VERS.   2.0 : CWLS log ASCII Standard -VERSION 2.0
WRAP.    NO : One line per depth step
DLM . SPACE : Column Data Section Delimiter
~Well ------------------------------------------------------
STRT.ft          188.50000 : START DEPTH
STOP.ft         4770.50000 : STOP DEPTH
STEP.ft            0.50000 : STEP
NULL.              -999.25 : NULL VALUE
COMP. Statoil Petroleum AS : COMPANY
WELL.          15/9-F-11 B : WELL
FLD .                VOLVE : FIELD
LOC .      Maersk Inspirer : LOCATION
PROV.                      : PROVINCE
CNTY.                      : COUNTY
STAT.                      : STATE
CTRY.                      : COUNTRY
SRVC.                      : SERVICE COMPANY
DATE.                      : DATE
UWI .                      : UNIQUE WELL ID
API .                      : API NUMBER
~Curve Information -----------------------------------------
DEPT     .ft        : 
ABDCQF01 .g/cm3     : 
ABDCQF02 .g/cm3     : 
ABDCQF03 .g/cm3     : 
ABDCQF04 .g/cm3     : 
BS       .inches    : 
CALI     .inches    : 
DRHO     .g/cm3     : 
GR       .API       : 
NPHI     .v/v       : 
PEF      .b/elec    : 
RACEHM   .ohm.m     : 
RACELM   .ohm.m     : 
RD       .ohm.m     : 
RHOB     .g/cm3     : 
RM       .ohm.m     : 
ROP      .m/hr      : 
RPCEHM   .ohm.m     : 
RPCELM   .ohm.m     : 
RT       .ohm.m     : 
BVW      .v/v       : 
CARB_FLAG.unitless  : 
COAL_FLAG.unitless  : 
KLOGH    .mD        : 
PHIF     .v/v       : 
SAND_FLAG.UNKNOWN   : 
SW       .v/v       : 
VSH      .v/v       : 
~Params ----------------------------------------------------
~Other -----------------------------------------------------
PETROPHYSICAL_INTERPRETATION: INPUT

# --- LOG MNEMONICS AND UNITS ---
#Depth     ABDCQF01   ABDCQF02   ABDCQF03   ABDCQF04   BS         CALI       DRHO       GR         NPHI       PEF        RACEHM     RACELM     RD         RHOB       RM         ROP        RPCEHM     RPCELM     RT
#M         g/cm3      g/cm3      g/cm3      g/cm3      inches     inches     g/cm3      API        v/v        b/elec     ohm.m      ohm.m      ohm.m      g/cm3      ohm.m      m/hr       ohm.m      ohm.m      ohm.m
~ASCII -----------------------------------------------------
# ...
 3815.50000    2.90500    2.70000    2.81100    2.64300    8.50000    8.69900    0.06400   54.92100    0.34500    8.21000    1.92900    1.08400    1.88700    2.73000    5.03700   29.90400    5.03700    1.88700    5.03700    0.02000    1.00000    0.00000    0.01800    0.02000    0.00000    1.00000    0.43400
 3816.00000    2.95700    2.67100    2.91000    2.68700    8.50000    8.67200    0.09100   54.96400    0.35400    8.35800    2.07300    1.14000    2.02200    2.77700    5.22800   29.83700    5.22800    2.02200    5.22800    0.02000    1.00000    0.00000    0.01800    0.02000    0.00000    1.00000    0.43400
 3816.50000    2.99900    2.66300    2.86900    2.65800    8.50000    8.68700    0.08400   52.22000    0.36300    8.25300    2.56800    1.16500    2.29100    2.75900    6.00900   29.87100    6.00900    2.29100    6.00900    0.02000    1.00000    0.00000    0.02900    0.02000    0.00000    1.00000    0.41100
 3817.00000    3.03000    2.65200    3.05600    2.67600    8.50000    8.68800    0.09000   53.61800    0.34800    8.33800    2.90100    1.20400    2.43400    2.83800    5.75300   29.77300    5.75300    2.43400    5.75300    0.02000    1.00000    0.00000    0.02300    0.02000    0.00000    1.00000    0.42300
 3817.50000    2.92200    2.69400    3.17200    2.65200    8.50000    8.70300    0.10400   51.03300    0.34800    8.07900    3.02900    1.23600    2.59200    2.79600    5.95500   29.92500    5.95500    2.59200    5.95500    0.02000    1.00000    0.00000    0.03600    0.02000    0.00000    1.00000    0.40000
 3818.00000    2.85900    2.67300    3.10500    2.64300    8.50000    8.70300    0.07900   53.97300    0.34600    8.42500    3.01700    1.29300    2.56400    2.83800    6.17000   29.92400    6.16900    2.56400    6.17000    0.02000    1.00000    0.00000    0.02100    0.02000    0.00000    1.00000    0.42600
 3818.50000    3.04200    2.68700    3.15100    2.65600    8.50000    8.78100    0.10000   50.33600    0.33800    8.60800    3.07800    1.31800    2.61700    2.84500    6.69300   29.92000    6.69200    2.61700    6.69300    0.02000    1.00000    0.00000    0.04100    0.02000    0.00000    1.00000    0.39400
 3819.00000    2.69500    2.69800    3.17200    2.66700    8.50000    8.75000    0.05700   53.11500    0.33800    8.32500    2.99100    1.34500    2.49200    2.72800    7.17500   30.01400    7.17400    2.49200    7.17500    0.02000    1.00000    0.00000    0.02500    0.02000    0.00000    1.00000    0.41800
 3819.50000    2.72000    2.70100    3.17700    2.66100    8.50000    8.75000    0.04800   51.65200    0.34400    8.47500    2.65600    1.39500    2.44900    2.75000    7.18900   29.99700    7.18900    2.44900    7.18900    0.02000    1.00000    0.00000    0.03200    0.02000    0.00000    1.00000    0.40600
 3820.00000    2.68900    2.72900    3.18200    2.63500    8.50000    8.76800    0.03900   52.10200    0.33000    8.69300    2.35700    1.44500    2.35600    2.74900    6.86100   29.96500    6.86200    2.35700    6.86100    0.02000    1.00000    0.00000    0.03000    0.02000    0.00000    1.00000    0.41000
 3820.50000    2.67800    2.83900    3.11400    2.72200    8.50000    8.70300    0.02600   48.85500    0.32700    8.82600    1.95700    1.53700    2.16400    2.79700    4.54800   29.93200    4.54800    2.16400    4.54800    0.02000    1.00000    0.00000    0.05400    0.02000    0.00000    1.00000    0.38100
 3821.00000    2.63900    2.84700    3.10800    2.66900    8.50000    8.75000    0.01800   50.11700    0.33200    9.27800    1.80500    1.59300    2.02500    2.76300    3.76700   29.98400    3.76700    2.02500    3.76700    0.02000    1.00000    0.00000    0.04300    0.02000    0.00000    1.00000    0.39200
 3821.50000    2.61400    2.92300    2.94600    2.69000    8.50000    8.94400    0.07500   50.97200    0.37500   10.06300    1.69600    1.61100    1.98700    2.80500    3.60200   29.95200    3.60200    1.98700    3.60200    0.02000    1.00000    0.00000    0.03600    0.02000    0.00000    1.00000    0.40000
 3822.00000    2.56000    2.81400    2.83300    2.70100    8.50000    8.93300    0.03000   52.16500    0.37200   10.69300    1.75600    1.62300    2.16600    2.77600    4.61200   29.92000    4.61200    2.16600    4.61200    0.02000    1.00000    0.00000    0.02900    0.02000    0.00000    1.00000    0.41000
 3822.50000    2.85100    2.77900    2.78100    2.90600    8.50000    8.91300    0.02800   49.48000    0.36800   11.15800    1.74500    1.61800    2.31100    2.81400    5.48200   29.97200    5.48200    2.31100    5.48200    0.02000    1.00000    0.00000    0.04800    0.02000    0.00000    1.00000    0.38700
 3823.00000    2.88600    2.73300    2.70800    2.96700    8.50000    8.94600    0.09900   48.92700    0.40800   10.98200    1.71800    1.64200    2.31000    2.79400    5.24800   29.94000    5.24700    2.31000    5.24800    0.02000    1.00000    0.00000    0.05300    0.02000    0.00000    1.00000    0.38200
 3823.50000    2.76300    2.69600    2.65000    2.82400    8.50000    8.97100    0.07700   44.07800    0.38300   10.88400    2.07600    1.79700    2.04200    2.72500    2.75800   29.66400    2.75800    2.04200    2.75800    0.02000    1.00000    0.00000    0.12600    0.02000    0.00000    1.00000    0.34000
 3824.00000    2.69400    2.75000    2.66600    2.77200    8.50000    8.90600    0.05300   42.68700    0.36700   10.33700    1.97900    1.79200    2.02700    2.70900    2.58200   29.95900    2.58200    2.02700    2.58200    0.02000    1.00000    0.00000    0.16200    0.02000    0.00000    1.00000    0.32800
 3824.50000    2.81600    2.70100    2.63200    2.75600    8.50000    8.95300    0.07200   43.53900    0.36700   10.39400    2.01000    1.81900    1.89900    2.69600    2.13700   29.92700    2.13700    1.89900    2.13700    0.02000    1.00000    0.00000    0.13900    0.02000    0.00000    1.00000    0.33500
 3825.00000    2.99300    2.77500    2.64700    2.73900    8.50000    8.94600    0.07200   37.99600    0.33500   10.53500    1.99500    1.82900    1.80300    2.74700    1.89500   29.89500    1.89600    1.80300    1.89500    0.02000    1.00000    0.00000    0.37800    0.02000    0.00000    1.00000    0.28700
 3825.50000    2.92000    2.74300    2.70800    2.71800    8.50000    8.87500    0.09600   34.88200    0.35000   10.33500    1.84500    1.79800    1.63800    2.76600    1.62500   29.94700    1.62600    1.63800    1.62500    0.02000    1.00000    0.00000    0.66300    0.02000    0.00000    1.00000    0.26000
 3826.00000    2.70500    2.69600    2.82300    2.69300    8.50000    8.80300    0.07900   35.07000    0.33100    9.50300    1.83200    1.72700    1.70900    2.73200    1.89800   29.91800    1.89800    1.70900    1.89800    0.02000    1.00000    0.00000    0.64100    0.02000    0.00000    1.00000    0.26200
 3826.50000    2.67600    2.62300    2.61600    2.71300    8.50000    8.87100    0.08300   37.65900    0.34400    9.25800    1.81500    1.73100    1.74600    2.64600    2.00800   29.90900    2.00800    1.74500    2.00800    0.02000    0.00000    0.00000    0.40200    0.02000    0.00000    1.00000    0.28400
 3827.00000    2.66800    2.63800    2.66500    2.68200    8.50000    8.84600    0.07300   39.15000    0.33400    9.45800    1.85500    1.75100    1.84300    2.65500    2.09900   29.72300    2.09900    1.84300    2.09900    0.02000    0.00000    0.00000    0.30700    0.02000    0.00000    1.00000    0.29700
 3827.50000    2.74700    2.70200    2.76000    2.77000    8.50000    8.78100    0.06400   36.49200    0.31800    9.61700    1.77100    1.71000    1.80300    2.74400    2.21600   29.64400    2.21600    1.80300    2.21600    0.02000    1.00000    0.00000    0.49600    0.02000    0.00000    1.00000    0.27400
 3828.00000    2.72900    2.68300    2.79000    2.67600    8.50000    8.78100    0.08600   34.26800    0.35000    9.54100    1.86200    1.71100    1.87100    2.71900    2.52500   29.77400    2.52500    1.87100    2.52500    0.02000    1.00000    0.00000    0.74100    0.02000    0.00000    1.00000    0.25500
