~Version ---------------------------------------------------
VERS.   2.0 : CWLS log ASCII Standard -VERSION 2.0
WRAP.    NO : One line per depth step
DLM . SPACE : Column Data Section Delimiter
~Well ------------------------------------------------------
STRT.ft          188.50000 : START DEPTH
STOP.ft         3762.00000 : STOP DEPTH
STEP.ft            0.50000 : STEP
NULL.              -999.25 : NULL VALUE
COMP. Statoil Petroleum AS : COMPANY
WELL.          15/9-F-11 A : WELL
FLD .                VOLVE : FIELD
LOC .      Maersk Inspirer : LOCATION
PROV.                      : PROVINCE
CNTY.                      : COUNTY
STAT.                      : STATE
CTRY.                      : COUNTRY
SRVC.                      : SERVICE COMPANY
DATE.                      : DATE
UWI .                      : UNIQUE WELL ID
API .                      : API NUMBER
~Curve Information -----------------------------------------
DEPT     .ft       : 
ABDCQF01 .g/cm3    : 
ABDCQF02 .g/cm3    : 
ABDCQF03 .g/cm3    : 
ABDCQF04 .g/cm3    : 
BS       .inches   : 
CALI     .inches   : 
DRHO     .g/cm3    : 
DT       .us/ft    : 
DTS      .us/ft    : 
GR       .API      : 
NPHI     .v/v      : 
PEF      .b/elec   : 
RACEHM   .ohm.m    : 
RACELM   .ohm.m    : 
RD       .ohm.m    : 
RHOB     .g/cm3    : 
RM       .ohm.m    : 
ROP      .m/hr     : 
RPCEHM   .ohm.m    : 
RPCELM   .ohm.m    : 
RT       .ohm.m    : 
BVW      .v/v      : 
CARB_FLAG.UNKNOWN  : 
COAL_FLAG.UNKNOWN  : 
KLOGH    .mD       : 
PHIF     .v/v      : 
SAND_FLAG.UNKNOWN  : 
SW       .v/v      : 
VSH      .v/v      : 
~Params ----------------------------------------------------
~Other -----------------------------------------------------
PETROPHYSICAL_INTERPRETATION: INPUT

# --- LOG MNEMONICS AND UNITS ---
#Depth     ABDCQF01   ABDCQF02   ABDCQF03   ABDCQF04   BS         CALI       DRHO       DT         DTS        GR         NPHI       PEF        RACEHM     RACELM     RD         RHOB       RM         ROP        RPCEHM     RPCELM     RT
#M         g/cm3      g/cm3      g/cm3      g/cm3      inches     inches     g/cm3      us/ft      us/ft      API        v/v        b/elec     ohm.m      ohm.m      ohm.m      g/cm3      ohm.m      m/hr       ohm.m      ohm.m      ohm.m
~ASCII -----------------------------------------------------
# ...
 2801.00000    2.48500    2.50300    2.48200    2.50700    8.50000    8.62500    0.06300   74.06700  139.04000   10.24000    0.16300    8.11100    1.77700    1.80800    1.88700    2.48800    2.07400   17.33400    2.07400    1.88700    2.07400 -999.25000 -999.25000 -999.25000 -999.25000 -999.25000 -999.25000 -999.25000 -999.25000
 2801.50000    2.45600    2.44400    2.47300    2.45400    8.50000    8.62500    0.05400   73.85200  138.34900    8.21400    0.16800    8.01600    1.71600    1.76900    1.79900    2.45700    1.91300   19.30900    1.91300    1.79900    1.91300 -999.25000 -999.25000 -999.25000 -999.25000 -999.25000 -999.25000 -999.25000 -999.25000
 2802.00000    2.44000    2.46600    2.47800    2.45000    8.50000    8.62500    0.04700   74.19000  141.99100    8.39500    0.17600    7.87500    1.64900    1.72900    1.72000    2.46100    1.78400   20.13500    1.78400    1.72000    1.78400 -999.25000 -999.25000 -999.25000 -999.25000 -999.25000 -999.25000 -999.25000 -999.25000
 2802.50000    2.49000    2.49300    2.46200    2.49000    8.50000    8.62500    0.05900   74.95400  143.73500   15.51600    0.16800    7.97400    1.59400    1.67800    1.72300    2.47600    1.89100   20.73600    1.89100    1.72300    1.89100 -999.25000 -999.25000 -999.25000 -999.25000 -999.25000 -999.25000 -999.25000 -999.25000
 2803.00000    2.43700    2.45500    2.45200    2.46100    8.50000    8.62500    0.06100   74.10600  137.65900    8.04400    0.17500    8.11400    1.55900    1.63800    1.64500    2.45000    1.72200   20.80900    1.72200    1.64500    1.72200 -999.25000 -999.25000 -999.25000 -999.25000 -999.25000 -999.25000 -999.25000 -999.25000
 2803.50000    2.43900    2.42500    2.44700    2.43300    8.50000    8.62500    0.05200   74.05700  138.78000    8.26100    0.17900    8.00800    1.55600    1.60700    1.57900    2.43800    1.58600   20.66500    1.58600    1.57900    1.58600 -999.25000 -999.25000 -999.25000 -999.25000 -999.25000 -999.25000 -999.25000 -999.25000
 2804.00000    2.45400    2.47600    2.47600    2.47000    8.50000    8.62500    0.05300   73.97800  138.80100   10.02700    0.16200    8.02700    1.53300    1.57500    1.59000    2.47100    1.67800   21.87900    1.67800    1.59000    1.67800 -999.25000 -999.25000 -999.25000 -999.25000 -999.25000 -999.25000 -999.25000 -999.25000
 2804.50000    2.48100    2.45900    2.43000    2.46600    8.50000    8.62500    0.05600   74.07600  137.82300    7.46700    0.17300    7.99000    1.49000    1.55300    1.60100    2.44800    1.75700   22.44900    1.75700    1.60100    1.75700 -999.25000 -999.25000 -999.25000 -999.25000 -999.25000 -999.25000 -999.25000 -999.25000
 2805.00000    2.42600    2.43400    2.45100    2.43300    8.50000    8.62500    0.04800   74.91100  141.26800    9.09800    0.17800    8.00100    1.52500    1.57200    1.58300    2.44100    1.65600   22.04700    1.65600    1.58300    1.65600 -999.25000 -999.25000 -999.25000 -999.25000 -999.25000 -999.25000 -999.25000 -999.25000
 2805.50000    2.45500    2.45100    2.42500    2.46900    8.50000    8.62500    0.05900   75.08500  142.58000   11.71300    0.17200    8.03700    1.51800    1.60200    1.63000    2.44400    1.73300   21.89600    1.73300    1.63000    1.73300 -999.25000 -999.25000 -999.25000 -999.25000 -999.25000 -999.25000 -999.25000 -999.25000
 2806.00000    2.41600    2.43100    2.47100    2.43300    8.50000    8.62500    0.05000   74.51300  141.38500    8.95800    0.17000    8.09300    1.61600    1.67500    1.61500    2.44300    1.58800   21.91300    1.58800    1.61500    1.58800 -999.25000 -999.25000 -999.25000 -999.25000 -999.25000 -999.25000 -999.25000 -999.25000
 2806.50000    2.48100    2.47900    2.48800    2.45100    8.50000    8.62500    0.05100   74.92700  140.96900   11.45000    0.16200    8.09800    1.64600    1.72100    1.73200    2.47500    1.83200   22.83600    1.83200    1.73200    1.83200 -999.25000 -999.25000 -999.25000 -999.25000 -999.25000 -999.25000 -999.25000 -999.25000
 2807.00000    2.48400    2.49800    2.47700    2.50000    8.50000    8.62500    0.05600   73.83300  139.52200   10.88000    0.15500    8.05400    1.72700    1.78000    1.86300    2.48900    2.04700   22.87000    2.04700    1.86300    2.04700 -999.25000 -999.25000 -999.25000 -999.25000 -999.25000 -999.25000 -999.25000 -999.25000
 2807.50000    2.48100    2.49000    2.49800    2.49300    8.50000    8.64900    0.05300   74.29700  142.86400   12.84000    0.15900    8.24600    1.85600    1.85200    1.93600    2.49100    2.09000   22.39100    2.09000    1.93600    2.09000 -999.25000 -999.25000 -999.25000 -999.25000 -999.25000 -999.25000 -999.25000 -999.25000
 2808.00000    2.52200    2.51800    2.52200    2.52100    8.50000    8.62500    0.06000   74.61700  141.58200   15.14500    0.15100    8.29900    1.95300    1.91000    2.04000    2.51900    2.24800   22.63200    2.24800    2.04000    2.24800 -999.25000 -999.25000 -999.25000 -999.25000 -999.25000 -999.25000 -999.25000 -999.25000
 2808.50000    2.49400    2.54100    2.52600    2.52700    8.50000    8.62500    0.05700   74.28200  139.79800   12.36000    0.14400    8.13700    1.97000    1.92900    2.07600    2.52300    2.35800   22.95400    2.35800    2.07600    2.35800 -999.25000 -999.25000 -999.25000 -999.25000 -999.25000 -999.25000 -999.25000 -999.25000
 2809.00000    2.51200    2.52100    2.52800    2.51100    8.50000    8.62500    0.05800   73.91800  141.04400   13.96100    0.15600    8.23600    1.90300    1.91200    2.06900    2.51700    2.41900   22.73500    2.41900    2.06900    2.41900 -999.25000 -999.25000 -999.25000 -999.25000 -999.25000 -999.25000 -999.25000 -999.25000
 2809.50000    2.48500    2.47300    2.47200    2.47100    8.50000    8.62500    0.05300   74.60400  141.29600   13.71700    0.16700    7.82700    1.82400    1.89800    1.90300    2.47200    2.04800   22.51400    2.04800    1.90300    2.04800 -999.25000 -999.25000 -999.25000 -999.25000 -999.25000 -999.25000 -999.25000 -999.25000
 2810.00000    2.49100    2.48900    2.46900    2.47200    8.50000    8.62500    0.06000   75.58900  143.40200   14.19400    0.17900    8.10900    1.73500    1.88300    1.81300    2.47500    1.89000   22.36500    1.89000    1.81300    1.89000 -999.25000 -999.25000 -999.25000 -999.25000 -999.25000 -999.25000 -999.25000 -999.25000
 2810.50000    2.45800    2.49300    2.48500    2.46500    8.50000    8.62500    0.05400   75.88900  143.96500   12.31500    0.17100    8.38400    1.73900    1.89500    1.74500    2.47700    1.72500   22.24700    1.72500    1.74500    1.72500 -999.25000 -999.25000 -999.25000 -999.25000 -999.25000 -999.25000 -999.25000 -999.25000
 2811.00000    2.48000    2.49000    2.50000    2.47500    8.50000    8.62500    0.05600   75.25400  137.69600   11.22700    0.15700    8.10900    1.75400    1.90700    1.76000    2.48500    1.77500   22.29700    1.77500    1.76000    1.77500 -999.25000 -999.25000 -999.25000 -999.25000 -999.25000 -999.25000 -999.25000 -999.25000
 2811.50000    2.48700    2.51700    2.52200    2.49300    8.50000    8.62500    0.05500   75.40600  140.51000   16.04800    0.15700    8.24900    1.79000    1.92000    1.86300    2.50700    1.96000   22.58000    1.96000    1.86300    1.96000 -999.25000 -999.25000 -999.25000 -999.25000 -999.25000 -999.25000 -999.25000 -999.25000
 2812.00000    2.52200    2.54300    2.51000    2.52600    8.50000    8.62500    0.05500   75.83200  145.96200   13.78500    0.14500    7.99300    2.08600    2.10000    2.19000    2.52200    2.50300   22.99500    2.50300    2.19000    2.50300 -999.25000 -999.25000 -999.25000 -999.25000 -999.25000 -999.25000 -999.25000 -999.25000
 2812.50000    2.53400    2.53100    2.53900    2.53700    8.50000    8.62500    0.05600   75.44700  143.51200   15.44300    0.14400    8.10300    2.13000    2.19200    2.28900    2.53400    2.63200   24.07000    2.63200    2.28900    2.63200 -999.25000 -999.25000 -999.25000 -999.25000 -999.25000 -999.25000 -999.25000 -999.25000
 2813.00000    2.53000    2.52300    2.50900    2.52000    8.50000    8.62500    0.05400   74.64900  140.73600   13.17700    0.14800    7.92300    2.17700    2.28800    2.31000    2.51400    2.57900   23.76900    2.57900    2.31000    2.57900 -999.25000 -999.25000 -999.25000 -999.25000 -999.25000 -999.25000 -999.25000 -999.25000
