~Version ---------------------------------------------------
VERS.   2.0 : CWLS log ASCII Standard -VERSION 2.0
WRAP.    NO : One line per depth step
DLM . SPACE : Column Data Section Delimiter
~Well ------------------------------------------------------
STRT.ft          188.50000 : START DEPTH
STOP.ft         4770.50000 : STOP DEPTH
STEP.ft            0.50000 : STEP
NULL.              -999.25 : NULL VALUE
COMP. Statoil Petroleum AS : COMPANY
WELL.          15/9-F-11 B : WELL
FLD .                VOLVE : FIELD
LOC .      Maersk Inspirer : LOCATION
PROV.                      : PROVINCE
CNTY.                      : COUNTY
STAT.                      : STATE
CTRY.                      : COUNTRY
SRVC.                      : SERVICE COMPANY
DATE.                      : DATE
UWI .                      : UNIQUE WELL ID
API .                      : API NUMBER
~Curve Information -----------------------------------------
DEPT     .ft        : 
ABDCQF01 .g/cm3     : 
ABDCQF02 .g/cm3     : 
ABDCQF03 .g/cm3     : 
ABDCQF04 .g/cm3     : 
BS       .inches    : 
CALI     .inches    : 
DRHO     .g/cm3     : 
GR       .API       : 
NPHI     .v/v       : 
PEF      .b/elec    : 
RACEHM   .ohm.m     : 
RACELM   .ohm.m     : 
RD       .ohm.m     : 
RHOB     .g/cm3     : 
RM       .ohm.m     : 
ROP      .m/hr      : 
RPCEHM   .ohm.m     : 
RPCELM   .ohm.m     : 
RT       .ohm.m     : 
BVW      .v/v       : 
CARB_FLAG.unitless  : 
COAL_FLAG.unitless  : 
KLOGH    .mD        : 
PHIF     .v/v       : 
SAND_FLAG.UNKNOWN   : 
SW       .v/v       : 
VSH      .v/v       : 
~Params ----------------------------------------------------
~Other -----------------------------------------------------
PETROPHYSICAL_INTERPRETATION: INPUT

# --- LOG MNEMONICS AND UNITS ---
#Depth     ABDCQF01   ABDCQF02   ABDCQF03   ABDCQF04   BS         CALI       DRHO       GR         NPHI       PEF        RACEHM     RACELM     RD         RHOB       RM         ROP        RPCEHM     RPCELM     RT
#M         g/cm3      g/cm3      g/cm3      g/cm3      inches     inches     g/cm3      API        v/v        b/elec     ohm.m      ohm.m      ohm.m      g/cm3      ohm.m      m/hr       ohm.m      ohm.m      ohm.m
~ASCII -----------------------------------------------------
# ...
 3412.50000    2.52400    2.58700    2.57000    2.55900    8.50000    8.62400    0.05400   28.58200    0.12500    6.43900    4.27000    2.82400    4.52500    2.55200    6.08200   20.03300    6.08200    4.52500    6.08200    0.06000    1.00000    0.00000    4.72800    0.06500    0.00000    0.92300    0.20500
 3413.00000    2.65600    2.59200    2.58800    2.62100    8.50000    8.60900    0.05500   28.42400    0.11900    6.80000    3.87300    2.64800    4.55800    2.60500    7.34800   19.76500    7.34800    4.55800    7.34800    0.03300    1.00000    0.00000    2.69700    0.03300    0.00000    1.00000    0.20400
 3413.50000    2.65900    2.65100    2.68500    2.69600    8.50000    8.60900    0.05600   28.59600    0.09400    7.32000    3.69700    2.49700    4.07900    2.66600    6.99100   24.52100    6.99100    4.07900    6.99100    0.02000    1.00000    0.00000    2.05900    0.02000    0.00000    1.00000    0.20500
 3414.00000    2.72600    2.67300    2.70500    2.69000    8.50000    8.62500    0.06400   29.30800    0.08700    7.22900    3.00700    2.26800    3.77400    2.69300    7.85700   27.58400    7.85700    3.77400    7.85700    0.02000    1.00000    0.00000    1.81000    0.02000    0.00000    1.00000    0.21100
 3414.50000    2.62400    2.66800    2.74000    2.66500    8.50000    8.57800    0.07200   35.52600    0.12100    7.14200    2.54700    2.06500    3.13800    2.67900    6.53300   27.80800    6.53300    3.13800    6.53300    0.02000    1.00000    0.00000    0.59100    0.02000    0.00000    1.00000    0.26500
 3415.00000    2.59800    2.64700    2.67500    2.55900    8.50000    8.62500    0.07000   62.00100    0.17900    6.65700    2.26300    1.95600    2.82100    2.60800    5.69500   27.58100    5.69500    2.82100    5.69500    0.03100    0.00000    0.00000    0.00600    0.03100    0.00000    1.00000    0.49600
 3415.50000    2.62700    2.56200    2.55400    2.65600    8.50000    8.62500    0.04700   77.97300    0.25900    7.13000    2.25200    1.99400    2.39100    2.58800    3.37500   29.97000    3.37500    2.39100    3.37500    0.04300    0.00000    0.00000    0.00100    0.04300    0.00000    1.00000    0.63500
 3416.00000    2.67600    2.62000    2.56600    2.67100    8.50000    8.62500    0.04900   86.84800    0.28300    7.58300    2.14500    1.99000    2.14100    2.63200    2.50700   33.71100    2.50700    2.14100    2.50700    0.02000    0.00000    0.00000    0.00100    0.02000    0.00000    1.00000    0.71200
 3416.50000    2.60000    2.63100    2.70700    2.63800    8.50000    8.57800    0.07100   80.94900    0.27800    7.21800    2.07600    1.96200    2.10600    2.63500    2.42700   34.54100    2.42700    2.10600    2.42700    0.02000    0.00000    0.00000    0.00100    0.02000    0.00000    1.00000    0.66000
 3417.00000    2.58400    2.59100    2.67000    2.62000    8.50000    8.62500    0.06600   85.48100    0.26700    6.69000    2.09400    1.96400    2.14100    2.61100    2.51000   34.83000    2.51000    2.14100    2.51000    0.02900    0.00000    0.00000    0.00100    0.02900    0.00000    1.00000    0.70000
 3417.50000    2.60200    2.58400    2.57900    2.59100    8.50000    8.62500    0.06600   90.63500    0.27900    6.59200    2.15700    1.99400    2.23600    2.58700    2.71000   34.85700    2.71000    2.23600    2.71000    0.04400    0.00000    0.00000    0.00100    0.04400    0.00000    1.00000    0.73800
 3418.00000    2.60100    2.59300    2.55600    2.59800    8.50000    8.62500    0.06200   87.69200    0.26600    6.73700    2.17700    2.03600    2.29400    2.58000    2.80100   34.83700    2.80100    2.29400    2.80100    0.04800    0.00000    0.00000    0.00100    0.04800    0.00000    1.00000    0.71900
 3418.50000    2.59000    2.55300    2.53400    2.57400    8.50000    8.62500    0.06200   85.51400    0.26700    6.56400    2.19300    2.07600    2.33400    2.55600    2.89300   34.78300    2.89400    2.33400    2.89300    0.06300    0.00000    0.00000    0.00100    0.06300    0.00000    1.00000    0.70000
 3419.00000    2.58000    2.58000    2.52500    2.56300    8.50000    8.62500    0.06000   90.61100    0.26700    6.42100    2.11800    2.10200    2.28600    2.55500    2.79000   34.67800    2.79000    2.28600    2.79000    0.06300    0.00000    0.00000    0.00100    0.06300    0.00000    1.00000    0.74400
 3419.50000    2.57500    2.55200    2.56300    2.55900    8.50000    8.62500    0.06600   87.55700    0.25100    6.24700    2.06100    2.08300    2.23200    2.56100    2.73800   34.21300    2.73800    2.23200    2.73800    0.06000    0.00000    0.00000    0.00100    0.06000    0.00000    1.00000    0.71800
 3420.00000    2.56800    2.55300    2.55900    2.54400    8.50000    8.62500    0.05500   84.07600    0.26300    6.45100    2.08400    2.08600    2.23800    2.55400    2.74600   30.11700    2.74600    2.23800    2.74600    0.06400    0.00000    0.00000    0.00100    0.06400    0.00000    1.00000    0.68800
 3420.50000    2.53800    2.56900    2.57500    2.54300    8.50000    8.62500    0.06100   93.98600    0.27100    6.38700    2.10300    2.08500    2.20300    2.55800    2.67100   27.31500    2.67100    2.20300    2.67100    0.06100    0.00000    0.00000    0.00100    0.06100    0.00000    1.00000    0.77400
 3421.00000    2.55500    2.50800    2.54700    2.53200    8.50000    8.62500    0.06000   85.82600    0.27900    6.29500    2.06400    2.07500    2.14500    2.53200    2.57900   25.67700    2.57900    2.14500    2.57900    0.07700    0.00000    0.00000    0.00100    0.07700    0.00000    1.00000    0.70300
 3421.50000    2.49100    2.51800    2.58600    2.52900    8.50000    8.62500    0.06300   88.49600    0.27200    6.39700    2.02400    2.02700    2.09000    2.53300    2.47100   25.07200    2.47100    2.09000    2.47100    0.07700    0.00000    0.00000    0.00100    0.07700    0.00000    1.00000    0.72600
 3422.00000    2.47400    2.49100    2.57000    2.52600    8.50000    8.62500    0.05600   88.10500    0.28200    6.33200    1.93000    1.96000    2.01400    2.51900    2.46400   25.02300    2.46400    2.01400    2.46400    0.08500    0.00000    0.00000    0.00100    0.08500    0.00000    1.00000    0.72300
 3422.50000    2.45400    2.49900    2.56200    2.50100    8.50000    8.62500    0.04300   86.62400    0.28600    6.25400    1.84900    1.87900    1.95400    2.50400    2.43300   25.09400    2.43300    1.95400    2.43300    0.09400    0.00000    0.00000    0.00100    0.09400    0.00000    1.00000    0.71000
 3423.00000    2.45600    2.52900    2.59500    2.53500    8.50000    8.62500    0.05600   85.95600    0.28100    6.18400    1.77600    1.80700    1.91800    2.52900    2.45100   25.11600    2.45100    1.91800    2.45100    0.07900    0.00000    0.00000    0.00100    0.07900    0.00000    1.00000    0.70400
 3423.50000    2.50500    2.53300    2.53500    2.54600    8.50000    8.62500    0.04600   89.73700    0.29400    6.47700    1.75500    1.76400    1.88600    2.53200    2.42100   25.07200    2.42100    1.88600    2.42100    0.07700    0.00000    0.00000    0.00100    0.07700    0.00000    1.00000    0.73700
 3424.00000    2.51300    2.54500    2.59900    2.57000    8.50000    8.62500    0.06400   90.14100    0.27400    6.23300    1.75400    1.74400    1.88100    2.56100    2.44400   25.09300    2.44400    1.88100    2.44400    0.05900    0.00000    0.00000    0.00100    0.05900    0.00000    1.00000    0.74000
 3424.50000    2.49500    2.54900    2.49900    2.55000    8.50000    8.57800    0.04400   85.90500    0.27900    6.34300    1.73400    1.72300    1.84200    2.52200    2.32800   25.04600    2.32800    1.84200    2.32800    0.08300    0.00000    0.00000    0.00100    0.08300    0.00000    1.00000    0.70300
 3425.00000    2.56600    2.51400    2.59400    2.54400    8.50000    8.62500    0.05700   85.16600    0.28000    6.32700    1.74800    1.71300    1.80600    2.55100    2.29100   25.06900    2.29100    1.80600    2.29100    0.06500    0.00000    0.00000    0.00100    0.06500    0.00000    1.00000    0.69700
