~Version ---------------------------------------------------
VERS.   2.0 : CWLS log ASCII Standard -VERSION 2.0
WRAP.    NO : One line per depth step
DLM . SPACE : Column Data Section Delimiter
~Well ------------------------------------------------------
STRT.ft       145.90000 : START DEPTH
STOP.ft      4093.90000 : STOP DEPTH
STEP.ft         0.50000 : STEP
NULL.           -999.25 : NULL VALUE
COMP. Statoil Petroleum : COMPANY
WELL.        15/9-F-1 C : WELL
FLD .             VOLVE : FIELD
LOC .   Maersk Inspirer : LOCATION
PROV.                   : PROVINCE
CNTY.                   : COUNTY
STAT.                   : STATE
CTRY.                   : COUNTRY
SRVC.                   : SERVICE COMPANY
DATE.                   : DATE
UWI .                   : UNIQUE WELL ID
API .                   : API NUMBER
~Curve Information -----------------------------------------
DEPT        .ft        : 
ABDCQF01    .g/cm3     : 
ABDCQF02    .g/cm3     : 
ABDCQF03    .g/cm3     : 
ABDCQF04    .g/cm3     : 
BS          .inches    : 
CALI        .inches    : 
DRHO        .g/cm3     : 
GR          .API       : 
NBGRCFM     .API       : 
NPHI        .v/v       : 
PEF         .b/elec    : 
RACEHM      .ohm.m     : 
RACELM      .ohm.m     : 
RD          .ohm.m     : 
RHOB        .g/cm3     : 
RM          .ohm.m     : 
ROP         .m/hr      : 
RPCEHM      .ohm.m     : 
RPCELM      .ohm.m     : 
RT          .ohm.m     : 
BADDATA_FLAG.unitless  : 
BVW         .v/v       : 
COAL_FLAG   .unitless  : 
KLOGH       .mD        : 
PHIF        .v/v       : 
SAND_FLAG   .unitless  : 
SW          .v/v       : 
VCARB       .v/v       : 
VSH         .v/v       : 
~Params ----------------------------------------------------
~Other -----------------------------------------------------
PETROPHYSICAL INTERPRETATION: INPUT

# --- LOG MNEMONICS AND UNITS ---
#Depth          ABDCQF01        ABDCQF02        ABDCQF03        ABDCQF04        BS              CALI            DRHO            GR              NBGRCFM         NPHI            PEF             RACEHM          RACELM          RD              RHOB            RM              ROP             RPCEHM          RPCELM          RT
#M              g/cm3           g/cm3           g/cm3           g/cm3           inches          inches          g/cm3           API             API             v/v             b/elec          ohm.m           ohm.m           ohm.m           g/cm3           ohm.m           m/hr            ohm.m           ohm.m           ohm.m
~ASCII -----------------------------------------------------
# ...
 3533.40000    2.50070    2.52770    2.56740    2.51620    8.50000    8.52430    0.04480   29.84160   32.58900    0.12530    6.28060   12.62450    9.20930   13.74770    2.52720   15.42050   29.78950   15.42040   13.74780   15.42050    0.00000    0.03690    0.00000    9.96900    0.08920    0.00000    0.41420    0.17780    0.20210
 3533.90000    2.54080    2.54660    2.54420    2.52270    8.50000    8.52430    0.06440   32.21930   33.87890    0.13500    6.20910   12.03680    8.83700   12.70020    2.53250   13.98490   29.87850   13.98500   12.70030   13.98490    0.00000    0.03720    0.00000    3.37510    0.08490    0.00000    0.51130    0.21260    0.22320
 3534.40000    2.50680    2.53510    2.55520    2.47300    8.50000    8.52430    0.04410   30.06880   35.77020    0.10970    6.21040   10.53010    8.22380   12.19020    2.51550   13.91590   29.84670   13.91590   12.19020   13.91590    0.00000    0.03860    0.00000    9.18460    0.08920    0.00000    0.43250    0.17510    0.20410
 3534.90000    2.58850    2.61840    2.59010    2.60040    8.50000    8.52430    0.05400   31.62200   32.58590    0.10620    6.33930    9.92040    7.87370   11.52910    2.59730   13.29830   28.27120   13.29830   11.52920   13.29830    0.00000    0.03010    0.00000    1.90450    0.03010    0.00000    1.00000    0.39300    0.21790
 3535.40000    2.61280    2.60510    2.59800    2.61760    8.50000    8.52430    0.05210   28.99610   35.27960    0.10110    6.37750    9.38860    7.50440   11.09300    2.60710   13.09120   25.90250   13.09120   11.09300   13.09120    0.00000    0.02450    0.00000    2.78250    0.02450    0.00000    1.00000    0.45720    0.19460
 3535.90000    2.62580    2.60990    2.61070    2.58710    8.50000    8.52430    0.05520   36.27980   36.35840    0.09990    6.56730    9.20230    7.25250   10.98390    2.60490   13.25030   25.46360   13.25020   10.98400   13.25030    0.00000    0.02580    0.00000    0.74880    0.02580    0.00000    1.00000    0.34510    0.25910
 3536.40000    2.62000    2.61410    2.61160    2.57890    8.50000    8.52430    0.05220   34.66930   37.56890    0.10160    6.47320    9.01030    7.06830   10.68630    2.60140   13.20210   25.83840   13.20210   10.68630   13.20210    0.00000    0.02780    0.00000    1.04340    0.02780    0.00000    1.00000    0.35920    0.24490
 3536.90000    2.59880    2.60710    2.58870    2.58940    8.50000    8.52430    0.04550   35.75640   38.16390    0.09980    6.32780    8.74460    6.83540   10.50140    2.59460   13.18610   25.97240   13.18610   10.50140   13.18610    0.00000    0.03170    0.00000    0.91790    0.03170    0.00000    1.00000    0.32830    0.25450
 3537.40000    2.59470    2.60340    2.58380    2.55730    8.50000    8.52430    0.04580   36.83860   36.96920    0.10830    6.25910    8.59330    6.65710   10.37070    2.58050   13.25820   27.45740   13.25820   10.37070   13.25820    0.00000    0.03360    0.00000    0.87340    0.03970    0.00000    0.84670    0.28220    0.26410
 3537.90000    2.57870    2.57700    2.56870    2.55300    8.50000    8.52430    0.05460   35.79850   37.17510    0.11170    6.60000    8.57970    6.52110   10.25920    2.56530   13.49410   29.29830   13.49410   10.25910   13.49410    0.00000    0.03480    0.00000    1.24070    0.04840    0.00000    0.71820    0.26180    0.25480
 3538.40000    2.54940    2.57060    2.55080    2.55230    8.50000    8.52430    0.04720   36.94020   41.10740    0.11410    6.43760    8.66170    6.32180   10.45160    2.55320   14.21390   22.55960   14.21420   10.45170   14.21390    0.00000    0.03910    0.00000    2.11690    0.08920    0.00000    0.43830    0.10110    0.26500
 3538.90000    2.54830    2.53760    2.48240    2.56160    8.50000    8.52430    0.04130   36.01840   39.36710    0.12280    6.21230    8.06310    6.13770    9.57810    2.52530   12.32610   14.91490   12.32610    9.57820   12.32610    0.00000    0.04250    0.00000    3.19210    0.10190    1.00000    0.41760    0.06760    0.25680
 3539.40000    2.55020    2.51160    2.43020    2.52000    8.50000    8.52430    0.04470   43.42520   45.32530    0.13800    6.18670    7.97280    6.12140    8.11960    2.49230    8.62340   19.60760    8.62370    8.11980    8.62340    0.00000    0.05190    0.00000    1.13020    0.11930    1.00000    0.43500    0.00000    0.32230
 3539.90000    2.46300    2.41460    2.32880    2.35820    8.50000    8.52440    0.06830   42.19110   43.45460    0.19030    6.05040    7.16250    5.97260    6.84240    2.38320    6.80200   27.97510    6.80210    6.84240    6.80200    0.00000    0.06200    0.00000    4.14240    0.17760    1.00000    0.34920    0.00000    0.31150
 3540.40000    2.30790    2.27650    2.37470    2.35250    8.50000    8.52430    0.02690   38.09970   45.24380    0.15960    6.03190    6.51870    5.82380    6.29820    2.31670    6.03030   29.87360    6.03040    6.29830    6.03030    0.00000    0.06540    0.00000   10.65940    0.18810    1.00000    0.34770    0.00000    0.27520
 3540.90000    2.34150    2.44620    2.48600    2.49800    8.50000    8.52430    0.02170   39.43280   41.85750    0.15690    6.33390    5.99620    5.62660    5.85890    2.43920    5.56440   29.88280    5.56430    5.85890    5.56440    0.00000    0.06410    0.00000    3.77740    0.14500    1.00000    0.44180    0.00000    0.28700
 3541.40000    2.51170    2.44600    2.38820    2.54440    8.50000    8.54060    0.03970   39.93730   45.20390    0.16660    6.24700    5.77720    5.49770    5.84710    2.45360    5.74770   30.10200    5.74770    5.84710    5.74770    0.00000    0.06320    0.00000    3.37760    0.14400    1.00000    0.43900    0.00000    0.29150
 3541.90000    2.57000    2.35670    2.29010    2.44780    8.50000    8.52430    0.04700   42.65100   46.34490    0.19940    6.11110    5.41100    5.23330    5.57700    2.38720    5.71940   30.21270    5.71940    5.57700    5.71940    0.00000    0.06680    0.00000    3.97200    0.17980    1.00000    0.37140    0.00000    0.31550
 3542.40000    2.42890    2.25680    2.23160    2.34230    8.50000    8.52430    0.03860   41.61450   40.74320    0.18550    5.84320    4.72620    4.88980    5.19700    2.29570    5.45900   30.18240    5.45910    5.19710    5.45900    0.00000    0.06990    0.00000    7.73220    0.20570    1.00000    0.33990    0.00000    0.30630
 3542.90000    2.40020    2.26340    2.29500    2.31270    8.50000    8.52430    0.05050   40.61790   42.77280    0.20140    5.93690    4.36450    4.74830    4.43550    2.30830    4.52410   30.01200    4.52420    4.43550    4.52410    0.00000    0.07550    0.00000    9.64550    0.20770    1.00000    0.36350    0.00000    0.29750
 3543.40000    2.32320    2.27800    2.36950    2.23400    8.50000    8.55690    0.04310   34.40530   41.27390    0.16660    5.53030    4.27990    4.73840    4.25810    2.29420    4.10130   29.95950    4.10140    4.25810    4.10130    0.00000    0.07690    0.00000   25.47560    0.19860    1.00000    0.38740    0.00000    0.24250
 3543.90000    2.23620    2.37170    2.44720    2.32040    8.50000    8.52430    0.03330   31.75110   33.77090    0.13040    5.66650    4.47800    4.79120    4.52330    2.32560    4.45240   28.48770    4.45240    4.52330    4.45240    0.00000    0.07180    0.00000   26.04670    0.17340    1.00000    0.41420    0.00000    0.21900
 3544.40000    2.32130    2.42190    2.37380    2.37200    8.50000    8.52430    0.04230   32.69310   29.05690    0.14020    5.16130    4.32070    4.76000    4.74870    2.36950    4.73790   29.00420    4.73810    4.74880    4.73790    0.00000    0.06910    0.00000   17.84590    0.16230    1.00000    0.42600    0.00000    0.22740
 3544.90000    2.39350    2.39600    2.38140    2.40090    8.50000    8.52430    0.05620   25.43050   19.65370    0.12470    5.04560    4.53870    4.75080    4.57830    2.39160    4.40350   29.72200    4.40330    4.57820    4.40350    0.00000    0.06870    0.00000   52.37590    0.14850    1.00000    0.46300    0.00880    0.16320
 3545.40000    2.36770    2.37460    2.37170    2.38520    8.50000    8.52430    0.05020   15.50810   17.41860    0.12030    4.84560    4.12700    4.59820    4.91370    2.37320    5.14680   29.94740    5.14660    4.91360    5.14680    0.00000    0.06360    0.00000  351.98430    0.15300    1.00000    0.41580    0.09410    0.07530
