~Version ---------------------------------------------------
VERS.   2.0 : CWLS log ASCII Standard -VERSION 2.0
WRAP.    NO : One line per depth step
DLM . SPACE : Column Data Section Delimiter
~Well ------------------------------------------------------
STRT.ft          188.50000 : START DEPTH
STOP.ft         4770.50000 : STOP DEPTH
STEP.ft            0.50000 : STEP
NULL.              -999.25 : NULL VALUE
COMP. Statoil Petroleum AS : COMPANY
WELL.          15/9-F-11 B : WELL
FLD .                VOLVE : FIELD
LOC .      Maersk Inspirer : LOCATION
PROV.                      : PROVINCE
CNTY.                      : COUNTY
STAT.                      : STATE
CTRY.                      : COUNTRY
SRVC.                      : SERVICE COMPANY
DATE.                      : DATE
UWI .                      : UNIQUE WELL ID
API .                      : API NUMBER
~Curve Information -----------------------------------------
DEPT     .ft        : 
ABDCQF01 .g/cm3     : 
ABDCQF02 .g/cm3     : 
ABDCQF03 .g/cm3     : 
ABDCQF04 .g/cm3     : 
BS       .inches    : 
CALI     .inches    : 
DRHO     .g/cm3     : 
GR       .API       : 
NPHI     .v/v       : 
PEF      .b/elec    : 
RACEHM   .ohm.m     : 
RACELM   .ohm.m     : 
RD       .ohm.m     : 
RHOB     .g/cm3     : 
RM       .ohm.m     : 
ROP      .m/hr      : 
RPCEHM   .ohm.m     : 
RPCELM   .ohm.m     : 
RT       .ohm.m     : 
BVW      .v/v       : 
CARB_FLAG.unitless  : 
COAL_FLAG.unitless  : 
KLOGH    .mD        : 
PHIF     .v/v       : 
SAND_FLAG.UNKNOWN   : 
SW       .v/v       : 
VSH      .v/v       : 
~Params ----------------------------------------------------
~Other -----------------------------------------------------
PETROPHYSICAL_INTERPRETATION: INPUT

# --- LOG MNEMONICS AND UNITS ---
#Depth     ABDCQF01   ABDCQF02   ABDCQF03   ABDCQF04   BS         CALI       DRHO       GR         NPHI       PEF        RACEHM     RACELM     RD         RHOB       RM         ROP        RPCEHM     RPCELM     RT
#M         g/cm3      g/cm3      g/cm3      g/cm3      inches     inches     g/cm3      API        v/v        b/elec     ohm.m      ohm.m      ohm.m      g/cm3      ohm.m      m/hr       ohm.m      ohm.m      ohm.m
~ASCII -----------------------------------------------------
# ...
 4426.50000    2.45100    2.40800    2.41800    2.40700    8.50000    8.67200    0.06800   38.37400    0.20400    5.49500    2.28900    2.02100    2.42400    2.41400    3.14800   15.57400    3.14800    2.42400    3.14800    0.08200    0.00000    0.00000    3.75700    0.14800    1.00000    0.55200    0.29000
 4427.00000    2.47600    2.41600    2.44100    2.41200    8.50000    8.67200    0.07800   38.67400    0.18900    5.26500    2.31300    2.02700    2.38900    2.43000    2.98900   15.03900    2.98900    2.38900    2.98900    0.08400    0.00000    0.00000    2.97100    0.13800    1.00000    0.60700    0.29300
 4427.50000    2.40900    2.47800    2.57500    2.41400    8.50000    8.78100    0.07400   37.45400    0.18300    5.99500    2.19500    1.98700    2.52400    2.45300    3.53900   15.69700    3.53900    2.52400    3.53900    0.07700    0.00000    0.00000    2.86900    0.12500    1.00000    0.62000    0.28200
 4428.00000    2.41000    2.52000    2.48700    2.49300    8.50000    8.75000    0.05900   37.51600    0.17300    6.21400    1.97100    1.93700    2.35800    2.47200    3.29300   16.62100    3.29300    2.35800    3.29300    0.08000    0.00000    0.00000    2.29600    0.11300    1.00000    0.70800    0.28300
 4428.50000    2.46500    2.50100    2.45100    2.49400    8.50000    8.78100    0.07100   37.50900    0.17400    6.10500    2.01400    1.92800    2.10700    2.47100    2.57100   18.35100    2.57100    2.10700    2.57100    0.09100    0.00000    0.00000    2.32300    0.11400    1.00000    0.79700    0.28300
 4429.00000    2.56600    2.51700    2.47000    2.54000    8.50000    8.76900    0.08400   35.96800    0.18500    6.29800    1.91300    1.90200    1.93700    2.50300    2.22900   19.76900    2.22900    1.93700    2.22900    0.09500    0.00000    0.00000    2.16100    0.09500    0.00000    1.00000    0.26900
 4429.50000    2.58500    2.48000    2.52300    2.51200    8.50000    8.85100    0.09600   34.70800    0.18900    6.30700    1.88400    1.88300    1.88300    2.51200    2.18500   19.81700    2.18500    1.88300    2.18500    0.08900    0.00000    0.00000    2.45600    0.08900    0.00000    1.00000    0.25800
 4430.00000    2.48200    2.50500    2.58000    2.47200    8.50000    8.75000    0.06600   34.67900    0.19600    6.33400    1.92500    1.94500    1.87500    2.52000    2.07000   19.69900    2.07000    1.87500    2.07000    0.08400    0.00000    0.00000    2.24900    0.08400    0.00000    1.00000    0.25800
 4430.50000    2.46800    2.49500    2.57200    2.52600    8.50000    8.78100    0.07300   34.24700    0.20700    6.77300    1.95500    2.00700    1.89600    2.52800    2.02400   19.77400    2.02400    1.89600    2.02400    0.07900    0.00000    0.00000    2.22100    0.07900    0.00000    1.00000    0.25400
 4431.00000    2.45400    2.53800    2.57600    2.54300    8.50000    8.75000    0.07000   33.92500    0.22200    6.72600    2.00900    1.98800    1.96000    2.52700    2.23700   19.84400    2.23700    1.96000    2.23700    0.08000    0.00000    0.00000    2.38000    0.08000    0.00000    1.00000    0.25200
 4431.50000    2.45500    2.57100    2.58300    2.54600    8.50000    8.68200    0.05100   33.19800    0.23500    7.15700    2.17900    2.00600    1.89000    2.53900    2.11000   19.81600    2.11100    1.89000    2.11000    0.07300    0.00000    0.00000    2.38500    0.07300    0.00000    1.00000    0.24500
 4432.00000    2.54700    2.58500    2.66800    2.58500    8.50000    8.75000    0.07700   31.94300    0.25500    7.52200    1.93300    1.91400    1.87500    2.60700    2.25000   19.80600    2.25000    1.87500    2.25000    0.03200    0.00000    0.00000    1.40300    0.03200    0.00000    1.00000    0.23400
 4432.50000    2.60400    2.67400    2.76500    2.62800    8.50000    8.75000    0.07300   31.89100    0.27400    7.99900    2.00000    1.94100    1.71000    2.67600    1.80100   19.81800    1.80000    1.71000    1.80100    0.02000    1.00000    0.00000    1.13600    0.02000    0.00000    1.00000    0.23400
 4433.00000    2.57100    2.60700    2.56600    2.64900    8.50000    8.76600    0.07600   33.50300    0.24100    6.37300    1.78700    1.82800    1.75100    2.58800    2.04500   19.83600    2.04500    1.75100    2.04500    0.04300    0.00000    0.00000    1.31000    0.04300    0.00000    1.00000    0.24800
 4433.50000    2.66000    2.54200    2.55600    2.70100    8.50000    8.75000    0.10200   38.12900    0.25500    6.23300    1.90100    1.88000    1.74400    2.58500    1.89300   19.73000    1.89300    1.74400    1.89300    0.04500    0.00000    0.00000    0.58600    0.04500    0.00000    1.00000    0.28800
 4434.00000    2.72800    2.50400    2.59500    2.53400    8.50000    8.76000    0.09900   42.82400    0.24700    5.93700    1.66100    1.77500    1.64200    2.57400    1.96500   19.74000    1.96500    1.64200    1.96500    0.05200    0.00000    0.00000    0.28600    0.05200    0.00000    1.00000    0.32900
 4434.50000    2.56300    2.51100    2.53800    2.50900    8.50000    8.75000    0.06800   54.82300    0.24800    6.00500    1.70200    2.08200    1.37900    2.52000    1.13600   19.78300    1.13700    1.37900    1.13600    0.08400    0.00000    0.00000    0.06000    0.08400    0.00000    1.00000    0.43300
 4435.00000    2.76700    2.51700    2.88800    2.50200    8.50000    8.73400    0.09000   48.22500    0.25900    6.19400    2.22600    1.98400    1.83700    2.61200    1.90700   20.03200    1.90700    1.83700    1.90700    0.02900    0.00000    0.00000    0.07100    0.02900    0.00000    1.00000    0.37600
 4435.50000    2.53100    2.60900    2.85400    2.52800    8.50000    8.70300    0.04700   55.07700    0.27700    6.33500    2.20700    1.95700    2.33400    2.59300    3.51200   21.04000    3.51200    2.33400    3.51200    0.04100    0.00000    0.00000    0.02500    0.04100    0.00000    1.00000    0.43500
 4436.00000    2.50500    2.74600    2.76800    2.65100    8.50000    8.70300    0.02800   63.66700    0.28600    7.64000    2.31100    1.96000    2.46900    2.63000    4.11500   21.95000    4.11500    2.46900    4.11500    0.02000    0.00000    0.00000    0.00400    0.02000    0.00000    1.00000    0.51000
 4436.50000    2.56100    2.80300    2.71200    2.79400    8.50000    8.70300    0.04000   59.18200    0.30200    8.06200    2.43700    1.95800    2.57600    2.70500    4.48400   20.65400    4.48400    2.57600    4.48400    0.02000    1.00000    0.00000    0.00800    0.02000    0.00000    1.00000    0.47100
 4437.00000    2.94600    2.82500    2.89100    2.75700    8.50000    8.68800    0.03700   53.10200    0.31900    8.66800    2.44500    1.97600    2.66100    2.82300    4.68500   17.21400    4.68500    2.66100    4.68500    0.02000    1.00000    0.00000    0.02500    0.02000    0.00000    1.00000    0.41800
 4437.50000    2.93300    2.73400    2.74600    2.79400    8.50000    8.70300    0.08200   61.69700    0.34900    7.99500    2.51700    2.00700    2.66900    2.77900    4.50800   15.31300    4.50800    2.66900    4.50800    0.02000    1.00000    0.00000    0.00500    0.02000    0.00000    1.00000    0.49300
 4438.00000    2.69300    2.66800    2.57400    2.71100    8.50000    8.70300    0.07200   67.14800    0.36100    7.28800    2.61600    1.99900    2.82900    2.63600    5.38800   14.28400    5.38800    2.82900    5.38800    0.02000    0.00000    0.00000    0.00200    0.02000    0.00000    1.00000    0.54000
 4438.50000    2.57300    2.63700    2.52600    2.71600    8.50000    8.67200    0.05700   72.46600    0.36400    7.26400    2.53800    1.95500    2.75900    2.60000    5.07200   16.16400    5.07200    2.75900    5.07200    0.03600    0.00000    0.00000    0.00100    0.03600    0.00000    1.00000    0.58700
 4439.00000    2.97200    2.59400    2.55500    2.66100    8.50000    8.70300    0.08600   74.52500    0.35700    7.64500    2.51400    1.95300    2.70500    2.64000    4.84500   18.55800    4.84500    2.70500    4.84500    0.02000    0.00000    0.00000    0.00100    0.02000    0.00000    1.00000    0.60400
