~Version ---------------------------------------------------
VERS.   2.0 : CWLS log ASCII Standard -VERSION 2.0
WRAP.    NO : One line per depth step
DLM . SPACE : Column Data Section Delimiter
~Well ------------------------------------------------------
STRT.ft          188.50000 : START DEPTH
STOP.ft         3762.00000 : STOP DEPTH
STEP.ft            0.50000 : STEP
NULL.              -999.25 : NULL VALUE
COMP. Statoil Petroleum AS : COMPANY
WELL.          15/9-F-11 A : WELL
FLD .                VOLVE : FIELD
LOC .      Maersk Inspirer : LOCATION
PROV.                      : PROVINCE
CNTY.                      : COUNTY
STAT.                      : STATE
CTRY.                      : COUNTRY
SRVC.                      : SERVICE COMPANY
DATE.                      : DATE
UWI .                      : UNIQUE WELL ID
API .                      : API NUMBER
~Curve Information -----------------------------------------
DEPT     .ft       : 
ABDCQF01 .g/cm3    : 
ABDCQF02 .g/cm3    : 
ABDCQF03 .g/cm3    : 
ABDCQF04 .g/cm3    : 
BS       .inches   : 
CALI     .inches   : 
DRHO     .g/cm3    : 
DT       .us/ft    : 
DTS      .us/ft    : 
GR       .API      : 
NPHI     .v/v      : 
PEF      .b/elec   : 
RACEHM   .ohm.m    : 
RACELM   .ohm.m    : 
RD       .ohm.m    : 
RHOB     .g/cm3    : 
RM       .ohm.m    : 
ROP      .m/hr     : 
RPCEHM   .ohm.m    : 
RPCELM   .ohm.m    : 
RT       .ohm.m    : 
BVW      .v/v      : 
CARB_FLAG.UNKNOWN  : 
COAL_FLAG.UNKNOWN  : 
KLOGH    .mD       : 
PHIF     .v/v      : 
SAND_FLAG.UNKNOWN  : 
SW       .v/v      : 
VSH      .v/v      : 
~Params ----------------------------------------------------
~Other -----------------------------------------------------
PETROPHYSICAL_INTERPRETATION: INPUT

# --- LOG MNEMONICS AND UNITS ---
#Depth     ABDCQF01   ABDCQF02   ABDCQF03   ABDCQF04   BS         CALI       DRHO       DT         DTS        GR         NPHI       PEF        RACEHM     RACELM     RD         RHOB       RM         ROP        RPCEHM     RPCELM     RT
#M         g/cm3      g/cm3      g/cm3      g/cm3      inches     inches     g/cm3      us/ft      us/ft      API        v/v        b/elec     ohm.m      ohm.m      ohm.m      g/cm3      ohm.m      m/hr       ohm.m      ohm.m      ohm.m
~ASCII -----------------------------------------------------
# ...
 2576.00000    2.07200    2.08700    2.03000    1.99600    8.50000    8.68000    0.01400  110.14700 -999.25000   51.33800 -999.25000 -999.25000    0.61000    0.72500    0.67600 -999.25000    0.62900 -999.25000    0.70900    0.68500    0.62900 -999.25000 -999.25000 -999.25000 -999.25000 -999.25000 -999.25000 -999.25000 -999.25000
 2576.50000    2.00000    1.89900    1.84000    1.94600    8.50000    8.78200   -0.00400  109.46500 -999.25000   58.98100 -999.25000 -999.25000    0.69000    0.74500    0.72100 -999.25000    0.71800 -999.25000    0.91800    0.78500    0.71800 -999.25000 -999.25000 -999.25000 -999.25000 -999.25000 -999.25000 -999.25000 -999.25000
 2577.00000    1.98400    2.26800    2.15200    1.90600    8.50000    8.76500    0.05800  109.38500 -999.25000   74.69700    0.40300    8.13600    0.47200    0.77800    0.75000    2.34700    0.75100    1.00200    0.91100    0.85200    0.75100 -999.25000 -999.25000 -999.25000 -999.25000 -999.25000 -999.25000 -999.25000 -999.25000
 2577.50000    2.13500    2.26700    2.11500    2.08500    8.50000    8.60200    0.05800  110.05300 -999.25000   70.13500    0.38500    7.17700    0.60600    0.84200    0.77100    2.36400    0.71100    7.50900    1.08100    0.95700    0.71100 -999.25000 -999.25000 -999.25000 -999.25000 -999.25000 -999.25000 -999.25000 -999.25000
 2578.00000    2.32000    2.30600    2.28300    2.16200    8.50000    8.54700    0.04900  103.45200 -999.25000   56.12100    0.28000    6.75600    0.82100    0.89400    1.06900    2.37500    1.23800   14.05100    2.38600    1.38800    1.23800 -999.25000 -999.25000 -999.25000 -999.25000 -999.25000 -999.25000 -999.25000 -999.25000
 2578.50000    2.30600    2.44600    2.43200    2.17600    8.50000    8.57800    0.05500  107.29100 -999.25000   68.22400    0.39200    7.47200    1.02000    0.93000    0.99300    2.35700    1.00100   15.12500    1.13100    1.00800    1.00100 -999.25000 -999.25000 -999.25000 -999.25000 -999.25000 -999.25000 -999.25000 -999.25000
 2579.00000    2.12600    2.30200    2.33200    2.07300    8.50000    8.57800    0.05300  107.58300 -999.25000   78.14700    0.45100    7.05700    0.55600    0.84900    0.67900    2.28900    0.53600   14.95500    0.55900    0.72800    0.53600 -999.25000 -999.25000 -999.25000 -999.25000 -999.25000 -999.25000 -999.25000 -999.25000
 2579.50000    2.26800    2.29700    2.29500    2.10500    8.50000    8.56200    0.04800  101.79000 -999.25000   60.98400    0.36000    6.56400    0.71000    0.81800    0.73300    2.29700    0.69800   14.95700    0.95200    0.89400    0.69800 -999.25000 -999.25000 -999.25000 -999.25000 -999.25000 -999.25000 -999.25000 -999.25000
 2580.00000    2.30300    2.32200    2.27700    2.17400    8.50000    8.54700    0.04800   96.47500 -999.25000   61.22900    0.33600    6.62100    0.69900    0.85000    0.79300    2.29900    0.70500    3.72900    1.06100    1.04200    0.70500 -999.25000 -999.25000 -999.25000 -999.25000 -999.25000 -999.25000 -999.25000 -999.25000
 2580.50000    2.38400    2.35600    2.34500    2.28200    8.50000    8.57800    0.04800   98.84600 -999.25000   48.42600    0.28100    7.14700    0.82200    0.86800    1.18600    2.38600    1.63600    8.68600    1.70600    1.23100    1.63600 -999.25000 -999.25000 -999.25000 -999.25000 -999.25000 -999.25000 -999.25000 -999.25000
 2581.00000    2.34800    2.37300    2.38400    2.30200    8.50000    8.57800    0.05900  108.66800 -999.25000   64.10600    0.42900    7.08000    0.62100    0.81100    0.80600    2.36000    0.84000   13.49600    0.99800    0.87500    0.84000 -999.25000 -999.25000 -999.25000 -999.25000 -999.25000 -999.25000 -999.25000 -999.25000
 2581.50000    2.28600    2.31400    2.32600    2.24300    8.50000    8.54700    0.04200  112.04300 -999.25000   56.68400    0.35500    6.74800    0.65600    0.80900    0.79900    2.30700    0.87700   14.78700    1.15100    0.91100    0.87700 -999.25000 -999.25000 -999.25000 -999.25000 -999.25000 -999.25000 -999.25000 -999.25000
 2582.00000    2.31900    2.37900    2.32600    2.26600    8.50000    8.57800    0.05000  109.81400 -999.25000   64.07800    0.36100    7.14400    0.78900    0.86300    0.81700    2.36400    0.73900   12.50000    0.91900    0.91400    0.73900 -999.25000 -999.25000 -999.25000 -999.25000 -999.25000 -999.25000 -999.25000 -999.25000
 2582.50000    2.30800    2.34600    2.35200    2.24500    8.50000    8.54700    0.05100  105.54600 -999.25000   53.38000    0.33000    6.68700    0.79600    0.87300    0.86600    2.32100    0.78700   13.55100    1.15000    1.05200    0.78700 -999.25000 -999.25000 -999.25000 -999.25000 -999.25000 -999.25000 -999.25000 -999.25000
 2583.00000    2.30800    2.31800    2.31000    2.27100    8.50000    8.57800    0.05600  107.81000  260.16100   57.01500    0.36400    6.81000    0.86200    0.86000    0.80400    2.32500    0.77200   14.83400    1.19900    1.04700    0.77200 -999.25000 -999.25000 -999.25000 -999.25000 -999.25000 -999.25000 -999.25000 -999.25000
 2583.50000    2.27000    2.30900    2.30700    2.23200    8.50000    8.57800    0.05900  106.76000  264.09600   43.19700    0.30900    6.37200    0.80900    0.81100    0.60400    2.26500    0.50600   14.97100    0.99000    0.91300    0.50600 -999.25000 -999.25000 -999.25000 -999.25000 -999.25000 -999.25000 -999.25000 -999.25000
 2584.00000    2.18900    2.21100    2.19100    2.18000    8.50000    8.54700    0.03200  103.90400  259.49100   43.54300    0.35500    6.03500    0.72800    0.79500    0.56800    2.21700    0.45300   14.94600    1.70500    1.06900    0.45300 -999.25000 -999.25000 -999.25000 -999.25000 -999.25000 -999.25000 -999.25000 -999.25000
 2584.50000    2.31000    2.33600    2.31300    2.26100    8.50000    8.58600    0.05000  107.01200  260.15800   63.70700    0.36800    7.02700    0.76300    0.87500    0.76000    2.31800    0.69800   14.95000    0.99700    0.92700    0.69800 -999.25000 -999.25000 -999.25000 -999.25000 -999.25000 -999.25000 -999.25000 -999.25000
 2585.00000    2.33000    2.34300    2.35200    2.31800    8.50000    8.54700    0.05400  105.76500  263.24200   69.12300    0.39700    6.83100    0.86500    0.91400    0.80600    2.35400    0.69600   14.91700    1.36200    1.08400    0.69600 -999.25000 -999.25000 -999.25000 -999.25000 -999.25000 -999.25000 -999.25000 -999.25000
 2585.50000    2.34700    2.35800    2.34500    2.31700    8.50000    8.54700    0.04600   93.12600  262.16200   60.64400    0.36100    7.27400    0.90500    0.93200    0.83100    2.33000    0.73100   14.88200    1.04500    1.01300    0.73100 -999.25000 -999.25000 -999.25000 -999.25000 -999.25000 -999.25000 -999.25000 -999.25000
 2586.00000    2.31400    2.33100    2.31700    2.29800    8.50000    8.54700    0.05500   90.09100  260.99300   64.26800    0.39900    6.80300    0.97300    0.87300    0.79500    2.31000    0.77000   13.93000    2.29300    1.42300    0.77000 -999.25000 -999.25000 -999.25000 -999.25000 -999.25000 -999.25000 -999.25000 -999.25000
 2586.50000    2.29800    2.31500    2.29400    2.29000    8.50000    8.54700    0.05600   93.00700  259.46500   65.58800    0.38000    6.57600    1.16300    0.81600    0.78200    2.29400    0.75000   13.84600    2.35800    1.46400    0.75000 -999.25000 -999.25000 -999.25000 -999.25000 -999.25000 -999.25000 -999.25000 -999.25000
 2587.00000    2.21700    2.26700    2.25900    2.25300    8.50000    8.54700    0.05200   82.37600  264.57700   48.62100    0.34000    6.10700    1.29600    0.74500    0.61800    2.24600    0.54600   13.83700    4.01400    1.75500    0.54600 -999.25000 -999.25000 -999.25000 -999.25000 -999.25000 -999.25000 -999.25000 -999.25000
 2587.50000    2.22100    2.19800    2.21300    2.23300    8.50000    8.54700    0.04800   78.93000  261.37700   55.18400    0.42400    6.75900    1.57900    0.69200    0.53600    2.21800    0.44100   13.81500    2.59400    1.49000    0.44100 -999.25000 -999.25000 -999.25000 -999.25000 -999.25000 -999.25000 -999.25000 -999.25000
 2588.00000    2.19000    2.21900    2.18200    2.20400    8.50000    8.54700    0.05400   84.14200  257.15300   33.00900    0.27900    5.67600    1.53800    0.59500    0.51100    2.19500    0.39800   13.83200   15.15000    1.93100    0.39800 -999.25000 -999.25000 -999.25000 -999.25000 -999.25000 -999.25000 -999.25000 -999.25000
