~Version ---------------------------------------------------
VERS.   2.0 : CWLS log ASCII Standard -VERSION 2.0
WRAP.    NO : One line per depth step
DLM . SPACE : Column Data Section Delimiter
~Well ------------------------------------------------------
STRT.ft          188.50000 : START DEPTH
STOP.ft         3762.00000 : STOP DEPTH
STEP.ft            0.50000 : STEP
NULL.              -999.25 : NULL VALUE
COMP. Statoil Petroleum AS : COMPANY
WELL.          15/9-F-11 A : WELL
FLD .                VOLVE : FIELD
LOC .      Maersk Inspirer : LOCATION
PROV.                      : PROVINCE
CNTY.                      : COUNTY
STAT.                      : STATE
CTRY.                      : COUNTRY
SRVC.                      : SERVICE COMPANY
DATE.                      : DATE
UWI .                      : UNIQUE WELL ID
API .                      : API NUMBER
~Curve Information -----------------------------------------
DEPT     .ft       : 
ABDCQF01 .g/cm3    : 
ABDCQF02 .g/cm3    : 
ABDCQF03 .g/cm3    : 
ABDCQF04 .g/cm3    : 
BS       .inches   : 
CALI     .inches   : 
DRHO     .g/cm3    : 
DT       .us/ft    : 
DTS      .us/ft    : 
GR       .API      : 
NPHI     .v/v      : 
PEF      .b/elec   : 
RACEHM   .ohm.m    : 
RACELM   .ohm.m    : 
RD       .ohm.m    : 
RHOB     .g/cm3    : 
RM       .ohm.m    : 
ROP      .m/hr     : 
RPCEHM   .ohm.m    : 
RPCELM   .ohm.m    : 
RT       .ohm.m    : 
BVW      .v/v      : 
CARB_FLAG.UNKNOWN  : 
COAL_FLAG.UNKNOWN  : 
KLOGH    .mD       : 
PHIF     .v/v      : 
SAND_FLAG.UNKNOWN  : 
SW       .v/v      : 
VSH      .v/v      : 
~Params ----------------------------------------------------
~Other -----------------------------------------------------
PETROPHYSICAL_INTERPRETATION: INPUT

# --- LOG MNEMONICS AND UNITS ---
#Depth     ABDCQF01   ABDCQF02   ABDCQF03   ABDCQF04   BS         CALI       DRHO       DT         DTS        GR         NPHI       PEF        RACEHM     RACELM     RD         RHOB       RM         ROP        RPCEHM     RPCELM     RT
#M         g/cm3      g/cm3      g/cm3      g/cm3      inches     inches     g/cm3      us/ft      us/ft      API        v/v        b/elec     ohm.m      ohm.m      ohm.m      g/cm3      ohm.m      m/hr       ohm.m      ohm.m      ohm.m
~ASCII -----------------------------------------------------
# ...
 3413.50000    2.58100    2.61600    2.62400    2.62400    8.50000    8.62500    0.06100   71.09900  132.91800   27.10100    0.10300    8.00100    3.35200    3.33400    3.51100    2.60900    3.86900   24.85500    3.86900    3.51100    3.86900 -999.25000 -999.25000 -999.25000 -999.25000 -999.25000 -999.25000 -999.25000 -999.25000
 3414.00000    2.60600    2.59300    2.61600    2.61300    8.50000    8.62500    0.06300   71.78700  128.90400   29.32900    0.10800    8.10900    3.25200    3.29700    3.47200    2.60900    3.84600   23.98200    3.84600    3.47200    3.84600 -999.25000 -999.25000 -999.25000 -999.25000 -999.25000 -999.25000 -999.25000 -999.25000
 3414.50000    2.59600    2.61300    2.59400    2.60800    8.50000    8.62500    0.06500   71.27000  133.43100   29.80800    0.11000    8.25000    3.24800    3.28000    3.44800    2.59900    3.84500   23.14000    3.84500    3.44800    3.84500 -999.25000 -999.25000 -999.25000 -999.25000 -999.25000 -999.25000 -999.25000 -999.25000
 3415.00000    2.60200    2.59500    2.60000    2.61300    8.50000    8.62500    0.06200   71.45500  133.55200   28.12300    0.10700    8.19400    3.27100    3.22000    3.46300    2.59500    3.87400   23.63700    3.87400    3.46300    3.87400 -999.25000 -999.25000 -999.25000 -999.25000 -999.25000 -999.25000 -999.25000 -999.25000
 3415.50000    2.58200    2.58700    2.60900    2.59100    8.50000    8.62500    0.05800   71.48600  130.19400   26.67700    0.10100    7.87900    3.32000    3.18300    3.51900    2.59400    3.99900   23.34100    3.99900    3.51900    3.99900 -999.25000 -999.25000 -999.25000 -999.25000 -999.25000 -999.25000 -999.25000 -999.25000
 3416.00000    2.58800    2.61100    2.62300    2.59500    8.50000    8.62500    0.07100   70.41100  127.68800   26.06700    0.10100    8.31200    3.34400    3.16000    3.53900    2.60700    4.03600   22.79300    4.03600    3.53900    4.03600 -999.25000 -999.25000 -999.25000 -999.25000 -999.25000 -999.25000 -999.25000 -999.25000
 3416.50000    2.59400    2.60500    2.61400    2.58300    8.50000    8.62500    0.06100   69.92800  131.86900   24.56300    0.10000    8.08000    3.31900    3.12100    3.54700    2.59900    4.14100   22.27800    4.14100    3.54700    4.14100 -999.25000 -999.25000 -999.25000 -999.25000 -999.25000 -999.25000 -999.25000 -999.25000
 3417.00000    2.59100    2.60600    2.59300    2.59200    8.50000    8.62500    0.06100   70.64700  133.10600   26.36900    0.10300    8.16300    3.25700    3.11200    3.51300    2.59200    4.11200   22.90400    4.11200    3.51300    4.11200 -999.25000 -999.25000 -999.25000 -999.25000 -999.25000 -999.25000 -999.25000 -999.25000
 3417.50000    2.58800    2.60100    2.61300    2.60000    8.50000    8.62500    0.06300   71.56100  135.97700   25.61700    0.10700    8.16200    3.16300    3.07300    3.40900    2.60000    3.99200   22.97500    3.99200    3.40900    3.99200 -999.25000 -999.25000 -999.25000 -999.25000 -999.25000 -999.25000 -999.25000 -999.25000
 3418.00000    2.61200    2.59700    2.61300    2.60500    8.50000    8.62500    0.06300   72.75900  140.17700   32.91600    0.11300    8.02500    3.06400    3.07600    3.28800    2.60000    3.73700   23.71700    3.73700    3.28800    3.73700 -999.25000 -999.25000 -999.25000 -999.25000 -999.25000 -999.25000 -999.25000 -999.25000
 3418.50000    2.61700    2.59300    2.59500    2.59800    8.50000    8.62500    0.06400   74.58800  143.93900   36.10200    0.12500    7.96500    3.05400    3.12100    3.10200    2.60000    3.29300   23.89800    3.29300    3.10200    3.29300 -999.25000 -999.25000 -999.25000 -999.25000 -999.25000 -999.25000 -999.25000 -999.25000
 3419.00000    2.58200    2.60600    2.59700    2.58800    8.50000    8.62500    0.06000   73.30600  137.72700   35.75000    0.12500    8.02500    3.06700    3.12700    3.12500    2.58700    3.30300   25.11300    3.30300    3.12500    3.30300 -999.25000 -999.25000 -999.25000 -999.25000 -999.25000 -999.25000 -999.25000 -999.25000
 3419.50000    2.57700    2.56900    2.58700    2.57600    8.50000    8.64800    0.05400   71.63200  132.96600   27.82700    0.10800    8.16500    3.19100    3.18400    3.25600    2.57900    3.47900   25.97000    3.48000    3.25600    3.47900 -999.25000 -999.25000 -999.25000 -999.25000 -999.25000 -999.25000 -999.25000 -999.25000
 3420.00000    2.58000    2.58700    2.61200    2.57500    8.50000    8.62500    0.05700   69.64100  133.70500   24.81000    0.09800    8.12500    3.34900    3.22500    3.48800    2.59200    3.93300   24.00900    3.93400    3.48800    3.93300 -999.25000 -999.25000 -999.25000 -999.25000 -999.25000 -999.25000 -999.25000 -999.25000
 3420.50000    2.58900    2.62000    2.61000    2.60100    8.50000    8.62500    0.05400   67.81100  125.65100   22.96100    0.08700    7.99500    3.47100    3.27400    3.75600    2.60200    4.51600   21.64700    4.51600    3.75600    4.51600 -999.25000 -999.25000 -999.25000 -999.25000 -999.25000 -999.25000 -999.25000 -999.25000
 3421.00000    2.57600    2.61000    2.61000    2.59400    8.50000    8.62500    0.05200   68.50900  126.36900   19.05400    0.07800    8.09800    3.49800    3.30500    3.91200    2.59900    4.78800   19.91800    4.78800    3.91200    4.78800 -999.25000 -999.25000 -999.25000 -999.25000 -999.25000 -999.25000 -999.25000 -999.25000
 3421.50000    2.59100    2.60400    2.60200    2.59500    8.50000    8.62500    0.05400   69.62400  127.85800   20.20600    0.08800    8.05400    3.49900    3.32700    3.86600    2.59700    4.64900   18.78400    4.64900    3.86600    4.64900 -999.25000 -999.25000 -999.25000 -999.25000 -999.25000 -999.25000 -999.25000 -999.25000
 3422.00000    2.61200    2.60600    2.61600    2.60000    8.50000    8.62500    0.06100   70.22900  129.74800   23.93800    0.09900    8.12400    3.46900    3.36200    3.72000    2.61000    4.25500   19.78900    4.25500    3.72000    4.25500 -999.25000 -999.25000 -999.25000 -999.25000 -999.25000 -999.25000 -999.25000 -999.25000
 3422.50000    2.60600    2.60200    2.61900    2.59500    8.50000    8.62500    0.06400   71.92900  126.16700   26.46700    0.10700    8.17900    3.48800    3.38700    3.58000    2.60400    3.88900   19.44600    3.88900    3.58000    3.88900 -999.25000 -999.25000 -999.25000 -999.25000 -999.25000 -999.25000 -999.25000 -999.25000
 3423.00000    2.59500    2.59200    2.61500    2.60200    8.50000    8.62500    0.06300   71.23700  129.40400   25.39600    0.10200    8.20200    3.41800    3.40400    3.62800    2.60500    3.96100   16.38900    3.96100    3.62800    3.96100 -999.25000 -999.25000 -999.25000 -999.25000 -999.25000 -999.25000 -999.25000 -999.25000
 3423.50000    2.58200    2.60400    2.59700    2.60800    8.50000    8.57800    0.05800   70.48800  129.52900   25.28200    0.10300    8.02400    3.40900    3.41900    3.62800    2.59600    4.03000   18.13000    4.03000    3.62800    4.03000 -999.25000 -999.25000 -999.25000 -999.25000 -999.25000 -999.25000 -999.25000 -999.25000
 3424.00000    2.58900    2.61800    2.60600    2.58400    8.50000    8.62500    0.05900   69.77900  128.52800   24.37900    0.09500    8.20300    3.36900    3.45400    3.66700    2.59700    4.14200   22.13600    4.14200    3.66700    4.14200 -999.25000 -999.25000 -999.25000 -999.25000 -999.25000 -999.25000 -999.25000 -999.25000
 3424.50000    2.58700    2.57100    2.58900    2.60000    8.50000    8.62500    0.05200   70.79300  123.70900   26.31400    0.10300    7.99500    3.37900    3.48700    3.63600    2.59100    4.11200   23.48300    4.11200    3.63600    4.11200 -999.25000 -999.25000 -999.25000 -999.25000 -999.25000 -999.25000 -999.25000 -999.25000
 3425.00000    2.61400    2.61100    2.59700    2.60900    8.50000    8.62500    0.05900   70.88100  127.66500   26.42000    0.09900    8.19100    3.40800    3.53900    3.67800    2.60700    4.16100   25.19900    4.16200    3.67800    4.16100 -999.25000 -999.25000 -999.25000 -999.25000 -999.25000 -999.25000 -999.25000 -999.25000
 3425.50000    2.59100    2.60700    2.62100    2.60600    8.50000    8.62500    0.05900   71.25500  129.96100   26.05500    0.09800    8.05700    3.49800    3.62500    3.77600    2.60800    4.27900   26.37000    4.27900    3.77600    4.27900 -999.25000 -999.25000 -999.25000 -999.25000 -999.25000 -999.25000 -999.25000 -999.25000
