~Version ---------------------------------------------------
VERS.   2.0 : CWLS log ASCII Standard -VERSION 2.0
WRAP.    NO : One line per depth step
DLM . SPACE : Column Data Section Delimiter
~Well ------------------------------------------------------
STRT.ft          145.90000 : START DEPTH
STOP.ft         4684.90000 : STOP DEPTH
STEP.ft            0.50000 : STEP
NULL.              -999.25 : NULL VALUE
COMP. STATOIL PETROLEUM AS : COMPANY
WELL.          15/9-F-15 D : WELL
FLD .                VOLVE : FIELD
LOC .                      : LOCATION
PROV.                      : PROVINCE
CNTY.      MAERSK INSPIRER : COUNTY
STAT.                      : STATE
CTRY.                      : COUNTRY
SRVC.                      : SERVICE COMPANY
DATE.                      : DATE
UWI .                      : UNIQUE WELL ID
API .                      : API NUMBER
~Curve Information -----------------------------------------
DEPT     .ft        : 
ABDCQF01 .g/cm3     : 
ABDCQF02 .g/cm3     : 
ABDCQF03 .g/cm3     : 
ABDCQF04 .g/cm3     : 
BS       .inches    : 
CALI     .inches    : 
DRHO     .g/cm3     : 
GR       .API       : 
NBGRCFM  .API       : 
NPHI     .v/v       : 
PEF      .b/elec    : 
RACEHM   .ohm.m     : 
RACELM   .ohm.m     : 
RD       .ohm.m     : 
RHOB     .g/cm3     : 
RM       .ohm.m     : 
ROP      .m/hr      : 
RPCEHM   .ohm.m     : 
RPCELM   .ohm.m     : 
RT       .ohm.m     : 
BVW      .v/v       : 
COAL_FLAG.unitless  : 
KLOGH    .mD        : 
PHIF     .v/v       : 
SAND_FLAG.unitless  : 
SW       .v/v       : 
VCARB    .v/v       : 
VSH      .v/v       : 
~Params ----------------------------------------------------
~Other -----------------------------------------------------
PETROPHYSICAL INTERPRETATION: INPUT

# --- LOG MNEMONICS AND UNITS ---
#Depth          ABDCQF01        ABDCQF02        ABDCQF03        ABDCQF04        BS              CALI            DRHO            GR              NBGRCFM         NPHI            PEF             RACEHM          RACELM          RD              RHOB            RM              ROP             RPCEHM          RPCELM          RT
#M              g/cm3           g/cm3           g/cm3           g/cm3           inches          inches          g/cm3           API             API             v/v             b/elec          ohm.m           ohm.m           ohm.m           g/cm3           ohm.m           m/hr            ohm.m           ohm.m           ohm.m
~ASCII -----------------------------------------------------
# ...
 3445.90000    2.62720    2.60080    2.59010    2.58540    8.50000    8.52330    0.05360   61.60620   61.62550    0.21530    7.03900    2.79530    2.67280    2.85570    2.59830    3.21540   24.42570    3.21540    2.85570    3.18350 -999.25000 -999.25000 -999.25000 -999.25000 -999.25000 -999.25000 -999.25000 -999.25000
 3446.40000    2.59720    2.56810    2.57870    2.58370    8.50000    8.54690    0.05860   65.59500   66.73940    0.20570    7.15920    2.83270    2.68170    2.78870    2.57820    3.06240   24.27600    3.06240    2.78870    3.05790 -999.25000 -999.25000 -999.25000 -999.25000 -999.25000 -999.25000 -999.25000 -999.25000
 3446.90000    2.60090    2.58300    2.58940    2.58050    8.50000    8.54640    0.05120   58.25640   60.47170    0.19770    7.10300    2.77400    2.65510    2.80020    2.58500    3.16170   24.43710    3.16160    2.80020    3.18730 -999.25000 -999.25000 -999.25000 -999.25000 -999.25000 -999.25000 -999.25000 -999.25000
 3447.40000    2.57760    2.60780    2.59000    2.57910    8.50000    8.46890    0.04980   57.83330   58.28620    0.19460    6.78560    2.74580    2.63860    2.72930    2.58840    3.07800   24.43790    3.07800    2.72930    3.10940 -999.25000 -999.25000 -999.25000 -999.25000 -999.25000 -999.25000 -999.25000 -999.25000
 3447.90000    2.57570    2.60620    2.60210    2.59800    8.50000    8.54660    0.05130   59.74320   56.49210    0.16630    7.21260    2.70900    2.64270    2.81770    2.59520    3.31340   24.50080    3.31340    2.81770    3.28820 -999.25000 -999.25000 -999.25000 -999.25000 -999.25000 -999.25000 -999.25000 -999.25000
 3448.40000    2.59140    2.59160    2.60390    2.58450    8.50000    8.51580    0.04590   84.48180   81.31560    0.16380    7.08410    2.81630    2.65750    2.75990    2.59010    3.13260   24.47220    3.13260    2.75990    3.09600 -999.25000 -999.25000 -999.25000 -999.25000 -999.25000 -999.25000 -999.25000 -999.25000
 3448.90000    2.59500    2.59520    2.59220    2.60160    8.50000    8.57810    0.05300  161.87700  149.87520    0.17110    7.23430    2.84050    2.67940    2.99620    2.59470    3.69460   24.43440    3.69460    2.99620    3.60370 -999.25000 -999.25000 -999.25000 -999.25000 -999.25000 -999.25000 -999.25000 -999.25000
 3449.40000    2.59920    2.53530    2.48160    2.57580    8.50000    8.56780    0.05830  242.44150  254.84380    0.23050    7.18060    3.03920    2.68610    2.83090    2.54270    3.26310   24.46570    3.26300    2.83090    3.34640 -999.25000 -999.25000 -999.25000 -999.25000 -999.25000 -999.25000 -999.25000 -999.25000
 3449.90000    2.50250    2.27930    2.25880    2.37720    8.50000    8.71870    0.06920  261.41440  257.33530    0.41110    7.72840    2.93460    2.67170    2.93980    2.33940    3.66000   24.43970    3.66000    2.93980    3.66640 -999.25000 -999.25000 -999.25000 -999.25000 -999.25000 -999.25000 -999.25000 -999.25000
 3450.40000    2.25880    2.26010    2.26650    2.23930    8.50000    8.54720    0.03120  256.87030  258.28370    0.45600    7.48530    2.94060    2.66160    2.71320    2.25440    3.30310   24.44080    3.30320    2.71320    3.14120 -999.25000 -999.25000 -999.25000 -999.25000 -999.25000 -999.25000 -999.25000 -999.25000
 3450.90000    2.26390    2.26990    2.26280    2.26560    8.50000    8.56260    0.03600  267.56300  251.84520    0.43870    6.92510    2.88150    2.63510    2.67710    2.26040    3.19840   23.36640    3.19830    2.67700    3.32960 -999.25000 -999.25000 -999.25000 -999.25000 -999.25000 -999.25000 -999.25000 -999.25000
 3451.40000    2.25180    2.28240    2.29120    2.30480    8.50000    8.61340    0.04250  266.22840  247.65550    0.44830    7.11330    2.73820    2.61010    2.53810    2.27940    2.95000   19.55190    2.95000    2.53810    2.97930 -999.25000 -999.25000 -999.25000 -999.25000 -999.25000 -999.25000 -999.25000 -999.25000
 3451.90000    2.30020    2.26460    2.25450    2.28590    8.50000    8.60920    0.04140  259.29770  242.69500    0.45270    7.05640    2.73880    2.55590    2.66190    2.27060    3.32910   19.67350    3.32920    2.66190    3.21390 -999.25000 -999.25000 -999.25000 -999.25000 -999.25000 -999.25000 -999.25000 -999.25000
 3452.40000    2.30560    2.23960    2.23290    2.25410    8.50000    8.57810    0.04000  253.71910  242.27520    0.46680    6.72840    2.93100    2.55030    3.18390    2.25300    4.48530   23.01210    4.48530    3.18390    4.25280 -999.25000 -999.25000 -999.25000 -999.25000 -999.25000 -999.25000 -999.25000 -999.25000
 3452.90000    2.22040    2.24030    2.27120    2.23230    8.50000    8.54690    0.02350  247.74260  224.80160    0.46460    7.04300    2.97890    2.57020    2.93520    2.24090    3.97400   26.91720    3.97400    2.93520    3.75010 -999.25000 -999.25000 -999.25000 -999.25000 -999.25000 -999.25000 -999.25000 -999.25000
 3453.40000    2.26890    2.31430    2.25880    2.23970    8.50000    8.54690    0.03340  242.21290  243.93260    0.45530    7.09530    2.93550    2.54720    2.63420    2.26990    3.18830   26.84270    3.18830    2.63420    3.20170 -999.25000 -999.25000 -999.25000 -999.25000 -999.25000 -999.25000 -999.25000 -999.25000
 3453.90000    2.23910    2.24670    2.23820    2.24880    8.50000    8.57810    0.03520  238.18440  230.07090    0.46700    6.70420    2.70610    2.52960    2.77710    2.24160    3.72550   26.55710    3.72550    2.77710    3.66330 -999.25000 -999.25000 -999.25000 -999.25000 -999.25000 -999.25000 -999.25000 -999.25000
 3454.40000    2.22630    2.21430    2.22700    2.23170    8.50000    8.54690    0.01940  240.49780  212.67660    0.46040    7.05420    2.74970    2.51730    2.64640    2.22080    3.22650   26.54640    3.22660    2.64650    3.37100 -999.25000 -999.25000 -999.25000 -999.25000 -999.25000 -999.25000 -999.25000 -999.25000
 3454.90000    2.25950    2.35860    2.32810    2.27200    8.50000    8.57030    0.01210  231.53820  200.77750    0.43070    8.05010    2.63670    2.51770    2.52000    2.30120    2.86800   26.52890    2.86810    2.52000    2.83280 -999.25000 -999.25000 -999.25000 -999.25000 -999.25000 -999.25000 -999.25000 -999.25000
 3455.40000    2.34170    2.28600    2.28120    2.33990    8.50000    8.54690    0.04670  209.69180  214.28830    0.44240    6.90560    2.53530    2.47730    2.57030    2.30860    3.10300   26.51950    3.10310    2.57030    3.04940 -999.25000 -999.25000 -999.25000 -999.25000 -999.25000 -999.25000 -999.25000 -999.25000
 3455.90000    2.23080    2.21450    2.22500    2.23870    8.50000    8.55730    0.03540  208.87380  224.61830    0.45690    6.22920    2.63140    2.49450    2.43600    2.22400    2.72530   26.52990    2.72530    2.43600    2.68080 -999.25000 -999.25000 -999.25000 -999.25000 -999.25000 -999.25000 -999.25000 -999.25000
 3456.40000    2.22020    2.21830    2.23620    2.23220    8.50000    8.54690    0.02580  224.73810  220.28630    0.43590    6.32280    2.76440    2.52420    2.44580    2.22510    2.82630   26.53680    2.82630    2.44580    2.80160 -999.25000 -999.25000 -999.25000 -999.25000 -999.25000 -999.25000 -999.25000 -999.25000
 3456.90000    2.26090    2.25000    2.24600    2.24620    8.50000    8.54690    0.02000  225.58040  204.79270    0.43670    6.66130    2.74470    2.53210    2.68200    2.24800    3.28310   26.56030    3.28310    2.68210    3.20170 -999.25000 -999.25000 -999.25000 -999.25000 -999.25000 -999.25000 -999.25000 -999.25000
 3457.40000    2.26180    2.23570    2.21180    2.22360    8.50000    8.54690    0.03640  214.11560  191.34600    0.43900    6.59180    2.98890    2.58730    3.08250    2.23190    4.41960   26.56070    4.41950    3.08250    4.45020 -999.25000 -999.25000 -999.25000 -999.25000 -999.25000 -999.25000 -999.25000 -999.25000
 3457.90000    2.29970    2.23470    2.17680    2.23180    8.50000    8.56760    0.02600  190.12050  200.40800    0.45930    6.31650    2.70480    2.57050    3.00530    2.21900    4.17600   26.57380    4.17580    3.00530    4.30160 -999.25000 -999.25000 -999.25000 -999.25000 -999.25000 -999.25000 -999.25000 -999.25000
