~Version ---------------------------------------------------
VERS.   2.0 : CWLS log ASCII Standard -VERSION 2.0
WRAP.    NO : One line per depth step
DLM . SPACE : Column Data Section Delimiter
~Well ------------------------------------------------------
STRT.ft          145.90000 : START DEPTH
STOP.ft         3681.90000 : STOP DEPTH
STEP.ft            0.50000 : STEP
NULL.              -999.25 : NULL VALUE
COMP. Statoil Petroleum AS : COMPANY
WELL.           15/9-F-1 A : WELL
FLD .                VOLVE : FIELD
LOC .      Maersk Inspirer : LOCATION
PROV.                      : PROVINCE
CNTY.               Unused : COUNTY
STAT.                      : STATE
CTRY.                      : COUNTRY
SRVC.                      : SERVICE COMPANY
DATE.                      : DATE
UWI .                      : UNIQUE WELL ID
API .                      : API NUMBER
~Curve Information -----------------------------------------
DEPT     .ft        : 
ABDCQF01 .g/cm3     : 
ABDCQF02 .g/cm3     : 
ABDCQF03 .g/cm3     : 
ABDCQF04 .g/cm3     : 
BS       .inches    : 
CALI     .inches    : 
DRHO     .g/cm3     : 
DT       .us/ft     : 
DTS      .us/ft     : 
GR       .API       : 
NPHI     .v/v       : 
PEF      .b/elec    : 
RACEHM   .UNKNOWN   : 
RACELM   .UNKNOWN   : 
RHOB     .g/cm3     : 
ROP      .m/hr      : 
RPCEHM   .UNKNOWN   : 
RPCELM   .UNKNOWN   : 
RT       .ohm.m     : 
BVW      .V/V       : 
COAL_FLAG.unitless  : 
KLOGH    .mD        : 
PHIF     .V/V       : 
SAND_FLAG.unitless  : 
SW       .V/V       : 
VCARB    .V/V       : 
VSH      .V/V       : 
~Params ----------------------------------------------------
~Other -----------------------------------------------------
PETROPHYSICAL INTERPRETATION: INPUT

# --- LOG MNEMONICS AND UNITS ---
#Depth          ABDCQF01        ABDCQF02        ABDCQF03        ABDCQF04        BS              CALI            DRHO            DT              DTS             GR              NPHI            PEF             RACEHM          RACELM          RHOB            ROP             RPCEHM          RPCELM          RT
#M              g/cm3           g/cm3           g/cm3           g/cm3           inches          inches          g/cm3           us/ft           us/ft           API             v/v             b/elec          UNKNOWN         UNKNOWN         g/cm3           m/hr            UNKNOWN         UNKNOWN         ohm.m
~ASCII -----------------------------------------------------
# ...
 3369.90000    2.35860    2.30750    2.29580    2.34280    8.50000    8.62500    0.04440  104.68750  217.84320  184.00560    0.41550    6.79010    2.73370    2.94930    2.31560   28.79520    2.95310    2.68890    2.95310 -999.25000    0.00000 -999.25000 -999.25000 -999.25000 -999.25000    0.00750    0.91630
 3370.40000    2.30250    2.29080    2.29340    2.28640    8.50000    8.62500    0.03650  105.03690  216.16510  167.27110    0.40200    6.49220    2.72860    2.93350    2.29190   27.89520    3.68440    2.98660    3.68440 -999.25000    0.00000 -999.25000 -999.25000 -999.25000 -999.25000    0.00000    0.82860
 3370.90000    2.30740    2.29020    2.30190    2.32680    8.50000    8.62500    0.03680  103.65570  209.85710  191.10610    0.40170    6.96940    3.22530    3.14950    2.30640   25.29270    3.44630    3.14500    3.44630 -999.25000    0.00000 -999.25000 -999.25000 -999.25000 -999.25000    0.04840    0.95330
 3371.40000    2.30020    2.31160    2.32640    2.28900    8.50000    8.62500    0.03450  103.53980  202.98270  215.67780    0.40510    7.12560    3.54040    3.36010    2.30420   23.90890    4.11650    3.55050    4.11650 -999.25000    0.00000 -999.25000 -999.25000 -999.25000 -999.25000    0.10080    1.00000
 3371.90000    2.28420    2.25510    2.23950    2.27050    8.50000    8.57810    0.04530  104.69420  194.91870  212.59250    0.41540    7.02130    3.72700    3.54780    2.25320   23.84990    4.45170    3.85140    4.45170 -999.25000    0.00000 -999.25000 -999.25000 -999.25000 -999.25000    0.16000    1.00000
 3372.40000    2.22690    2.23450    2.27280    2.23590    8.50000    8.62500    0.03940  104.92820  186.54790  219.14380    0.46100    6.88660    3.98300    3.72600    2.24830   23.92800    4.40790    4.00930    4.40790 -999.25000    0.00000 -999.25000 -999.25000 -999.25000 -999.25000    0.16630    1.00000
 3372.90000    2.26170    2.24980    2.24930    2.27000    8.50000    8.62490    0.03410  105.19340  182.73080  227.79540    0.43290    6.62870    4.21220    3.86790    2.25240   23.86150    4.42150    4.12150    4.42150 -999.25000    0.00000 -999.25000 -999.25000 -999.25000 -999.25000    0.16100    1.00000
 3373.40000    2.25570    2.23330    2.21740    2.25360    8.50000    8.57810    0.03550  105.30930  185.52860  247.42660    0.43110    6.41810    4.29030    3.91790    2.23280   23.88790    6.05210    4.75270    6.05210 -999.25000    0.00000 -999.25000 -999.25000 -999.25000 -999.25000    0.18710    1.00000
 3373.90000    2.21720    2.23220    2.21420    2.21490    8.50000    8.57810    0.03500  105.00530  187.62220  238.95850    0.42400    6.57890    4.24340    3.90090    2.21680   23.87310    7.70410    5.24440    7.70410 -999.25000    0.00000 -999.25000 -999.25000 -999.25000 -999.25000    0.20970    1.00000
 3374.40000    2.21700    2.21500    2.24120    2.24780    8.50000    8.57810    0.02910  104.89760  185.49890  224.25080    0.39940    6.57130    4.32780    3.99560    2.22380   23.89510    5.15710    4.38360    5.15710 -999.25000    0.00000 -999.25000 -999.25000 -999.25000 -999.25000    0.19970    1.00000
 3374.90000    2.25930    2.25430    2.27280    2.27280    8.50000    8.57810    0.02850  104.95690  182.19980  230.09300    0.42280    6.78680    4.03760    4.01080    2.25860   23.88060    4.53730    4.09500    4.53730 -999.25000    0.00000 -999.25000 -999.25000 -999.25000 -999.25000    0.15310    1.00000
 3375.40000    2.25600    2.27870    2.30420    2.34310    8.50000    8.57810    0.04350  105.09650  183.19870  227.58870    0.42150    6.77020    3.76410    3.93610    2.28290   23.90580    4.65110    4.04800    4.65110 -999.25000    0.00000 -999.25000 -999.25000 -999.25000 -999.25000    0.12400    1.00000
 3375.90000    2.25840    2.25480    2.25950    2.25010    8.50000    8.57810    0.04160  105.58730  184.80260  237.35310    0.42110    6.53650    3.79640    3.93850    2.25270   23.75350    4.26420    3.83900    4.26420 -999.25000    0.00000 -999.25000 -999.25000 -999.25000 -999.25000    0.16060    1.00000
 3376.40000    2.25190    2.26430    2.26650    2.25990    8.50000    8.57810    0.03060  105.45770  184.46480  228.42080    0.41050    6.70840    3.84990    3.93890    2.25690   23.89330    4.41980    3.87440    4.41980 -999.25000    0.00000 -999.25000 -999.25000 -999.25000 -999.25000    0.15530    1.00000
 3376.90000    2.25350    2.30040    2.31180    2.27390    8.50000    8.57810    0.02420  104.79410  183.54480  225.18570    0.41480    6.52180    3.77990    3.83560    2.28540   23.78980    5.38650    4.20530    5.38650 -999.25000    0.00000 -999.25000 -999.25000 -999.25000 -999.25000    0.12120    1.00000
 3377.40000    2.26010    2.26170    2.27500    2.26650    8.50000    8.57810    0.03900  104.23590  184.62560  227.72020    0.40280    6.60990    3.81100    3.79470    2.26380   23.88110    5.27650    4.14290    5.27650 -999.25000    0.00000 -999.25000 -999.25000 -999.25000 -999.25000    0.14670    1.00000
 3377.90000    2.27730    2.27440    2.26420    2.28910    8.50000    8.57810    0.04060  103.30340  188.54590  244.78870    0.38550    6.56310    3.71710    3.76700    2.27120   23.92560    5.13620    4.05710    5.13620 -999.25000    0.00000 -999.25000 -999.25000 -999.25000 -999.25000    0.13770    1.00000
 3378.40000    2.28780    2.32160    2.28700    2.25670    8.50000    8.57810    0.04210  102.39180  194.35710  229.37590    0.40520    6.55930    3.66160    3.88820    2.28520   23.86630    4.23750    3.78270    4.23750 -999.25000    0.00000 -999.25000 -999.25000 -999.25000 -999.25000    0.12140    1.00000
 3378.90000    2.27930    2.27910    2.23640    2.24840    8.50000    8.57810    0.04140  103.73820  196.27460  204.59410    0.43070    6.23790    3.50450    3.91510    2.25240   23.93320    4.66700    3.93200    4.66700 -999.25000    0.00000 -999.25000 -999.25000 -999.25000 -999.25000    0.16100    1.00000
 3379.40000    2.24620    2.23230    2.25110    2.23600    8.50000    8.57810    0.03240  104.93150  193.35330  210.47190    0.42630    6.14420    3.56550    4.01500    2.23450   23.90960    4.28360    3.86560    4.28360 -999.25000    0.00000 -999.25000 -999.25000 -999.25000 -999.25000    0.18480    1.00000
 3379.90000    2.27090    2.23270    2.21220    2.23180    8.50000    8.60170    0.04330  105.02120  190.09910  235.76220    0.41690    6.03930    3.60150    4.08290    2.23010   23.86770    4.36750    4.00250    4.36750 -999.25000    0.00000 -999.25000 -999.25000 -999.25000 -999.25000    0.19080    1.00000
 3380.40000    2.21110    2.24850    2.27730    2.24440    8.50000    8.57810    0.03410  104.55920  188.48590  240.34560    0.40630    6.58890    3.95590    4.41280    2.23710   23.71120    3.80970    3.91870    3.80970 -999.25000    0.00000 -999.25000 -999.25000 -999.25000 -999.25000    0.18120    1.00000
 3380.90000    2.28160    2.27460    2.25580    2.28300    8.50000    8.62500    0.03400  102.98630  187.83560  240.99040    0.39240    6.45470    4.18960    4.44360    2.26950   23.85280    4.29150    4.28490    4.29150 -999.25000    0.00000 -999.25000 -999.25000 -999.25000 -999.25000    0.13970    1.00000
 3381.40000    2.27880    2.25420    2.26230    2.25740    8.50000    8.57810    0.03690  103.17090  188.62510  249.35040    0.38570    6.11700    4.20120    4.47300    2.25920   23.89710    4.16660    4.14130    4.16660 -999.25000    0.00000 -999.25000 -999.25000 -999.25000 -999.25000    0.15240    1.00000
 3381.90000    2.25030    2.26320    2.25630    2.30490    8.50000    8.57810    0.02530  104.19180  191.05640  253.30240    0.37860    6.62600    4.23650    4.42190    2.26700   23.88270    4.95450    4.44180    4.95450 -999.25000    0.00000 -999.25000 -999.25000 -999.25000 -999.25000    0.14270    1.00000
 3382.40000    2.25200    2.23340    2.29810    2.27450    8.50000    8.57820    0.02420  104.42510  193.55240  259.90970    0.42120    6.91890    4.15320    4.21320    2.26730   23.90470    5.13730    4.50330    5.13730 -999.25000    0.00000 -999.25000 -999.25000 -999.25000 -999.25000    0.14240    1.00000
