~Version ---------------------------------------------------
VERS.   2.0 : CWLS log ASCII Standard -VERSION 2.0
WRAP.    NO : One line per depth step
DLM . SPACE : Column Data Section Delimiter
~Well ------------------------------------------------------
STRT.ft  239.87760 : START DEPTH
STOP.ft 4186.87760 : STOP DEPTH
STEP.ft    0.50000 : STEP
NULL.      -999.25 : NULL VALUE
COMP. STATOILHYDRO : COMPANY
WELL.    15/9-F-12 : WELL
FLD .        VOLVE : FIELD
LOC .      UNKNOWN : LOCATION
PROV.              : PROVINCE
CNTY.      UNKNOWN : COUNTY
STAT.      UNKNOWN : STATE
CTRY.       Norway : COUNTRY
SRVC.      UNKNOWN : SERVICE COMPANY
DATE.      UNKNOWN : DATE
UWI . NO 15/9-F-12 : UNIQUE WELL ID
API .              : API NUMBER
~Curve Information -----------------------------------------
DEPT     .ft           : 
CARB_FLAG.UNKNOWN      : 
COAL_FLAG.UNKNOWN      : 
DT       .us/ft        : 
GR       .API          : 
NPHI     .v/v_decimal  : 
RD       .UNKNOWN      : 
RHOB     .g/cm3        : 
ROP5_RM  .UNKNOWN      : 
RS       .UNKNOWN      : 
RT       .ohm.m        : 
SAND_FLAG.UNKNOWN      : 
BVW      .v/v_decimal  : 
KLOGH    .mD           : 
PHIF     .v/v_decimal  : 
SW       .v/v_decimal  : 
VSH      .v/v_decimal  : 
~Params ----------------------------------------------------
~Other -----------------------------------------------------
~ASCII -----------------------------------------------------
# ...
 3142.37760    0.00000    0.00000   92.82213   70.75981    0.21995    6.93539    2.31162    3.42205    3.28889    3.94579    0.00000    0.08584    0.10947    0.21399    0.40028    0.52657
 3142.87760    0.00000    0.00000   85.30154   55.06979    0.24446    8.68616    2.18696    3.55104   12.64968   15.24141    1.00000    0.05006    6.76156    0.26652    0.18818    0.37566
 3143.37760    0.00000    0.00000   89.29804   49.19548    0.24675   12.38187    2.16000    4.15129   26.74443   47.29772    1.00000    0.03127   21.95547    0.27675    0.11305    0.31921
 3143.87760    0.00000    0.00000   91.78425   47.75223    0.24614   12.67537    2.16037    4.61857   39.58548   37.59783    1.00000    0.03424   29.02772    0.27635    0.12381    0.30535
 3144.37760    0.00000    0.00000   88.02224   48.13213    0.23127   17.13754    2.25820    5.41990 3781.85350   95.07297    1.00000    0.02278   13.18870    0.23682    0.09603    0.30894
 3144.87760    0.00000    0.00000   92.15367   51.87681    0.22905   16.72161    2.26735    5.63485 1244.82073  105.52419    1.00000    0.02177    5.75560    0.23285    0.09351    0.34501
 3145.37760    0.00000    0.00000   87.79999   55.42912    0.23591   13.20514    2.23736    5.73572   17.50316   63.63700    1.00000    0.02730    3.58603    0.24584    0.11087    0.37913
 3145.87760    0.24147    0.00000   80.18835   63.25599    0.19868    9.43800    2.41880    5.83794   23.87635   37.10086    0.75853    0.03151    0.19098    0.15789    0.21098    0.45439
 3146.37760    0.00000    0.00000   79.27717   74.39095    0.20134    9.55462    2.47243    5.64855    9.16218    9.96953    0.00000    0.05484    0.00606    0.10144    0.53955    0.56147
 3146.87760    0.00000    0.00000   84.42298   85.12161    0.21427    7.19391    2.42470    5.17220    2.96461    2.68779    0.00000    0.09403    0.00112    0.12875    0.73097    0.66460
 3147.37760    0.00000    0.00000   81.79573   85.55530    0.22526    3.88862    2.34281    4.80731    3.66832    3.44316    0.00000    0.09182    0.00420    0.20538    0.44700    0.66882
 3147.87760    0.00000    0.00000   81.93345   88.59334    0.20359    2.71993    2.46352    4.87352    2.82473    3.26712    0.00000    0.08366    0.00100    0.10662    0.80207    0.69803
 3148.37760    0.00000    0.00000   79.98579   99.31799    0.21196    2.69817    2.50246    4.98799    2.43732    2.98652    0.00000    0.08315    0.00100    0.08430    0.98572    0.80113
 3148.87760    0.00000    0.00000   70.30066  107.95076    0.21575    3.03961    2.52263    5.13839    2.01462    2.08661    0.00000    0.07278    0.00100    0.07278    1.00000    0.88412
 3149.37760    0.00000    0.00000   70.55891   95.78634    0.19173    4.96756    2.54506    5.14977    1.91023    1.53061    0.00000    0.05997    0.00100    0.05997    1.00000    0.76716
 3149.87760    0.00000    0.00000   90.51045   54.50441    0.21227    8.27869    2.32343    5.06451    5.65067   11.81644    1.00000    0.05264    6.72256    0.20683    0.25794    0.37024
 3150.37760    0.00000    0.00000   88.09704   33.92029    0.22881   12.51313    2.20473    4.91159   24.28248   37.11098    1.00000    0.03311  320.39133    0.25419    0.13023    0.17228
 3150.87760    0.00000    0.00000   89.01622   29.98022    0.23472   15.07128    2.19013    5.20944   27.80027   35.63655    1.00000    0.03356  763.15353    0.26157    0.12826    0.13441
 3151.37760    0.00000    0.00000   89.40757   29.49669    0.22345   16.56196    2.23535    5.52392   24.95771   27.87076    1.00000    0.03636  582.66987    0.24156    0.15051    0.12977
 3151.87760    0.00000    0.00000   88.80705   30.85715    0.21715   18.88371    2.25000    5.85435   25.31725   24.93087    1.00000    0.03784  386.36564    0.23402    0.16170    0.14286
 3152.37760    0.00000    0.00000   91.58140   30.66808    0.23010   20.33053    2.23486    5.63035   23.99099   22.07579    1.00000    0.04020  485.04679    0.24434    0.16434    0.14107
 3152.87760    0.00000    0.00000   87.89837   30.99430    0.23181   22.91634    2.21505    5.63629   23.49724   23.55567    1.00000    0.03941  521.74628    0.25186    0.15648    0.14415
 3153.37760    0.00000    0.00000   88.44852   30.56585    0.22364   26.18478    2.26287    6.13066   20.15184   22.05708    1.00000    0.03964  395.81999    0.23214    0.17095    0.14006
 3153.87760    0.00000    0.00000   89.62854   29.73566    0.22580   27.21146    2.27242    6.56700   17.06629   20.68051    1.00000    0.04055  446.46387    0.22975    0.17655    0.13206
 3154.37760    0.00000    0.00000   85.26706   29.92135    0.22207   29.00315    2.25492    6.59191   21.06833   35.11918    1.00000    0.03288  467.33492    0.23431    0.14019    0.13381
 3154.87760    0.00000    0.00000   87.39651   29.27217    0.21780   32.41463    2.25000    6.36609   30.52223   33.39014    1.00000    0.03353  531.85484    0.23428    0.14302    0.12761
 3155.37760    0.00000    0.00000   85.82622   29.15594    0.21752   35.89257    2.21976    6.09608   38.19760   39.54942    1.00000    0.03158  657.41203    0.24448    0.12922    0.12649
 3155.87760    0.00000    0.00000   85.72165   30.30263    0.20957   38.35876    2.23270    5.94695   45.80855   47.74295    1.00000    0.02910  455.33628    0.23692    0.12269    0.13750
 3156.37760    0.00000    0.00000   85.94323   29.68979    0.20724   41.73798    2.23997    5.64895   49.77803   45.48820    1.00000    0.02956  482.19124    0.23343    0.12642    0.13161
 3156.87760    0.00000    0.00000   87.29116   29.62681    0.21476   41.15454    2.23244    5.53734   45.24405   44.29596    1.00000    0.03000  541.19495    0.23907    0.12552    0.13102
 3157.37760    0.00000    0.00000   84.02941   31.31855    0.21507   41.92120    2.23000    5.43935   30.71917   35.89690    1.00000    0.03281  393.98538    0.24002    0.13678    0.14731
 3157.87760    0.00000    0.00000   86.11692   32.25532    0.20576   39.82269    2.26772    5.24383   36.91382   45.28092    1.00000    0.02943  240.07435    0.22332    0.13156    0.15627
 3158.37760    0.00000    0.00000   83.33745   29.52780    0.20242   35.94390    2.25731    4.81240   45.52620   47.75249    1.00000    0.02865  434.09493    0.22559    0.12716    0.13009
 3158.87760    0.00000    0.00000   84.46399   26.84040    0.19512   32.03490    2.29534    4.35016   42.83473   54.20520    1.00000    0.02667  548.36934    0.20968    0.12707    0.10421
 3159.37760    0.00000    0.00000   82.71304   26.23975    0.18749   27.72177    2.30245    8.62768   38.10974   48.73945    1.00000    0.02758  558.71981    0.20416    0.13522    0.09844
 3159.87760    0.00000    0.00000   86.36457   25.47292    0.17733   25.72015    2.34496   10.04244   37.84025   53.55895    1.00000    0.02593  461.69725    0.18546    0.13973    0.09111
 3160.37760    0.00000    0.00000   88.34595   27.84564    0.19170   21.67156    2.31468   10.02491   25.37686   42.36334    1.00000    0.02927  387.37695    0.20161    0.14513    0.11394
 3160.87760    0.00000    0.00000   79.95593   30.08957    0.18497   16.90810    2.37553   10.02757   11.15563   23.33200    1.00000    0.03650  162.68124    0.17813    0.20540    0.13550
 3161.37760    0.00000    0.00000   73.80319   31.77856    0.16308    8.00412    2.42262   10.03000   10.72200   12.45264    1.00000    0.04554   72.53686    0.15321    0.29743    0.15175
 3161.87760    0.00000    0.00000   77.28854   33.25994    0.16952    5.68639    2.43758    9.84120    4.61663    3.78404    1.00000    0.07706   51.49429    0.15063    0.51158    0.16596
 3162.37760    0.00000    0.00000   79.21013   34.67485    0.18725    6.33903    2.41737    9.66673    2.05304    1.77859    1.00000    0.10309   50.26230    0.16465    0.62643    0.17959
 3162.87760    0.00000    0.00000   76.68837   34.45360    0.19180    6.43181    2.38733    9.63000    4.08216    4.63176    1.00000    0.07110   65.69634    0.17675    0.40239    0.17746
 3163.37760    0.00000    0.00000   86.05644   31.56963    0.19596    9.15859    2.36506    9.63109    9.21012   19.91106    1.00000    0.03937  138.79770    0.18605    0.21150    0.14971
