~Version ---------------------------------------------------
VERS.   2.0 : CWLS log ASCII Standard -VERSION 2.0
WRAP.    NO : One line per depth step
DLM . SPACE : Column Data Section Delimiter
~Well ------------------------------------------------------
STRT.ft       145.90000 : START DEPTH
STOP.ft      3464.90000 : STOP DEPTH
STEP.ft         0.50000 : STEP
NULL.           -999.25 : NULL VALUE
COMP. Statoil Petroleum : COMPANY
WELL.        15/9-F-1 B : WELL
FLD .             VOLVE : FIELD
LOC .   Maersk Inspirer : LOCATION
PROV.                   : PROVINCE
CNTY.                   : COUNTY
STAT.                   : STATE
CTRY.                   : COUNTRY
SRVC.                   : SERVICE COMPANY
DATE.                   : DATE
UWI .                   : UNIQUE WELL ID
API .                   : API NUMBER
~Curve Information -----------------------------------------
DEPT     .ft        : 
ABDCQF01 .g/cm3     : 
ABDCQF02 .g/cm3     : 
ABDCQF03 .g/cm3     : 
ABDCQF04 .g/cm3     : 
BS       .inches    : 
CALI     .inches    : 
DRHO     .g/cm3     : 
DT       .us/ft     : 
DTS      .us/ft     : 
GR       .API       : 
NBGRCFM  .API       : 
NPHI     .v/v       : 
PEF      .b/elec    : 
RACEHM   .ohm.m     : 
RACELM   .ohm.m     : 
RD       .ohm.m     : 
RHOB     .g/cm3     : 
RM       .ohm.m     : 
ROP      .m/hr      : 
RPCEHM   .ohm.m     : 
RPCELM   .ohm.m     : 
RT       .ohm.m     : 
BVW      .V/V       : 
CARB_FLAG.V/V       : 
COAL_FLAG.UNITLESS  : 
KLOGH    .mD        : 
PHIF     .V/V       : 
SAND_FLAG.UNITLESS  : 
SW       .V/V       : 
VCARB    .V/V       : 
VSH      .V/V       : 
~Params ----------------------------------------------------
~Other -----------------------------------------------------
PETROPHYSICAL INTERPRETATION: INPUT

# --- LOG MNEMONICS AND UNITS ---
#Depth          ABDCQF01        ABDCQF02        ABDCQF03        ABDCQF04        BS              CALI            DRHO            DT              DTS             GR              NBGRCFM         NPHI            PEF             RACEHM          RACELM          RD              RHOB            RM              ROP             RPCEHM          RPCELM          RT
#M              g/cm3           g/cm3           g/cm3           g/cm3           inches          inches          g/cm3           us/ft           us/ft           API             API             v/v             b/elec          ohm.m           ohm.m           ohm.m           g/cm3           ohm.m           m/hr            ohm.m           ohm.m           ohm.m
~ASCII -----------------------------------------------------
# ...
 3216.40000    2.42620    2.45170    2.45400    2.44840    8.50000    8.66370    0.03830   99.70810  183.90930  123.66730 -999.25000    0.28860    6.13320    1.82140    1.73780    1.79250    2.44440    1.78700   29.14740    1.78700    1.79250    1.78700 -999.25000    0.00000    0.00000 -999.25000 -999.25000 -999.25000 -999.25000 -999.25000    0.94940
 3216.90000    2.46550    2.46060    2.46550    2.45750    8.50000    8.66370    0.05810  100.05560  181.59940  126.03610 -999.25000    0.33100    6.82350    1.78360    1.74030    1.75670    2.45930    1.75950   28.77430    1.75960    1.75680    1.75960 -999.25000    0.00000    0.00000 -999.25000 -999.25000 -999.25000 -999.25000 -999.25000    0.96830
 3217.40000    2.43690    2.42600    2.43480    2.42670    8.50000    8.66370    0.04740   99.12190  183.12830  124.86800 -999.25000    0.31510    6.63960    1.64940    1.70130    1.53640    2.42780    1.39110   28.22180    1.39110    1.53640    1.39110 -999.25000    0.00000    0.00000 -999.25000 -999.25000 -999.25000 -999.25000 -999.25000    0.95880
 3217.90000    2.44860    2.43590    2.44390    2.46360    8.50000    8.66370    0.04470   98.41650  184.13350  130.40580 -999.25000    0.31080    6.52790    1.62960    1.64630    1.47790    2.44110    1.34700   28.35000    1.34710    1.47790    1.34710 -999.25000    0.00000    0.00000 -999.25000 -999.25000 -999.25000 -999.25000 -999.25000    1.00000
 3218.40000    2.43000    2.44440    2.43690    2.44890    8.50000    8.66370    0.04770   98.97270  185.45960  128.30520 -999.25000    0.32220    6.51020    1.58220    1.60190    1.39950    2.43820    1.22660   28.83490    1.22660    1.39940    1.22660 -999.25000    0.00000    0.00000 -999.25000 -999.25000 -999.25000 -999.25000 -999.25000    0.98650
 3218.90000    2.41990    2.41740    2.43060    2.43800    8.50000    8.66370    0.04770   98.93750  185.79330  129.35690 -999.25000    0.32020    6.57720    1.56440    1.53750    1.44950    2.42520    1.36170   29.19060    1.36170    1.44950    1.36170 -999.25000    0.00000    0.00000 -999.25000 -999.25000 -999.25000 -999.25000 -999.25000    0.98490
 3219.40000    2.43060    2.43700    2.43710    2.44600    8.50000    8.66370    0.03720   99.63510  184.33500  126.37000 -999.25000    0.31800    6.46170    1.43660    1.49200    1.43750    2.43640    1.41830   26.71140    1.41830    1.43750    1.41830 -999.25000    0.00000    0.00000 -999.25000 -999.25000 -999.25000 -999.25000 -999.25000    0.97100
 3219.90000    2.44890    2.44380    2.45420    2.44610    8.50000    8.66370    0.04650   97.60790  184.89290  127.98600 -999.25000    0.30040    6.49670    1.48210    1.50090    1.45890    2.44570    1.43020   22.63270    1.43020    1.45890    1.43020 -999.25000    0.00000    0.00000 -999.25000 -999.25000 -999.25000 -999.25000 -999.25000    0.98380
 3220.40000    2.45040    2.45580    2.45700    2.46470    8.50000    8.66370    0.05490   95.70540  178.70350  122.20600 -999.25000    0.30610    6.80320    1.45080    1.50980    1.37810    2.45510    1.26920   21.32340    1.26920    1.37810    1.26920 -999.25000    0.00000    0.00000 -999.25000 -999.25000 -999.25000 -999.25000 -999.25000    0.93770
 3220.90000    2.46790    2.46360    2.48300    2.47180    8.50000    8.69760    0.05400   92.82640  173.99470  124.28600 -999.25000    0.26750    6.76540    1.43000    1.51830    1.39400    2.46920    1.36710   21.14600    1.36720    1.39400    1.36720 -999.25000    0.00000    0.00000 -999.25000 -999.25000 -999.25000 -999.25000 -999.25000    0.95460
 3221.40000    2.49100    2.46790    2.48940    2.48260    8.50000    8.69760    0.05270   92.64440  176.70010  116.82670 -999.25000    0.27460    6.63750    1.46770    1.53370    1.50880    2.48110    1.49640   24.64000    1.49630    1.50870    1.49630 -999.25000    0.00000    0.00000 -999.25000 -999.25000 -999.25000 -999.25000 -999.25000    0.89450
 3221.90000    2.47510    2.48090    2.46250    2.47530    8.50000    8.69760    0.05170   93.50900  175.28670  119.82880 -999.25000    0.29070    6.52330    1.49800    1.55350    1.48570    2.47280    1.43240   27.41180    1.43250    1.48570    1.43250 -999.25000    0.00000    0.00000 -999.25000 -999.25000 -999.25000 -999.25000 -999.25000    0.91880
 3222.40000    2.47350    2.47550    2.49090    2.49150    8.50000    8.57940    0.02880   92.97310  172.67460  119.35740 -999.25000    0.26280    6.38190    1.49380    1.57690    1.46260    2.48170    1.37870   25.66240    1.37860    1.46250    1.37860 -999.25000    0.00000    0.00000 -999.25000 -999.25000 -999.25000 -999.25000 -999.25000    0.91510
 3222.90000    2.51200    2.49470    2.49530    2.49510    8.50000    8.66300    0.04540   92.35660  172.15400  117.52190 -999.25000    0.26570    6.53220    1.53430    1.60460    1.49440    2.49530    1.42760   21.73250    1.42770    1.49440    1.42770 -999.25000    0.00000    0.00000 -999.25000 -999.25000 -999.25000 -999.25000 -999.25000    0.90020
 3223.40000    2.49800    2.49110    2.48950    2.50190    8.50000    8.66370    0.05640   91.84630  168.15550  118.95680 -999.25000    0.25130    6.87160    1.59030    1.67180    1.54320    2.49240    1.44820   25.51460    1.44820    1.54320    1.44820 -999.25000    0.00000    0.00000 -999.25000 -999.25000 -999.25000 -999.25000 -999.25000    0.91150
 3223.90000    2.48870    2.48300    2.49230    2.48730    8.50000    8.66370    0.05080   90.85530  169.38890  105.52490 -999.25000    0.25250    6.81540    1.64320    1.69950    1.69380    2.48530    1.72170    8.56050    1.72170    1.69380    1.72170 -999.25000    0.00000    0.00000 -999.25000 -999.25000 -999.25000 -999.25000 -999.25000    0.80440
 3224.40000    2.47050    2.47670    2.47360    2.46880    8.50000    8.66370    0.04710   91.42120  167.17210  116.78140 -999.25000    0.23910    6.51670    1.66830    1.74110    1.63150    2.46890    1.54560   13.50000    1.54570    1.63150    1.54570 -999.25000    0.00000    0.00000 -999.25000 -999.25000 -999.25000 -999.25000 -999.25000    0.89410
 3224.90000    2.49030    2.48340    2.46970    2.48150    8.50000    8.69800    0.04960   91.53490  167.36370  112.91310 -999.25000    0.24900    6.69410    1.67630    1.73330    1.63620    2.47580    1.55990    8.92900    1.55980    1.63620    1.55980 -999.25000    0.00000    0.00000 -999.25000 -999.25000 -999.25000 -999.25000 -999.25000    0.86330
 3225.40000    2.46640    2.47080    2.48330    2.47220    8.50000    8.66400    0.04000   91.76090  170.19620  116.20050 -999.25000    0.23910    6.59750    1.66870    1.70590    1.65740    2.47460    1.61030   11.79190    1.61030    1.65740    1.61030 -999.25000    0.00000    0.00000 -999.25000 -999.25000 -999.25000 -999.25000 -999.25000    0.88970
 3225.90000    2.49090    2.50430    2.49090    2.51610    8.50000    8.69760    0.04820   90.46090  166.89370  107.02330 -999.25000    0.23970    6.74390    1.61720    1.66750    1.56580    2.49940    1.46840   22.45430    1.46840    1.56580    1.46840 -999.25000    0.00000    0.00000 -999.25000 -999.25000 -999.25000 -999.25000 -999.25000    0.81630
 3226.40000    2.52730    2.51730    2.50640    2.52360    8.50000    8.66370    0.05140   89.86580  170.86810  101.36410 -999.25000    0.23440    6.79140    1.56550    1.60620    1.54950    2.51400    1.51650   18.29240    1.51650    1.54950    1.51650 -999.25000    0.00000    0.00000 -999.25000 -999.25000 -999.25000 -999.25000 -999.25000    0.77090
 3226.90000    2.50510    2.53070    2.51460    2.49440    8.50000    8.66370    0.04680   90.90080  175.21680  103.34380 -999.25000    0.26200    6.78710    1.51350    1.56760    1.45700    2.50920    1.36180   19.69570    1.36180    1.45700    1.36180 -999.25000    0.00000    0.00000 -999.25000 -999.25000 -999.25000 -999.25000 -999.25000    0.78690
 3227.40000    2.53150    2.52670    2.50580    2.66710    8.50000    8.66370    0.05890   90.83470  175.04620  100.91290 -999.25000    0.26570    6.80580    1.45140    1.52210    1.44880    2.54400    1.41020   17.85910    1.41020    1.44880    1.41020 -999.25000    0.00000    0.00000 -999.25000 -999.25000 -999.25000 -999.25000 -999.25000    0.76730
