~Version ---------------------------------------------------
VERS.   2.0 : CWLS log ASCII Standard -VERSION 2.0
WRAP.    NO : One line per depth step
DLM . SPACE : Column Data Section Delimiter
~Well ------------------------------------------------------
STRT.ft       145.90000 : START DEPTH
STOP.ft      4093.90000 : STOP DEPTH
STEP.ft         0.50000 : STEP
NULL.           -999.25 : NULL VALUE
COMP. Statoil Petroleum : COMPANY
WELL.        15/9-F-1 C : WELL
FLD .             VOLVE : FIELD
LOC .   Maersk Inspirer : LOCATION
PROV.                   : PROVINCE
CNTY.                   : COUNTY
STAT.                   : STATE
CTRY.                   : COUNTRY
SRVC.                   : SERVICE COMPANY
DATE.                   : DATE
UWI .                   : UNIQUE WELL ID
API .                   : API NUMBER
~Curve Information -----------------------------------------
DEPT        .ft        : 
ABDCQF01    .g/cm3     : 
ABDCQF02    .g/cm3     : 
ABDCQF03    .g/cm3     : 
ABDCQF04    .g/cm3     : 
BS          .inches    : 
CALI        .inches    : 
DRHO        .g/cm3     : 
GR          .API       : 
NBGRCFM     .API       : 
NPHI        .v/v       : 
PEF         .b/elec    : 
RACEHM      .ohm.m     : 
RACELM      .ohm.m     : 
RD          .ohm.m     : 
RHOB        .g/cm3     : 
RM          .ohm.m     : 
ROP         .m/hr      : 
RPCEHM      .ohm.m     : 
RPCELM      .ohm.m     : 
RT          .ohm.m     : 
BADDATA_FLAG.unitless  : 
BVW         .v/v       : 
COAL_FLAG   .unitless  : 
KLOGH       .mD        : 
PHIF        .v/v       : 
SAND_FLAG   .unitless  : 
SW          .v/v       : 
VCARB       .v/v       : 
VSH         .v/v       : 
~Params ----------------------------------------------------
~Other -----------------------------------------------------
PETROPHYSICAL INTERPRETATION: INPUT

# --- LOG MNEMONICS AND UNITS ---
#Depth          ABDCQF01        ABDCQF02        ABDCQF03        ABDCQF04        BS              CALI            DRHO            GR              NBGRCFM         NPHI            PEF             RACEHM          RACELM          RD              RHOB            RM              ROP             RPCEHM          RPCELM          RT
#M              g/cm3           g/cm3           g/cm3           g/cm3           inches          inches          g/cm3           API             API             v/v             b/elec          ohm.m           ohm.m           ohm.m           g/cm3           ohm.m           m/hr            ohm.m           ohm.m           ohm.m
~ASCII -----------------------------------------------------
# ...
 3870.90000    2.28140    2.23990    2.19940    2.26600    8.50000    8.55690    0.03140   40.60220   47.47690    0.22670    5.12410    2.78560    2.66550    2.77000    2.23430    3.25260   29.50000    3.25270    2.77000    3.25260    0.00000    0.08860    0.00000   18.59600    0.24320    1.00000    0.36440    0.00000    0.29740
 3871.40000    2.33350    2.23730    2.17710    2.24610    8.50000    8.55690    0.04210   44.65080   48.34630    0.23480    5.11250    2.79880    2.66860    2.67450    2.23410    2.84520   29.92180    2.84520    2.67450    2.84520    0.00000    0.09450    0.00000    9.40640    0.24650    1.00000    0.38330    0.00000    0.33320
 3871.90000    2.25450    2.22000    2.22380    2.22020    8.50000    8.52430    0.03860   42.80320   45.76720    0.23640    4.99490    2.84730    2.68360    2.63450    2.22570    2.72140   29.87580    2.72140    2.63450    2.72140    0.00000    0.09620    0.00000   14.08650    0.25000    1.00000    0.38490    0.00000    0.31680
 3872.40000    2.23920    2.23540    2.27160    2.25770    8.50000    8.55690    0.03050   43.23870   47.15000    0.23310    5.30530    2.87200    2.69630    2.74240    2.24980    2.91530   29.93600    2.91530    2.74240    2.91530    0.00000    0.09280    0.00000   10.89490    0.24050    1.00000    0.38610    0.00000    0.32070
 3872.90000    2.22900    2.26800    2.27260    2.27400    8.50000    8.53250    0.03460   44.11380   48.01080    0.22720    5.24750    2.93990    2.70060    2.90540    2.26130    3.31300   29.43680    3.31290    2.90540    3.31300    0.00000    0.08770    0.00000    8.27470    0.23410    1.00000    0.37480    0.00000    0.32840
 3873.40000    2.28550    2.29050    2.27910    2.28370    8.50000    8.52980    0.04010   44.53030   46.12450    0.22130    5.42510    3.05490    2.72940    2.92400    2.28160    3.32430   28.05440    3.32430    2.92410    3.32430    0.00000    0.08690    0.00000    6.45000    0.22480    1.00000    0.38660    0.00000    0.33210
 3873.90000    2.27500    2.31630    2.32710    2.27700    8.50000    8.52440    0.03990   44.73200   48.47130    0.21510    5.24170    2.96030    2.71700    2.90800    2.29900    3.35360   27.34790    3.35360    2.90800    3.35360    0.00000    0.08590    0.00000    5.31910    0.21640    1.00000    0.39720    0.00000    0.33390
 3874.40000    2.30250    2.33880    2.35710    2.30240    8.50000    8.55690    0.03900   45.78360   49.62170    0.21250    5.48660    2.97730    2.74920    2.61290    2.32540    2.56970   24.18800    2.56980    2.61290    2.56970    0.00000    0.09500    0.00000    3.64150    0.20630    1.00000    0.46060    0.00000    0.34320
 3874.90000    2.34860    2.34780    2.31750    2.33290    8.50000    8.52440    0.04040   44.96050   51.27940    0.21660    5.39220    2.53280    2.72140    2.37920    2.33190    2.18470   21.91320    2.18470    2.37920    2.18470    0.00000    0.10130    0.00000    4.19040    0.20570    1.00000    0.49260    0.00000    0.33590
 3875.40000    2.38960    2.35200    2.34220    2.37980    8.50000    8.60570    0.01420   46.28440   50.18120    0.24810    6.36430    2.85160    2.84840    2.35140    2.36210    2.02770   21.96950    2.02770    2.35140    2.02770    0.00000    0.10000    0.00000    1.53960    0.16450    1.00000    0.60760    0.00000    0.34760
 3875.90000    2.32230    2.38820    2.29280    2.38660    8.50000    8.55690    0.02910   43.89770   51.63100    0.24720    6.06980    3.07810    2.96030    2.44370    2.34370    1.99140   24.28330    1.99140    2.44370    1.99140    0.00000    0.10150    0.00000    2.89530    0.17500    1.00000    0.58000    0.00000    0.32650
 3876.40000    2.39620    2.39020    2.26760    2.30420    8.50000    8.55330    0.04410   44.84130   45.91820    0.22100    5.51220    2.99140    2.90980    2.95700    2.32690    2.85880   26.41710    2.85860    2.95690    2.85880    0.00000    0.09110    0.00000    4.56340    0.20920    1.00000    0.43560    0.00000    0.33490
 3876.90000    2.49290    2.44860    2.31680    2.41910    8.50000    8.55690    0.03390   40.08790   41.72870    0.17950    5.54800    3.76620    2.80810    3.95570    2.40160    5.30890   20.87180    5.30870    3.95570    5.30890    0.00000    0.06680    0.00000    5.01700    0.16700    1.00000    0.40030    0.00000    0.29280
 3877.40000    2.56290    2.45580    2.36760    2.45160    8.50000    8.55690    0.04980   41.78730   44.78690    0.15960    5.64170    4.39410    2.65080    4.66630    2.44190   10.59560   15.67100   10.59540    4.66630   10.59560    0.00000    0.04910    0.00000    2.45990    0.14520    1.00000    0.33820    0.00000    0.30780
 3877.90000    2.54270    2.41550    2.34940    2.40120    8.50000    8.55690    0.05060   42.28250   49.44270    0.16570    5.60090    4.13580    2.58730    4.49200    2.40490   10.42000   16.37610   10.42080    4.49210   10.42000    0.00000    0.05050    0.00000    2.96670    0.16030    1.00000    0.31520    0.00000    0.31220
 3878.40000    2.50850    2.37390    2.32480    2.34470    8.50000    8.55690    0.05630   38.35670   44.23200    0.19000    5.48860    3.58790    2.66590    3.57470    2.37770    5.03070   18.21290    5.03100    3.57480    5.03070    0.00000    0.06910    0.00000    8.65720    0.17940    1.00000    0.38540    0.00000    0.27750
 3878.90000    2.37470    2.31940    2.28640    2.33020    8.50000    8.54870    0.04710   40.40900   41.91150    0.20110    5.20180    3.22140    2.72060    3.07990    2.32480    3.44410   18.82720    3.44420    3.07990    3.44410    0.00000    0.08310    0.00000    9.01190    0.20190    1.00000    0.41160    0.00000    0.29560
 3879.40000    2.33110    2.31220    2.28520    2.32150    8.50000    8.55690    0.03790   37.18620   43.78880    0.20700    5.26060    3.30780    2.80290    2.82280    2.30890    2.64620   19.15330    2.64610    2.82280    2.64620    0.00000    0.09280    0.00000   18.79210    0.20970    1.00000    0.44240    0.00000    0.26710
 3879.90000    2.35910    2.30200    2.27150    2.32030    8.50000    8.55690    0.04030   33.51990   39.73890    0.21990    5.12800    2.93040    2.75820    2.68360    2.30540    2.50980   20.01200    2.50980    2.68360    2.50980    0.00000    0.09480    0.00000   41.35450    0.21610    1.00000    0.43880    0.00000    0.23470
 3880.40000    2.25840    2.29300    2.27410    2.27390    8.50000    8.55690    0.03910   31.47190   36.85710    0.21220    5.05100    2.60720    2.66630    2.63210    2.27490    2.61580   20.24440    2.61580    2.63210    2.61580    0.00000    0.09360    0.00000   69.00920    0.22350    1.00000    0.41900    0.00000    0.21660
 3880.90000    2.27040    2.27090    2.26530    2.27800    8.50000    8.55700    0.03470   33.85960   38.06460    0.22160    5.12860    2.54240    2.65840    2.41710    2.26870    2.27740   12.09530    2.27740    2.41710    2.27740    0.00000    0.10010    0.00000   49.62260    0.22940    1.00000    0.43620    0.00000    0.23770
 3881.40000    2.30730    2.26660    2.29370    2.28300    8.50000    8.55690    0.04540   32.32900   36.97500    0.22240    5.03460    2.38990    2.59420    2.33030    2.28390    2.21190   11.71860    2.21200    2.33040    2.21190    0.00000    0.10050    0.00000   60.09540    0.22450    1.00000    0.44770    0.00000    0.22410
 3881.90000    2.24760    2.28060    2.26950    2.27140    8.50000    8.54060    0.03410   37.19240   33.73240    0.21310    5.10830    2.22870    2.55290    2.16620    2.26730    2.09450   21.58350    2.09460    2.16620    2.09450    0.00000    0.10380    0.00000   25.51180    0.22650    1.00000    0.45840    0.00000    0.26720
 3882.40000    2.27090    2.28050    2.27910    2.29070    8.50000    8.52430    0.03790   39.73800   40.04470    0.21430    5.15860    2.19450    2.48230    2.04330    2.27720    1.87830   29.07900    1.87820    2.04330    1.87830    0.00000    0.10870    0.00000   15.16120    0.22350    1.00000    0.48620    0.00000    0.28970
 3882.90000    2.27340    2.29240    2.24700    2.30590    8.50000    8.55690    0.03740   37.71040   41.50100    0.21280    5.01120    1.94870    2.31590    2.07000    2.27680    2.18290   27.65580    2.18290    2.07000    2.18290    0.00000    0.10180    0.00000   21.81490    0.22310    1.00000    0.45650    0.00000    0.27180
