~Version ---------------------------------------------------
VERS.   2.0 : CWLS log ASCII Standard -VERSION 2.0
WRAP.    NO : One line per depth step
DLM . SPACE : Column Data Section Delimiter
~Well ------------------------------------------------------
STRT.ft          188.50000 : START DEPTH
STOP.ft         3762.00000 : STOP DEPTH
STEP.ft            0.50000 : STEP
NULL.              -999.25 : NULL VALUE
COMP. Statoil Petroleum AS : COMPANY
WELL.          15/9-F-11 A : WELL
FLD .                VOLVE : FIELD
LOC .      Maersk Inspirer : LOCATION
PROV.                      : PROVINCE
CNTY.                      : COUNTY
STAT.                      : STATE
CTRY.                      : COUNTRY
SRVC.                      : SERVICE COMPANY
DATE.                      : DATE
UWI .                      : UNIQUE WELL ID
API .                      : API NUMBER
~Curve Information -----------------------------------------
DEPT     .ft       : 
ABDCQF01 .g/cm3    : 
ABDCQF02 .g/cm3    : 
ABDCQF03 .g/cm3    : 
ABDCQF04 .g/cm3    : 
BS       .inches   : 
CALI     .inches   : 
DRHO     .g/cm3    : 
DT       .us/ft    : 
DTS      .us/ft    : 
GR       .API      : 
NPHI     .v/v      : 
PEF      .b/elec   : 
RACEHM   .ohm.m    : 
RACELM   .ohm.m    : 
RD       .ohm.m    : 
RHOB     .g/cm3    : 
RM       .ohm.m    : 
ROP      .m/hr     : 
RPCEHM   .ohm.m    : 
RPCELM   .ohm.m    : 
RT       .ohm.m    : 
BVW      .v/v      : 
CARB_FLAG.UNKNOWN  : 
COAL_FLAG.UNKNOWN  : 
KLOGH    .mD       : 
PHIF     .v/v      : 
SAND_FLAG.UNKNOWN  : 
SW       .v/v      : 
VSH      .v/v      : 
~Params ----------------------------------------------------
~Other -----------------------------------------------------
PETROPHYSICAL_INTERPRETATION: INPUT

# --- LOG MNEMONICS AND UNITS ---
#Depth     ABDCQF01   ABDCQF02   ABDCQF03   ABDCQF04   BS         CALI       DRHO       DT         DTS        GR         NPHI       PEF        RACEHM     RACELM     RD         RHOB       RM         ROP        RPCEHM     RPCELM     RT
#M         g/cm3      g/cm3      g/cm3      g/cm3      inches     inches     g/cm3      us/ft      us/ft      API        v/v        b/elec     ohm.m      ohm.m      ohm.m      g/cm3      ohm.m      m/hr       ohm.m      ohm.m      ohm.m
~ASCII -----------------------------------------------------
# ...
 3113.50000    2.61700    2.58900    2.59600    2.57500    8.50000    8.67200    0.07200   64.81500  121.35600    8.00200    0.08400    8.46300    3.72700    3.66500    4.16100    2.58800    5.06900   23.04900    5.06900    4.16100    5.06900 -999.25000 -999.25000 -999.25000 -999.25000 -999.25000 -999.25000 -999.25000 -999.25000
 3114.00000    2.55900    2.56300    2.56400    2.55800    8.50000    8.67200    0.05900   65.46900  120.53000    8.53900    0.09000    8.25000    3.79900    3.68700    4.20100    2.55900    5.01000   24.66300    5.01000    4.20100    5.01000 -999.25000 -999.25000 -999.25000 -999.25000 -999.25000 -999.25000 -999.25000 -999.25000
 3114.50000    2.54000    2.56400    2.57200    2.53600    8.50000    8.67200    0.06200   64.48100  119.99900    8.12700    0.09800    8.37900    3.85400    3.74300    4.18400    2.55100    4.87800   25.19600    4.87800    4.18400    4.87800 -999.25000 -999.25000 -999.25000 -999.25000 -999.25000 -999.25000 -999.25000 -999.25000
 3115.00000    2.53400    2.56400    2.58200    2.54900    8.50000    8.67200    0.05800   61.98100  117.36800    5.76700    0.08300    8.37400    3.67300    3.64900    4.15700    2.55700    4.91100   23.66000    4.91100    4.15700    4.91100 -999.25000 -999.25000 -999.25000 -999.25000 -999.25000 -999.25000 -999.25000 -999.25000
 3115.50000    2.54900    2.59100    2.61800    2.58000    8.50000    8.62500    0.05800   62.07600  123.51900    5.73700    0.07300    8.40800    3.60400    3.60500    4.10300    2.58600    4.87500   21.43800    4.87500    4.10300    4.87500 -999.25000 -999.25000 -999.25000 -999.25000 -999.25000 -999.25000 -999.25000 -999.25000
 3116.00000    2.58400    2.59300    2.62200    2.57800    8.50000    8.67200    0.05700   62.84900  125.66500    5.87500    0.07000    8.45000    3.47900    3.50300    3.93700    2.59700    4.64700   20.35300    4.64700    3.93700    4.64700 -999.25000 -999.25000 -999.25000 -999.25000 -999.25000 -999.25000 -999.25000 -999.25000
 3116.50000    2.55200    2.60900    2.59300    2.60200    8.50000    8.67200    0.05700   63.32700  120.88700    5.12200    0.07000    8.37800    3.45900    3.42200    3.79600    2.59200    4.40800   19.14400    4.40800    3.79600    4.40800 -999.25000 -999.25000 -999.25000 -999.25000 -999.25000 -999.25000 -999.25000 -999.25000
 3117.00000    2.62200    2.60900    2.58700    2.59500    8.50000    8.62500    0.06200   65.09000  116.32600    4.89000    0.07900    8.26100    3.28300    3.22800    3.68400    2.60000    4.35400   19.13200    4.35400    3.68400    4.35400 -999.25000 -999.25000 -999.25000 -999.25000 -999.25000 -999.25000 -999.25000 -999.25000
 3117.50000    2.57000    2.58800    2.57800    2.58400    8.50000    8.63700    0.06200   66.73500  123.84500    6.59100    0.09400    8.44300    3.12400    3.05400    3.59900    2.57700    4.43600   20.57000    4.43600    3.59900    4.43600 -999.25000 -999.25000 -999.25000 -999.25000 -999.25000 -999.25000 -999.25000 -999.25000
 3118.00000    2.56200    2.56900    2.56200    2.59900    8.50000    8.62500    0.06600   66.61900  124.61800    9.75600    0.09900    8.37100    2.96300    2.90600    3.47800    2.57100    4.41100   20.84700    4.41100    3.47800    4.41100 -999.25000 -999.25000 -999.25000 -999.25000 -999.25000 -999.25000 -999.25000 -999.25000
 3118.50000    2.59400    2.56600    2.55400    2.57600    8.50000    8.64800    0.06800   63.52000  126.52900    9.31800    0.10600    8.39800    2.86200    2.79700    3.31900    2.56800    4.22800   21.08300    4.22800    3.31900    4.22800 -999.25000 -999.25000 -999.25000 -999.25000 -999.25000 -999.25000 -999.25000 -999.25000
 3119.00000    2.58400    2.54300    2.52500    2.56400    8.50000    8.67200    0.06700   66.51800  130.42300   10.99000    0.11900    8.26500    2.76500    2.72200    3.14300    2.55000    3.94700   22.90300    3.94700    3.14300    3.94700 -999.25000 -999.25000 -999.25000 -999.25000 -999.25000 -999.25000 -999.25000 -999.25000
 3119.50000    2.54500    2.53000    2.52900    2.52100    8.50000    8.67200    0.06900   66.13400  127.75300    9.89200    0.12400    8.22200    2.76900    2.71200    2.93100    2.52800    3.37200   23.76800    3.37200    2.93100    3.37200 -999.25000 -999.25000 -999.25000 -999.25000 -999.25000 -999.25000 -999.25000 -999.25000
 3120.00000    2.51100    2.52800    2.53000    2.51500    8.50000    8.69300    0.06500   68.64600  129.18800    8.39700    0.12100    8.41200    2.73700    2.68400    2.74300    2.51800    2.92500   24.48600    2.92500    2.74300    2.92500 -999.25000 -999.25000 -999.25000 -999.25000 -999.25000 -999.25000 -999.25000 -999.25000
 3120.50000    2.50500    2.53100    2.53700    2.51600    8.50000    8.67200    0.06400   68.71100  129.44300   10.31600    0.13200    8.40800    2.59900    2.68400    2.59500    2.52100    2.67900   24.62100    2.67800    2.59500    2.67900 -999.25000 -999.25000 -999.25000 -999.25000 -999.25000 -999.25000 -999.25000 -999.25000
 3121.00000    2.51700    2.50600    2.51200    2.50700    8.50000    8.70300    0.06500   68.93800  119.47600    7.81500    0.12400    8.27500    2.45300    2.63900    2.45700    2.50600    2.47100   23.09800    2.47100    2.45700    2.47100 -999.25000 -999.25000 -999.25000 -999.25000 -999.25000 -999.25000 -999.25000 -999.25000
 3121.50000    2.52800    2.51400    2.53600    2.50600    8.50000    8.68800    0.06500   68.04500  117.59300    5.96900    0.11400    8.34100    2.36100    2.60300    2.39200    2.51900    2.44700   21.85600    2.44700    2.39200    2.44700 -999.25000 -999.25000 -999.25000 -999.25000 -999.25000 -999.25000 -999.25000 -999.25000
 3122.00000    2.52100    2.51200    2.54500    2.50700    8.50000    8.67200    0.06100   68.11900  120.02600    6.30800    0.12600    8.42800    2.33700    2.57400    2.38900    2.52100    2.49100   22.14500    2.49100    2.38900    2.49100 -999.25000 -999.25000 -999.25000 -999.25000 -999.25000 -999.25000 -999.25000 -999.25000
 3122.50000    2.50100    2.52400    2.53700    2.50400    8.50000    8.69500    0.06200   69.23500  124.20300    7.72300    0.12800    8.44900    2.37600    2.58500    2.45700    2.52000    2.61900   22.83800    2.61900    2.45700    2.61900 -999.25000 -999.25000 -999.25000 -999.25000 -999.25000 -999.25000 -999.25000 -999.25000
 3123.00000    2.50200    2.54100    2.53200    2.53000    8.50000    8.67200    0.06200   69.04400  124.25200    8.59800    0.12200    8.52300    2.45300    2.60100    2.55900    2.52600    2.81400   22.04500    2.81500    2.55900    2.81400 -999.25000 -999.25000 -999.25000 -999.25000 -999.25000 -999.25000 -999.25000 -999.25000
 3123.50000    2.57100    2.53700    2.51700    2.53000    8.50000    8.67200    0.06600   69.07100  128.41200    8.73400    0.11800    8.42600    2.53700    2.63000    2.64400    2.53700    2.97700   21.63100    2.97700    2.64400    2.97700 -999.25000 -999.25000 -999.25000 -999.25000 -999.25000 -999.25000 -999.25000 -999.25000
 3124.00000    2.52100    2.54600    2.52900    2.51600    8.50000    8.71900    0.06000   67.73900  124.80100    8.96700    0.11400    8.58100    2.62100    2.66100    2.76000    2.52700    3.19700   22.35500    3.19700    2.76000    3.19700 -999.25000 -999.25000 -999.25000 -999.25000 -999.25000 -999.25000 -999.25000 -999.25000
 3124.50000    2.50900    2.54100    2.54700    2.51100    8.50000    8.75000    0.05900   65.62200  123.06700    8.28200    0.11600    8.50100    2.67300    2.67000    2.84600    2.53300    3.32400   23.66400    3.32400    2.84600    3.32400 -999.25000 -999.25000 -999.25000 -999.25000 -999.25000 -999.25000 -999.25000 -999.25000
 3125.00000    2.48600    2.53600    2.54600    2.52900    8.50000    8.67200    0.05700   64.15600  120.98100    8.26600    0.10600    8.38000    2.70000    2.69500    2.93800    2.52600    3.52700   21.87600    3.52700    2.93800    3.52700 -999.25000 -999.25000 -999.25000 -999.25000 -999.25000 -999.25000 -999.25000 -999.25000
 3125.50000    2.52300    2.55300    2.57200    2.54300    8.50000    8.67200    0.05800   64.98700  121.23500    7.82800    0.09200    8.26400    2.70400    2.72600    3.03800    2.55000    3.68400   20.35200    3.68400    3.03800    3.68400 -999.25000 -999.25000 -999.25000 -999.25000 -999.25000 -999.25000 -999.25000 -999.25000
