~Version ---------------------------------------------------
VERS.   2.0 : CWLS log ASCII Standard -VERSION 2.0
WRAP.    NO : One line per depth step
DLM . SPACE : Column Data Section Delimiter
~Well ------------------------------------------------------
STRT.ft       145.90000 : START DEPTH
STOP.ft      4093.90000 : STOP DEPTH
STEP.ft         0.50000 : STEP
NULL.           -999.25 : NULL VALUE
COMP. Statoil Petroleum : COMPANY
WELL.        15/9-F-1 C : WELL
FLD .             VOLVE : FIELD
LOC .   Maersk Inspirer : LOCATION
PROV.                   : PROVINCE
CNTY.                   : COUNTY
STAT.                   : STATE
CTRY.                   : COUNTRY
SRVC.                   : SERVICE COMPANY
DATE.                   : DATE
UWI .                   : UNIQUE WELL ID
API .                   : API NUMBER
~Curve Information -----------------------------------------
DEPT        .ft        : 
ABDCQF01    .g/cm3     : 
ABDCQF02    .g/cm3     : 
ABDCQF03    .g/cm3     : 
ABDCQF04    .g/cm3     : 
BS          .inches    : 
CALI        .inches    : 
DRHO        .g/cm3     : 
GR          .API       : 
NBGRCFM     .API       : 
NPHI        .v/v       : 
PEF         .b/elec    : 
RACEHM      .ohm.m     : 
RACELM      .ohm.m     : 
RD          .ohm.m     : 
RHOB        .g/cm3     : 
RM          .ohm.m     : 
ROP         .m/hr      : 
RPCEHM      .ohm.m     : 
RPCELM      .ohm.m     : 
RT          .ohm.m     : 
BADDATA_FLAG.unitless  : 
BVW         .v/v       : 
COAL_FLAG   .unitless  : 
KLOGH       .mD        : 
PHIF        .v/v       : 
SAND_FLAG   .unitless  : 
SW          .v/v       : 
VCARB       .v/v       : 
VSH         .v/v       : 
~Params ----------------------------------------------------
~Other -----------------------------------------------------
PETROPHYSICAL INTERPRETATION: INPUT

# --- LOG MNEMONICS AND UNITS ---
#Depth          ABDCQF01        ABDCQF02        ABDCQF03        ABDCQF04        BS              CALI            DRHO            GR              NBGRCFM         NPHI            PEF             RACEHM          RACELM          RD              RHOB            RM              ROP             RPCEHM          RPCELM          RT
#M              g/cm3           g/cm3           g/cm3           g/cm3           inches          inches          g/cm3           API             API             v/v             b/elec          ohm.m           ohm.m           ohm.m           g/cm3           ohm.m           m/hr            ohm.m           ohm.m           ohm.m
~ASCII -----------------------------------------------------
# ...
 3733.40000    2.17570    2.19300    2.19290    2.20420    8.50000    8.55690    0.04000   10.78490   11.78210    0.14880    4.87250  249.21010   32.80900  133.75650    2.19020  160.92560   13.92410  160.92410  133.75740  160.92560    0.00000    0.01700    0.00000 3281.07150    0.22720    1.00000    0.07470    0.00000    0.03350
 3733.90000    2.19870    2.18730    2.17500    2.18480    8.50000    8.52430    0.03430   11.38370   11.66020    0.14760    4.70060  239.16570   30.65740  133.73850    2.18240  169.81280   13.09940  169.81340  133.74310  169.81280    0.00000    0.01670    0.00000 3059.48830    0.22940    1.00000    0.07260    0.00000    0.03880
 3734.40000    2.17820    2.19320    2.18030    2.19090    8.50000    8.55690    0.03630   11.48520   11.93700    0.14690    4.72590  239.95470   32.30390  128.88870    2.18200  168.58530   20.05770  168.58340  128.88370  168.58530    0.00000    0.01670    0.00000 2994.58180    0.22920    1.00000    0.07290    0.00000    0.03970
 3734.90000    2.17530    2.17110    2.16010    2.17270    8.50000    8.55690    0.03120   10.74650   11.10950    0.15920    4.66270  237.85420   30.50880  135.46510    2.16630  176.28740   29.11650  176.28540  135.46670  176.28740    0.00000    0.01660    0.00000 4147.30470    0.23950    1.00000    0.06920    0.00000    0.03320
 3735.40000    2.18600    2.16950    2.16910    2.17550    8.50000    8.55690    0.02880   10.71840   10.78150    0.15630    4.68250  245.97510   31.20250  138.14370    2.17120  182.14030   31.30750  182.14180  138.14050  182.14030    0.00000    0.01630    0.00000 3956.61500    0.23670    1.00000    0.06890    0.00000    0.03290
 3735.90000    2.16640    2.15900    2.16190    2.17950    8.50000    8.55680    0.02860   10.73420   11.92630    0.16170    4.64140  221.36860   31.97600  142.75390    2.16350  184.66260   19.83600  184.66470  142.75700  184.66260    0.00000    0.01630    0.00000 4309.17290    0.24150    1.00000    0.06750    0.00000    0.03300
 3736.40000    2.17480    2.17180    2.18320    2.17870    8.50000    8.55690    0.03240   10.49740   11.78730    0.15110    4.67980  245.16590   31.16130  139.00670    2.17440  171.06860   16.36240  171.06940  139.01120  171.06860    0.00000    0.01670    0.00000 3886.18820    0.23350    1.00000    0.07140    0.00000    0.03090
 3736.90000    2.20190    2.19430    2.19790    2.18090    8.50000    8.54060    0.03910   11.50040   11.21540    0.14700    4.66920  233.22900   30.89210  127.31680    2.19040  170.42630   17.19320  170.42950  127.31520  170.42630    0.00000    0.01660    0.00000 2834.28760    0.22640    1.00000    0.07330    0.00000    0.03980
 3737.40000    2.17830    2.17590    2.17400    2.17780    8.50000    8.55690    0.03710   11.18240   11.32100    0.15600    4.56230  239.18370   32.32830  130.45980    2.17430  159.79650   19.55630  159.79690  130.45940  159.79650    0.00000    0.01720    0.00000 3554.50880    0.23550    1.00000    0.07300    0.00000    0.03700
 3737.90000    2.14460    2.16770    2.15640    2.14850    8.50000    8.52440    0.03340   11.00300   12.44670    0.16260    4.53240  257.05820   34.02860  127.30580    2.15170  154.93040   25.61310  154.93060  127.30650  154.93040    0.00000    0.01760    0.00000 4450.05130    0.24590    1.00000    0.07150    0.00000    0.03540
 3738.40000    2.13520    2.16970    2.15630    2.14570    8.50000    8.52430    0.02850   11.55130   11.98280    0.15990    4.48100  267.36450   33.92270  121.43490    2.15070  146.43660   28.19310  146.43840  121.43450  146.43660    0.00000    0.01800    0.00000 3969.41800    0.24510    1.00000    0.07340    0.00000    0.04030
 3738.90000    2.14720    2.16770    2.18800    2.16260    8.50000    8.52430    0.03560    9.34580   12.56000    0.16120    4.66960  263.40500   34.38720  117.35730    2.16810  135.44390   29.51920  135.44430  117.35830  135.44390    0.00000    0.01840    0.00000 5381.54540    0.23970    1.00000    0.07680    0.00000    0.02070
 3739.40000    2.17370    2.20620    2.18900    2.17130    8.50000    8.52430    0.03990   10.44430   11.39590    0.14460    4.63480  266.42440   37.95210  114.79230    2.18450  136.68190   29.82740  136.68230  114.79140  136.68190    0.00000    0.01810    0.00000 3509.03080    0.22740    1.00000    0.07970    0.00000    0.03050
 3739.90000    2.17110    2.18080    2.28740    2.19610    8.50000    8.52430    0.04160   11.73540   12.44530    0.12880    4.70210  332.01520   38.38980  117.36650    2.21100  131.46910   29.83670  131.46820  117.36550  131.46910    0.00000    0.01810    0.00000 2085.02290    0.21200    1.00000    0.08560    0.00000    0.04190
 3740.40000    2.17030    2.18410    2.20310    2.17700    8.50000    8.52430    0.03350   11.26430   12.07530    0.14450    4.57380  377.80700   40.32910  120.05700    2.18120  133.42800   31.51910  133.42800  120.05530  133.42800    0.00000    0.01840    0.00000 2807.25900    0.22760    1.00000    0.08070    0.00000    0.04140
 3740.90000    2.17530    2.20950    2.18700    2.18460    8.50000    8.52430    0.03880   10.75710   12.71620    0.15290    4.73680  550.58670   41.36710  125.78270    2.18990  134.63100   31.40150  134.63120  125.78410  134.63100    0.00000    0.01830    0.00000 3404.32150    0.22890    1.00000    0.07990    0.00000    0.03320
 3741.40000    2.15580    2.18860    2.18710    2.17870    8.50000    8.55690    0.03460   11.23220   13.74950    0.14830    4.67350  778.51230   47.04050  124.30600    2.17480  133.43030   30.84390  133.42980  124.30560  133.43030    0.00000    0.01840    0.00000 3316.70650    0.23220    1.00000    0.07940    0.00000    0.03750
 3741.90000    2.17690    2.18130    2.16840    2.18170    8.50000    8.52430    0.03480   11.90450   12.28570    0.15120    4.61940  761.75820   45.30300  122.16460    2.17840  133.92960   30.07800  133.92930  122.16350  133.92960    0.00000    0.01840    0.00000 2929.56130    0.23220    1.00000    0.07940    0.00000    0.04340
 3742.40000    2.17570    2.18680    2.19320    2.17960    8.50000    8.52430    0.03430   10.93180   12.86850    0.14400    4.57400  898.74410   49.65950  124.29750    2.18240  132.63810   29.89200  132.63780  124.29890  132.63810    0.00000    0.01840    0.00000 3238.13180    0.22790    1.00000    0.08070    0.00000    0.03480
 3742.90000    2.19550    2.18870    2.19440    2.18360    8.50000    8.52430    0.03610   11.26690   10.53250    0.14890    4.66860 1292.40150   45.64100  125.78270    2.18660  133.82710   29.98190  133.82710  125.78410  133.82710    0.00000    0.01830    0.00000 3073.20730    0.22840    1.00000    0.08030    0.00000    0.03780
 3743.40000    2.21780    2.17510    2.20430    2.18350    8.50000    8.52430    0.03510   10.21670   12.11580    0.14840    4.65430  892.39180   44.16080  121.42660    2.19150  134.22290   30.07470  134.22400  121.42800  134.22290    0.00000    0.01820    0.00000 3599.63940    0.22660    1.00000    0.08050    0.00000    0.02850
 3743.90000    2.24480    2.19280    2.19870    2.21040    8.50000    8.52430    0.03370   11.31290   11.31300    0.15260    4.81120 3174.35420   47.89470  117.36800    2.20500  135.44490   29.98700  135.44510  117.36670  135.44490    0.00000    0.01810    0.00000 2788.39600    0.22360    1.00000    0.08120    0.00000    0.03820
 3744.40000    2.26470    2.20540    2.19520    2.23580    8.50000    8.52430    0.03910   11.49170   13.18140    0.15110    4.98260 6381.09910   44.11070  125.78270    2.21750  134.23310   29.95950  134.23210  125.78410  134.23310    0.00000    0.01810    0.00000 2466.60330    0.21870    1.00000    0.08290    0.00000    0.03970
 3744.90000    2.25990    2.18690    2.18940    2.22420    8.50000    8.55690    0.03570   12.17950   12.10420    0.16640    5.12580  415.28650   46.31990  124.30760    2.20820  140.08600   29.97270  140.08680  124.30690  140.08600    0.00000    0.01800    0.00000 2580.20260    0.22800    1.00000    0.07900    0.00000    0.04580
 3745.40000    2.28610    2.21850    2.11500    2.17080    8.50000    8.52430    0.02350   11.01930   11.98260    0.17270    5.12290 6381.09910   43.08610  122.85930    2.18800  135.44200   31.04540  135.44280  122.85790  135.44200    0.00000    0.01840    0.00000 3800.05470    0.23750    1.00000    0.07760    0.00000    0.03560
