~Version ---------------------------------------------------
VERS.   2.0 : CWLS log ASCII Standard -VERSION 2.0
WRAP.    NO : One line per depth step
DLM . SPACE : Column Data Section Delimiter
~Well ------------------------------------------------------
STRT.ft       145.90000 : START DEPTH
STOP.ft      4093.90000 : STOP DEPTH
STEP.ft         0.50000 : STEP
NULL.           -999.25 : NULL VALUE
COMP. Statoil Petroleum : COMPANY
WELL.        15/9-F-1 C : WELL
FLD .             VOLVE : FIELD
LOC .   Maersk Inspirer : LOCATION
PROV.                   : PROVINCE
CNTY.                   : COUNTY
STAT.                   : STATE
CTRY.                   : COUNTRY
SRVC.                   : SERVICE COMPANY
DATE.                   : DATE
UWI .                   : UNIQUE WELL ID
API .                   : API NUMBER
~Curve Information -----------------------------------------
DEPT        .ft        : 
ABDCQF01    .g/cm3     : 
ABDCQF02    .g/cm3     : 
ABDCQF03    .g/cm3     : 
ABDCQF04    .g/cm3     : 
BS          .inches    : 
CALI        .inches    : 
DRHO        .g/cm3     : 
GR          .API       : 
NBGRCFM     .API       : 
NPHI        .v/v       : 
PEF         .b/elec    : 
RACEHM      .ohm.m     : 
RACELM      .ohm.m     : 
RD          .ohm.m     : 
RHOB        .g/cm3     : 
RM          .ohm.m     : 
ROP         .m/hr      : 
RPCEHM      .ohm.m     : 
RPCELM      .ohm.m     : 
RT          .ohm.m     : 
BADDATA_FLAG.unitless  : 
BVW         .v/v       : 
COAL_FLAG   .unitless  : 
KLOGH       .mD        : 
PHIF        .v/v       : 
SAND_FLAG   .unitless  : 
SW          .v/v       : 
VCARB       .v/v       : 
VSH         .v/v       : 
~Params ----------------------------------------------------
~Other -----------------------------------------------------
PETROPHYSICAL INTERPRETATION: INPUT

# --- LOG MNEMONICS AND UNITS ---
#Depth          ABDCQF01        ABDCQF02        ABDCQF03        ABDCQF04        BS              CALI            DRHO            GR              NBGRCFM         NPHI            PEF             RACEHM          RACELM          RD              RHOB            RM              ROP             RPCEHM          RPCELM          RT
#M              g/cm3           g/cm3           g/cm3           g/cm3           inches          inches          g/cm3           API             API             v/v             b/elec          ohm.m           ohm.m           ohm.m           g/cm3           ohm.m           m/hr            ohm.m           ohm.m           ohm.m
~ASCII -----------------------------------------------------
# ...
 3120.90000    2.57320    2.58240    2.58070    2.57270    8.50000    8.47550    0.05000   41.68600   39.74720    0.15480    7.67990    2.89590    2.71350    2.83910    2.57540    3.13930   19.80320    3.13940    2.83920    3.13930 -999.25000 -999.25000 -999.25000 -999.25000 -999.25000 -999.25000 -999.25000 -999.25000 -999.25000
 3121.40000    2.57130    2.57380    2.56440    2.56150    8.50000    8.50000    0.04900   41.59320   45.62090    0.16010    7.77940    2.93030    2.73430    2.84630    2.56540    3.05120   20.05340    3.05120    2.84630    3.05120 -999.25000 -999.25000 -999.25000 -999.25000 -999.25000 -999.25000 -999.25000 -999.25000 -999.25000
 3121.90000    2.57200    2.58000    2.56170    2.55590    8.50000    8.52430    0.05000   34.85000   40.06480    0.15050    7.65280    2.93410    2.71940    2.89800    2.56550    3.32470   20.47630    3.32460    2.89790    3.32470 -999.25000 -999.25000 -999.25000 -999.25000 -999.25000 -999.25000 -999.25000 -999.25000 -999.25000
 3122.40000    2.54940    2.58030    2.55430    2.54890    8.50000    8.52430    0.03950   34.59470   37.14990    0.14160    7.54300    2.97140    2.74180    2.98370    2.55820    3.43030   20.74250    3.43030    2.98370    3.43030 -999.25000 -999.25000 -999.25000 -999.25000 -999.25000 -999.25000 -999.25000 -999.25000 -999.25000
 3122.90000    2.57320    2.57500    2.55990    2.55560    8.50000    8.52430    0.04830   33.86210   36.42210    0.14650    7.78520    2.97170    2.74060    2.94900    2.56400    3.25910   21.21470    3.25910    2.94900    3.25910 -999.25000 -999.25000 -999.25000 -999.25000 -999.25000 -999.25000 -999.25000 -999.25000 -999.25000
 3123.40000    2.55820    2.55460    2.57540    2.54750    8.50000    8.52430    0.04290   35.68880   39.55340    0.14200    7.64390    2.97850    2.73670    2.98310    2.56030    3.40840   21.75000    3.40840    2.98310    3.40840 -999.25000 -999.25000 -999.25000 -999.25000 -999.25000 -999.25000 -999.25000 -999.25000 -999.25000
 3123.90000    2.53480    2.56860    2.55380    2.56040    8.50000    8.52420    0.03850   37.43650   40.55320    0.14400    7.58180    2.94110    2.72840    2.97800    2.55350    3.46940   22.03860    3.46940    2.97800    3.46940 -999.25000 -999.25000 -999.25000 -999.25000 -999.25000 -999.25000 -999.25000 -999.25000 -999.25000
 3124.40000    2.57020    2.56280    2.55870    2.57670    8.50000    8.47560    0.04820   42.04710   44.69230    0.16120    7.56680    2.96940    2.72400    2.92790    2.56510    3.31870   21.98320    3.31880    2.92790    3.31870 -999.25000 -999.25000 -999.25000 -999.25000 -999.25000 -999.25000 -999.25000 -999.25000 -999.25000
 3124.90000    2.56050    2.56810    2.54470    2.54390    8.50000    8.52430    0.04370   43.41050   47.17650    0.16050    7.48990    2.91960    2.70030    2.95470    2.55330    3.37490   21.98130    3.37490    2.95470    3.37490 -999.25000 -999.25000 -999.25000 -999.25000 -999.25000 -999.25000 -999.25000 -999.25000 -999.25000
 3125.40000    2.57610    2.56590    2.56680    2.56130    8.50000    8.52430    0.04900   36.06390   43.46830    0.15910    7.67850    2.87700    2.66610    2.87570    2.56150    3.35240   21.95700    3.35240    2.87570    3.35240 -999.25000 -999.25000 -999.25000 -999.25000 -999.25000 -999.25000 -999.25000 -999.25000 -999.25000
 3125.90000    2.55100    2.56640    2.54880    2.55950    8.50000    8.52430    0.04520   37.58660   39.21120    0.14820    7.50700    2.77070    2.64420    2.81940    2.55170    3.31980   22.00880    3.31990    2.81940    3.31980 -999.25000 -999.25000 -999.25000 -999.25000 -999.25000 -999.25000 -999.25000 -999.25000 -999.25000
 3126.40000    2.55560    2.54650    2.53170    2.53580    8.50000    8.52430    0.04380   40.94150   44.94620    0.15960    7.39460    2.68340    2.60920    2.67200    2.53930    3.00060   21.99830    3.00060    2.67210    3.00060 -999.25000 -999.25000 -999.25000 -999.25000 -999.25000 -999.25000 -999.25000 -999.25000 -999.25000
 3126.90000    2.53300    2.55830    2.53010    2.52950    8.50000    8.52430    0.04350   45.04980   50.46690    0.17190    7.22070    2.63700    2.59670    2.55630    2.53350    2.84390   21.87740    2.84400    2.55630    2.84390 -999.25000 -999.25000 -999.25000 -999.25000 -999.25000 -999.25000 -999.25000 -999.25000 -999.25000
 3127.40000    2.52680    2.54230    2.54570    2.53160    8.50000    8.47560    0.04600   50.74410   56.44350    0.18250    7.37200    2.60560    2.58520    2.58710    2.53750    2.76490   22.25580    2.76480    2.58710    2.76490 -999.25000 -999.25000 -999.25000 -999.25000 -999.25000 -999.25000 -999.25000 -999.25000 -999.25000
 3127.90000    2.53330    2.52730    2.55190    2.54490    8.50000    8.52430    0.04640   52.22870   55.18950    0.18190    7.37800    2.78390    2.56770    2.54190    2.53850    2.67580   22.54980    2.67580    2.54190    2.67580 -999.25000 -999.25000 -999.25000 -999.25000 -999.25000 -999.25000 -999.25000 -999.25000 -999.25000
 3128.40000    2.53910    2.56970    2.55920    2.55030    8.50000    8.49990    0.04150   44.89950   47.56910    0.16250    7.40950    2.69000    2.52590    2.86450    2.55550    3.58540   22.62160    3.58540    2.86450    3.58540 -999.25000 -999.25000 -999.25000 -999.25000 -999.25000 -999.25000 -999.25000 -999.25000 -999.25000
 3128.90000    2.55220    2.56040    2.54770    2.56780    8.50000    8.50000    0.04570   48.92520   51.64550    0.15770    7.20180    2.72040    2.47720    2.78910    2.55610    3.50900   22.64370    3.50900    2.78920    3.50900 -999.25000 -999.25000 -999.25000 -999.25000 -999.25000 -999.25000 -999.25000 -999.25000 -999.25000
 3129.40000    2.55860    2.57050    2.55990    2.54700    8.50000    8.52420    0.05510   57.82540   55.50440    0.18110    7.15350    2.52970    2.41540    2.84390    2.55850    3.74820   22.71310    3.74860    2.84400    3.74820 -999.25000 -999.25000 -999.25000 -999.25000 -999.25000 -999.25000 -999.25000 -999.25000 -999.25000
 3129.90000    2.52570    2.53420    2.53260    2.54820    8.50000    8.52430    0.04920   57.64970   61.78350    0.20080    7.23270    2.44720    2.39980    2.31780    2.53430    2.41190   22.71330    2.41190    2.31770    2.41190 -999.25000 -999.25000 -999.25000 -999.25000 -999.25000 -999.25000 -999.25000 -999.25000 -999.25000
 3130.40000    2.52430    2.54030    2.55360    2.53530    8.50000    8.52430    0.05220   55.46220   59.08230    0.19620    7.44370    2.35120    2.34680    2.20020    2.53700    2.38980   23.22850    2.38980    2.20020    2.38980 -999.25000 -999.25000 -999.25000 -999.25000 -999.25000 -999.25000 -999.25000 -999.25000 -999.25000
 3130.90000    2.52500    2.54960    2.52400    2.52860    8.50000    8.52430    0.04790   55.78250   64.40300    0.19550    7.21650    2.28070    2.30970    2.25240    2.52910    2.49580   23.72260    2.49580    2.25240    2.49580 -999.25000 -999.25000 -999.25000 -999.25000 -999.25000 -999.25000 -999.25000 -999.25000 -999.25000
 3131.40000    2.51580    2.52960    2.52720    2.51230    8.50000    8.52440    0.04400   57.12240   61.08850    0.20080    7.28200    2.31230    2.29200    2.31110    2.51990    2.54350   24.29360    2.54350    2.31120    2.54350 -999.25000 -999.25000 -999.25000 -999.25000 -999.25000 -999.25000 -999.25000 -999.25000 -999.25000
 3131.90000    2.51570    2.53570    2.54180    2.52560    8.50000    8.52430    0.04510   55.24310   56.65530    0.18400    7.38190    2.36510    2.27860    2.36050    2.52830    2.86220   24.74300    2.86220    2.36050    2.86220 -999.25000 -999.25000 -999.25000 -999.25000 -999.25000 -999.25000 -999.25000 -999.25000 -999.25000
 3132.40000    2.53380    2.54320    2.52710    2.52870    8.50000    8.52430    0.04620   49.06630   50.57120    0.18960    7.18690    2.40890    2.28960    2.37380    2.53100    2.79780   24.91420    2.79770    2.37380    2.79780 -999.25000 -999.25000 -999.25000 -999.25000 -999.25000 -999.25000 -999.25000 -999.25000 -999.25000
 3132.90000    2.53480    2.52810    2.52840    2.51760    8.50000    8.52420    0.04150   45.55800   52.19320    0.17460    7.21860    2.40480    2.28880    2.45060    2.52590    2.88130   24.96030    2.88130    2.45060    2.88130 -999.25000 -999.25000 -999.25000 -999.25000 -999.25000 -999.25000 -999.25000 -999.25000 -999.25000
