~Version ---------------------------------------------------
VERS.   2.0 : CWLS log ASCII Standard -VERSION 2.0
WRAP.    NO : One line per depth step
DLM . SPACE : Column Data Section Delimiter
~Well ------------------------------------------------------
STRT.ft          188.50000 : START DEPTH
STOP.ft         3762.00000 : STOP DEPTH
STEP.ft            0.50000 : STEP
NULL.              -999.25 : NULL VALUE
COMP. Statoil Petroleum AS : COMPANY
WELL.          15/9-F-11 A : WELL
FLD .                VOLVE : FIELD
LOC .      Maersk Inspirer : LOCATION
PROV.                      : PROVINCE
CNTY.                      : COUNTY
STAT.                      : STATE
CTRY.                      : COUNTRY
SRVC.                      : SERVICE COMPANY
DATE.                      : DATE
UWI .                      : UNIQUE WELL ID
API .                      : API NUMBER
~Curve Information -----------------------------------------
DEPT     .ft       : 
ABDCQF01 .g/cm3    : 
ABDCQF02 .g/cm3    : 
ABDCQF03 .g/cm3    : 
ABDCQF04 .g/cm3    : 
BS       .inches   : 
CALI     .inches   : 
DRHO     .g/cm3    : 
DT       .us/ft    : 
DTS      .us/ft    : 
GR       .API      : 
NPHI     .v/v      : 
PEF      .b/elec   : 
RACEHM   .ohm.m    : 
RACELM   .ohm.m    : 
RD       .ohm.m    : 
RHOB     .g/cm3    : 
RM       .ohm.m    : 
ROP      .m/hr     : 
RPCEHM   .ohm.m    : 
RPCELM   .ohm.m    : 
RT       .ohm.m    : 
BVW      .v/v      : 
CARB_FLAG.UNKNOWN  : 
COAL_FLAG.UNKNOWN  : 
KLOGH    .mD       : 
PHIF     .v/v      : 
SAND_FLAG.UNKNOWN  : 
SW       .v/v      : 
VSH      .v/v      : 
~Params ----------------------------------------------------
~Other -----------------------------------------------------
PETROPHYSICAL_INTERPRETATION: INPUT

# --- LOG MNEMONICS AND UNITS ---
#Depth     ABDCQF01   ABDCQF02   ABDCQF03   ABDCQF04   BS         CALI       DRHO       DT         DTS        GR         NPHI       PEF        RACEHM     RACELM     RD         RHOB       RM         ROP        RPCEHM     RPCELM     RT
#M         g/cm3      g/cm3      g/cm3      g/cm3      inches     inches     g/cm3      us/ft      us/ft      API        v/v        b/elec     ohm.m      ohm.m      ohm.m      g/cm3      ohm.m      m/hr       ohm.m      ohm.m      ohm.m
~ASCII -----------------------------------------------------
# ...
 3338.50000    2.58600    2.62700    2.62400    2.61200    8.50000    8.57800    0.06400   57.13300   95.06300   28.25400    0.04800    7.47200   10.44000   10.31400    8.15600    2.60900    6.95100   29.33800    6.95500    8.15600    6.95100 -999.25000 -999.25000 -999.25000 -999.25000 -999.25000 -999.25000 -999.25000 -999.25000
 3339.00000    2.61700    2.61600    2.62700    2.61900    8.50000    8.62500    0.06500   58.60400  101.56300    8.84500    0.04300    7.29100    9.73700    9.76200   11.78200    2.61600   13.00400   27.75100   13.00400   11.78200   13.00400 -999.25000 -999.25000 -999.25000 -999.25000 -999.25000 -999.25000 -999.25000 -999.25000
 3339.50000    2.60000    2.62100    2.59600    2.58200    8.50000    8.62500    0.05800   61.43000  106.71900   11.16100    0.06200    7.50300   10.92900    9.91400   12.42100    2.59700   14.17500   23.76200   14.17400   12.42100   14.17500 -999.25000 -999.25000 -999.25000 -999.25000 -999.25000 -999.25000 -999.25000 -999.25000
 3340.00000    2.61000    2.60600    2.60100    2.60400    8.50000    8.62500    0.07200   61.39900  106.76700   19.86300    0.07300    7.56100    9.95000    9.60300   11.03100    2.60500   11.99900   23.11100   11.99900   11.03100   11.99900 -999.25000 -999.25000 -999.25000 -999.25000 -999.25000 -999.25000 -999.25000 -999.25000
 3340.50000    2.58500    2.60600    2.62200    2.60200    8.50000    8.62500    0.06100   58.69400  103.25600   15.54100    0.05500    7.63200   10.08900    9.53100    9.38400    2.60800    9.22100   26.84100    9.22300    9.38400    9.22100 -999.25000 -999.25000 -999.25000 -999.25000 -999.25000 -999.25000 -999.25000 -999.25000
 3341.00000    2.59800    2.59700    2.60200    2.60600    8.50000    8.62500    0.06100   58.97200  104.27500    9.93600    0.05800    7.53600    9.17400    9.23200   10.34800    2.59800   11.11200   26.49500   11.11100   10.34800   11.11200 -999.25000 -999.25000 -999.25000 -999.25000 -999.25000 -999.25000 -999.25000 -999.25000
 3341.50000    2.58900    2.61200    2.60800    2.60800    8.50000    8.62500    0.07200   60.26400  104.98900   13.83200    0.05900    7.58600    8.84300    9.09400    9.96100    2.61200   10.35700   24.55000   10.35700    9.96100   10.35700 -999.25000 -999.25000 -999.25000 -999.25000 -999.25000 -999.25000 -999.25000 -999.25000
 3342.00000    2.60700    2.61400    2.61600    2.59200    8.50000    8.62500    0.07100   61.99000  105.71300   14.39700    0.06300    7.64700    8.58200    8.97900    9.61500    2.61200    9.77900   19.58600    9.77800    9.61500    9.77900 -999.25000 -999.25000 -999.25000 -999.25000 -999.25000 -999.25000 -999.25000 -999.25000
 3342.50000    2.59100    2.59400    2.57400    2.58800    8.50000    8.62500    0.06500   64.69200  113.79000   18.44300    0.08200    7.46000    8.91900    9.15600    9.13800    2.58000    8.81000   16.90400    8.80900    9.13800    8.81000 -999.25000 -999.25000 -999.25000 -999.25000 -999.25000 -999.25000 -999.25000 -999.25000
 3343.00000    2.57200    2.58200    2.60100    2.58200    8.50000    8.62500    0.07000   63.58500  110.31200   19.55300    0.08100    7.43300    9.23600    9.03100    8.49900    2.58300    7.71800   18.51700    7.71600    8.49900    7.71800 -999.25000 -999.25000 -999.25000 -999.25000 -999.25000 -999.25000 -999.25000 -999.25000
 3343.50000    2.57900    2.61300    2.65800    2.58900    8.50000    8.62500    0.05900   57.81800  100.11900   11.28200    0.04800    7.77700    9.11700    8.41600   11.17000    2.61400   12.50900   21.08600   12.50800   11.17000   12.50900 -999.25000 -999.25000 -999.25000 -999.25000 -999.25000 -999.25000 -999.25000 -999.25000
 3344.00000    2.61300    2.62100    2.60500    2.63300    8.50000    8.62500    0.05900   58.34600   98.72200    8.86600    0.04600    7.77000    9.22600    7.88500   10.59500    2.61200   11.79200   26.01500   11.79200   10.59500   11.79200 -999.25000 -999.25000 -999.25000 -999.25000 -999.25000 -999.25000 -999.25000 -999.25000
 3344.50000    2.57200    2.58800    2.58700    2.61200    8.50000    8.62500    0.05700   60.58300  104.37300   14.46400    0.05900    7.54600    8.50800    7.52000    9.35700    2.58600   10.29000   27.84600   10.28900    9.35700   10.29000 -999.25000 -999.25000 -999.25000 -999.25000 -999.25000 -999.25000 -999.25000 -999.25000
 3345.00000    2.59100    2.60800    2.61500    2.59700    8.50000    8.62500    0.05400   59.43800  104.67700   11.87300    0.05600    7.87200    8.12100    7.14700    8.98000    2.60000    9.83000   27.20600    9.82900    8.98000    9.83000 -999.25000 -999.25000 -999.25000 -999.25000 -999.25000 -999.25000 -999.25000 -999.25000
 3345.50000    2.59400    2.62100    2.60600    2.61200    8.50000    8.62500    0.05900   58.54100  102.47800    9.15500    0.05600    7.88100    7.80600    6.85200    8.66000    2.60700    9.49100   25.03400    9.49100    8.66000    9.49100 -999.25000 -999.25000 -999.25000 -999.25000 -999.25000 -999.25000 -999.25000 -999.25000
 3346.00000    2.62100    2.60800    2.60200    2.60900    8.50000    8.62500    0.06200   58.89500  104.20500    9.67300    0.05600    7.78300    7.45100    6.46500    8.20900    2.60600    9.19700   23.61600    9.19700    8.20900    9.19700 -999.25000 -999.25000 -999.25000 -999.25000 -999.25000 -999.25000 -999.25000 -999.25000
 3346.50000    2.59800    2.62500    2.60600    2.59800    8.50000    8.62500    0.06500   59.48500  104.50000   11.89300    0.05900    7.89900    6.98000    6.09500    7.85900    2.60500    9.02500   23.25600    9.02500    7.85900    9.02500 -999.25000 -999.25000 -999.25000 -999.25000 -999.25000 -999.25000 -999.25000 -999.25000
 3347.00000    2.62600    2.59500    2.59600    2.58900    8.50000    8.62500    0.06200   59.81900  103.61400   12.06800    0.05700    7.76800    6.57100    5.77000    7.56000    2.59600    8.93700   23.28000    8.93700    7.56000    8.93700 -999.25000 -999.25000 -999.25000 -999.25000 -999.25000 -999.25000 -999.25000 -999.25000
 3347.50000    2.59300    2.59800    2.61600    2.60500    8.50000    8.62500    0.05700   60.55100  106.99900   10.91800    0.05800    7.77100    6.13400    5.45900    7.14400    2.60200    8.48600   23.89600    8.48600    7.14400    8.48600 -999.25000 -999.25000 -999.25000 -999.25000 -999.25000 -999.25000 -999.25000 -999.25000
 3348.00000    2.63900    2.61800    2.58700    2.59700    8.50000    8.62500    0.06500   64.19700  113.84400   13.93600    0.06400    7.60200    5.60300    5.03400    6.62000    2.60700    8.24600   23.68200    8.24600    6.62000    8.24600 -999.25000 -999.25000 -999.25000 -999.25000 -999.25000 -999.25000 -999.25000 -999.25000
 3348.50000    2.57900    2.61400    2.58900    2.60000    8.50000    8.62500    0.05600   66.83300  121.07500   16.07400    0.07300    7.77500    5.02000    4.73100    5.68700    2.59400    6.59800   24.30400    6.59800    5.68700    6.59800 -999.25000 -999.25000 -999.25000 -999.25000 -999.25000 -999.25000 -999.25000 -999.25000
 3349.00000    2.59300    2.60900    2.62600    2.60900    8.50000    8.62500    0.07100   67.70100  125.29900   25.11000    0.09900    7.96800    4.45800    4.37800    4.88000    2.61100    5.60300   25.46500    5.60200    4.88000    5.60300 -999.25000 -999.25000 -999.25000 -999.25000 -999.25000 -999.25000 -999.25000 -999.25000
 3349.50000    2.61200    2.62400    2.61200    2.62400    8.50000    8.62500    0.06400   67.21000  124.59500   20.89300    0.08000    7.81500    3.90100    4.16400    4.37500    2.61900    4.86700   27.83300    4.86700    4.37500    4.86700 -999.25000 -999.25000 -999.25000 -999.25000 -999.25000 -999.25000 -999.25000 -999.25000
 3350.00000    2.62200    2.59300    2.60100    2.60500    8.50000    8.62500    0.06400   68.78800  126.54200   22.24900    0.08900    7.79600    3.63900    3.92100    3.88700    2.60400    4.14400   28.65500    4.14400    3.88700    4.14400 -999.25000 -999.25000 -999.25000 -999.25000 -999.25000 -999.25000 -999.25000 -999.25000
 3350.50000    2.58400    2.57700    2.60300    2.58900    8.50000    8.62500    0.05900   69.75200  122.02800   22.11600    0.09600    7.78500    3.44700    3.65900    3.73100    2.58800    4.23500   27.32400    4.23500    3.73100    4.23500 -999.25000 -999.25000 -999.25000 -999.25000 -999.25000 -999.25000 -999.25000 -999.25000
