~Version ---------------------------------------------------
VERS.   2.0 : CWLS log ASCII Standard -VERSION 2.0
WRAP.    NO : One line per depth step
DLM . SPACE : Column Data Section Delimiter
~Well ------------------------------------------------------
STRT.ft       145.90000 : START DEPTH
STOP.ft      4093.90000 : STOP DEPTH
STEP.ft         0.50000 : STEP
NULL.           -999.25 : NULL VALUE
COMP. Statoil Petroleum : COMPANY
WELL.        15/9-F-1 C : WELL
FLD .             VOLVE : FIELD
LOC .   Maersk Inspirer : LOCATION
PROV.                   : PROVINCE
CNTY.                   : COUNTY
STAT.                   : STATE
CTRY.                   : COUNTRY
SRVC.                   : SERVICE COMPANY
DATE.                   : DATE
UWI .                   : UNIQUE WELL ID
API .                   : API NUMBER
~Curve Information -----------------------------------------
DEPT        .ft        : 
ABDCQF01    .g/cm3     : 
ABDCQF02    .g/cm3     : 
ABDCQF03    .g/cm3     : 
ABDCQF04    .g/cm3     : 
BS          .inches    : 
CALI        .inches    : 
DRHO        .g/cm3     : 
GR          .API       : 
NBGRCFM     .API       : 
NPHI        .v/v       : 
PEF         .b/elec    : 
RACEHM      .ohm.m     : 
RACELM      .ohm.m     : 
RD          .ohm.m     : 
RHOB        .g/cm3     : 
RM          .ohm.m     : 
ROP         .m/hr      : 
RPCEHM      .ohm.m     : 
RPCELM      .ohm.m     : 
RT          .ohm.m     : 
BADDATA_FLAG.unitless  : 
BVW         .v/v       : 
COAL_FLAG   .unitless  : 
KLOGH       .mD        : 
PHIF        .v/v       : 
SAND_FLAG   .unitless  : 
SW          .v/v       : 
VCARB       .v/v       : 
VSH         .v/v       : 
~Params ----------------------------------------------------
~Other -----------------------------------------------------
PETROPHYSICAL INTERPRETATION: INPUT

# --- LOG MNEMONICS AND UNITS ---
#Depth          ABDCQF01        ABDCQF02        ABDCQF03        ABDCQF04        BS              CALI            DRHO            GR              NBGRCFM         NPHI            PEF             RACEHM          RACELM          RD              RHOB            RM              ROP             RPCEHM          RPCELM          RT
#M              g/cm3           g/cm3           g/cm3           g/cm3           inches          inches          g/cm3           API             API             v/v             b/elec          ohm.m           ohm.m           ohm.m           g/cm3           ohm.m           m/hr            ohm.m           ohm.m           ohm.m
~ASCII -----------------------------------------------------
# ...
 3258.40000    2.26370    2.24210    2.22340    2.23890    8.50000    8.42660    0.03610   17.13700   17.67250    0.20710    4.33860    0.55140    0.60030    0.55080    2.24070    0.49490   28.91290    0.49500    0.55080    0.49490    0.00000    0.18450    0.00000 1142.98220    0.23320    1.00000    0.79130    0.00000    0.08970
 3258.90000    2.23090    2.24730    2.24560    2.25180    8.50000    8.39420    0.04390   16.47280   17.60370    0.21370    4.86870    0.51630    0.56880    0.50400    2.24180    0.46260   29.56810    0.46260    0.50400    0.46260    0.00000    0.18990    0.00000 1346.01820    0.23540    1.00000    0.80680    0.00000    0.08380
 3259.40000    2.23590    2.25140    2.26320    2.22810    8.50000    8.41040    0.03660   15.37410   14.40380    0.20780    4.58060    0.46630    0.53540    0.49320    2.24410    0.50040   30.04820    0.50040    0.49320    0.50040    0.00000    0.18300    0.00000 1553.96040    0.23230    1.00000    0.78790    0.00000    0.07410
 3259.90000    2.24130    2.28490    2.30920    2.27210    8.50000    8.47550    0.04080   14.50100   16.21750    0.19580    5.10940    0.47460    0.50210    0.54870    2.28000    0.68560   30.24820    0.68560    0.54870    0.68560    0.00000    0.15770    0.00000 1330.23610    0.21520    1.00000    0.73300    0.00000    0.06640
 3260.40000    2.31720    2.32200    2.31220    2.30180    8.50000    8.47550    0.04390   13.35550   15.75030    0.18640    5.27390    0.50260    0.50370    0.59680    2.31140    0.80530   30.05550    0.80530    0.59680    0.80530    0.00000    0.14490    0.00000 1256.57180    0.20070    1.00000    0.72200    0.00000    0.05620
 3260.90000    2.30230    2.32230    2.26190    2.26790    8.50000    8.47550    0.04710   13.29740   13.08130    0.18760    5.15850    0.56280    0.53730    0.61270    2.28370    0.75420   29.98870    0.75430    0.61270    0.75420    0.00000    0.15060    0.00000 1525.57970    0.21060    1.00000    0.71480    0.00000    0.05570
 3261.40000    2.26850    2.28700    2.28750    2.26860    8.50000    8.47550    0.04210   11.05400   13.10100    0.19290    5.18890    0.57900    0.57770    0.71480    2.27650    0.96530   29.94680    0.96530    0.71480    0.96530    0.00000    0.13640    0.00000 2505.52810    0.21520    1.00000    0.63360    0.00000    0.03590
 3261.90000    2.28100    2.27050    2.27810    2.28860    8.50000    8.47550    0.04750   11.54880   14.28560    0.18700    5.15250    0.68780    0.64200    0.67620    2.27710    0.71640   29.92160    0.71640    0.67620    0.71640    0.00000    0.15370    0.00000 2182.55470    0.21270    1.00000    0.72270    0.00000    0.04020
 3262.40000    2.26450    2.27150    2.28730    2.28670    8.50000    8.47550    0.04240   11.75410   13.18920    0.19460    5.29510    0.57610    0.63260    0.61250    2.27580    0.59540   30.00930    0.59540    0.61260    0.59540    0.00000    0.16650    0.00000 2240.96970    0.21610    1.00000    0.77020    0.00000    0.04210
 3262.90000    2.28840    2.29890    2.26280    2.31370    8.50000    8.47550    0.04360   12.47230   13.57030    0.19650    5.36520    0.52650    0.59330    0.52940    2.29000    0.48160   30.00670    0.48160    0.52940    0.48160    0.00000    0.18090    0.00000 1821.73290    0.21200    1.00000    0.85310    0.00000    0.04840
 3263.40000    2.27570    2.26390    2.25330    2.26830    8.50000    8.52430    0.05280   16.12020   14.77700    0.20990    5.05040    0.54180    0.54890    0.50710    2.26100    0.46990   30.04830    0.46990    0.50710    0.46990    0.00000    0.18700    0.00000 1236.94910    0.22730    1.00000    0.82260    0.00000    0.08070
 3263.90000    2.21650    2.23720    2.23970    2.23490    8.50000    8.47550    0.04530   15.09850   16.99990    0.21630    5.15090    0.50770    0.49230    0.49630    2.23070    0.46670   30.00770    0.46660    0.49630    0.46670    0.00000    0.18980    0.00000 1892.84960    0.24030    1.00000    0.78990    0.00000    0.07170
 3264.40000    2.25700    2.24670    2.23300    2.21560    8.50000    8.47550    0.04440   16.49330   17.20370    0.20760    5.23770    0.45420    0.45960    0.46750    2.23680    0.45290   29.84090    0.45290    0.46750    0.45290    0.00000    0.19140    0.00000 1322.05570    0.23470    1.00000    0.81560    0.00000    0.08400
 3264.90000    2.24060    2.24480    2.22240    2.24680    8.50000    8.47550    0.03700   19.94720   21.06860    0.21590    5.05290    0.41400    0.44350    0.44810    2.23630    0.49190   30.00780    0.49190    0.44810    0.49190    0.00000    0.18680    0.00000  748.62650    0.23820    1.00000    0.78410    0.00000    0.11460
 3265.40000    2.24980    2.24030    2.22960    2.23880    8.50000    8.50000    0.04240   17.92500   18.38780    0.21370    5.03110    0.41310    0.46220    0.43270    2.23610    0.45120   29.95750    0.45120    0.43270    0.45120    0.00000    0.19270    0.00000 1068.78190    0.23740    1.00000    0.81170    0.00000    0.09670
 3265.90000    2.21970    2.26080    2.23150    2.23330    8.50000    8.47550    0.03320   13.68000   16.94970    0.21650    5.22340    0.38830    0.50610    0.44410    2.23730    0.43910   29.99790    0.43910    0.44410    0.43910    0.00000    0.19370    0.00000 2359.24610    0.23810    1.00000    0.81350    0.00000    0.05910
 3266.40000    2.25120    2.25400    2.23200    2.27060    8.50000    8.47560    0.04900   15.68920   15.35170    0.21030    5.13170    0.50840    0.58460    0.46200    2.24960    0.39510   29.96740    0.39510    0.46200    0.39510    0.00000    0.20150    0.00000 1442.50120    0.23140    1.00000    0.87060    0.00000    0.07690
 3266.90000    2.26940    2.29940    2.28370    2.22940    8.50000    8.49180    0.03350   18.91300   21.31780    0.19690    5.42800    0.70690    0.61940    0.71310    2.27130    0.82340   29.77380    0.82340    0.71310    0.82340    0.00000    0.14800    0.00000  631.42470    0.21860    1.00000    0.67700    0.00000    0.10540
 3267.40000    2.45790    2.42680    2.41860    2.36570    8.50000    8.52430    0.03110   32.08680   39.10090    0.21610    6.39480    0.86770    0.66110    0.91380    2.41520    1.22800   30.00930    1.22790    0.91380    1.22800    0.00000    0.11520    0.00000   11.91940    0.13420    1.00000    0.85830    0.00000    0.22200
 3267.90000    2.37700    2.49420    2.52290    2.48020    8.50000    8.52420    0.04130   39.82250   40.84260    0.18580    6.17990    1.02540    0.71840    1.04980    2.45920    1.51420   30.00780    1.51420    1.04980    1.51420    0.00000    0.10300    0.00000    1.81080    0.10900    1.00000    0.94440    0.01150    0.29050
 3268.40000    2.37280    2.46850    2.62130    2.41850    8.50000    8.55690    0.01700   40.28630   46.14670    0.22300    6.77050    0.82980    0.79380    1.11210    2.46810    1.63210   29.96740    1.63210    1.11210    1.63210    0.00000    0.09900    0.00000    1.51800    0.10400    1.00000    0.95170    0.02300    0.29450
 3268.90000    2.41620    2.56360    2.39920    2.55670    8.50000    8.55690    0.03580   49.19610   54.79720    0.22240    6.58970    0.94920    0.90930    1.12100    2.47430    1.42730   29.95390    1.42730    1.12100    1.42730    0.00000    0.10040    0.00000    0.27650    0.10040    1.00000    1.00000    0.00000    0.37350
 3269.40000    2.51490    2.33720    2.29310    2.40110    8.50000    8.52430    0.06850   36.20410   35.29060    0.20180    5.91740    0.96380    0.97920    1.14890    2.37650    1.31460   29.96740    1.31470    1.14890    1.31460    0.00000    0.12120    0.00000   14.13030    0.18450    1.00000    0.65730    0.00000    0.25840
 3269.90000    2.28860    2.26280    2.27930    2.27520    8.50000    8.52420    0.03820   32.47140   36.86410    0.21850    5.56270    1.03710    0.91310    1.15640    2.27350    1.43110   29.92930    1.43100    1.15640    1.43110    0.00000    0.12180    0.00000   60.50880    0.22650    1.00000    0.53780    0.00000    0.22560
 3270.40000    2.26980    2.27080    2.24590    2.25900    8.50000    8.47550    0.04410   15.42930   14.68160    0.19390    5.40850    0.81940    0.79710    0.88190    2.25640    0.99270   29.97580    0.99290    0.88190    0.99270    0.00000    0.13690    0.00000 1284.58750    0.22250    1.00000    0.61510    0.00000    0.07460
