~Version ---------------------------------------------------
VERS.   2.0 : CWLS log ASCII Standard -VERSION 2.0
WRAP.    NO : One line per depth step
DLM . SPACE : Column Data Section Delimiter
~Well ------------------------------------------------------
STRT.ft          145.90000 : START DEPTH
STOP.ft         3681.90000 : STOP DEPTH
STEP.ft            0.50000 : STEP
NULL.              -999.25 : NULL VALUE
COMP. Statoil Petroleum AS : COMPANY
WELL.           15/9-F-1 A : WELL
FLD .                VOLVE : FIELD
LOC .      Maersk Inspirer : LOCATION
PROV.                      : PROVINCE
CNTY.               Unused : COUNTY
STAT.                      : STATE
CTRY.                      : COUNTRY
SRVC.                      : SERVICE COMPANY
DATE.                      : DATE
UWI .                      : UNIQUE WELL ID
API .                      : API NUMBER
~Curve Information -----------------------------------------
DEPT     .ft        : 
ABDCQF01 .g/cm3     : 
ABDCQF02 .g/cm3     : 
ABDCQF03 .g/cm3     : 
ABDCQF04 .g/cm3     : 
BS       .inches    : 
CALI     .inches    : 
DRHO     .g/cm3     : 
DT       .us/ft     : 
DTS      .us/ft     : 
GR       .API       : 
NPHI     .v/v       : 
PEF      .b/elec    : 
RACEHM   .UNKNOWN   : 
RACELM   .UNKNOWN   : 
RHOB     .g/cm3     : 
ROP      .m/hr      : 
RPCEHM   .UNKNOWN   : 
RPCELM   .UNKNOWN   : 
RT       .ohm.m     : 
BVW      .V/V       : 
COAL_FLAG.unitless  : 
KLOGH    .mD        : 
PHIF     .V/V       : 
SAND_FLAG.unitless  : 
SW       .V/V       : 
VCARB    .V/V       : 
VSH      .V/V       : 
~Params ----------------------------------------------------
~Other -----------------------------------------------------
PETROPHYSICAL INTERPRETATION: INPUT

# --- LOG MNEMONICS AND UNITS ---
#Depth          ABDCQF01        ABDCQF02        ABDCQF03        ABDCQF04        BS              CALI            DRHO            DT              DTS             GR              NPHI            PEF             RACEHM          RACELM          RHOB            ROP             RPCEHM          RPCELM          RT
#M              g/cm3           g/cm3           g/cm3           g/cm3           inches          inches          g/cm3           us/ft           us/ft           API             v/v             b/elec          UNKNOWN         UNKNOWN         g/cm3           m/hr            UNKNOWN         UNKNOWN         ohm.m
~ASCII -----------------------------------------------------
# ...
 3655.90000    2.61140    2.62390    2.63250    2.61870    8.50000    8.67190    0.05680 -999.25000 -999.25000  106.77280    0.18440    6.85130    2.24810    2.27230    2.62360    9.17430    2.25320    2.25190    2.25320    0.02000    0.00000    0.00100    0.02000    0.00000    1.00000    0.00000    0.77600
 3656.40000    2.60610    2.61300    2.62850    2.60630    8.50000    8.70300    0.06530 -999.25000 -999.25000  104.27230    0.19600    6.73760    2.27710    2.29300    2.61330    9.14910    2.25350    2.27100    2.25350    0.02100    0.00000    0.00100    0.02100    0.00000    1.00000    0.00000    0.75620
 3656.90000    2.59910    2.61810    2.60520    2.62130    8.50000    8.67190    0.06200 -999.25000 -999.25000  101.85370    0.18860    6.76160    2.37330    2.31290    2.60840    9.15850    2.32810    2.33360    2.32810    0.02380    0.00000    0.00100    0.02380    0.00000    1.00000    0.00000    0.73690
 3657.40000    2.59100    2.61660    2.62410    2.61190    8.50000    8.67190    0.05360 -999.25000 -999.25000   96.90690 -999.25000    6.77410    2.37830    2.30260    2.61150    9.19190    2.39550    2.36380    2.39550    0.02200    0.00000    0.00100    0.02200    0.00000    1.00000    0.00000    0.69770
 3657.90000    2.61750    2.61090    2.61650    2.62740    8.50000    8.67190    0.06270 -999.25000 -999.25000   95.22860 -999.25000    6.49930    2.38790    2.27030    2.61520    9.17160    2.46280    2.38270    2.46280 -999.25000    0.00000 -999.25000 -999.25000    0.00000 -999.25000 -999.25000    0.68450
 3658.40000    2.59660    2.61180    2.61820    2.60840    8.50000    8.68240    0.06120 -999.25000 -999.25000   92.21920 -999.25000    6.58680    2.29440    2.22340    2.60870    9.16510    2.49450    2.35990    2.49450 -999.25000    0.00000 -999.25000 -999.25000 -999.25000 -999.25000 -999.25000    0.66040
 3658.90000    2.61140    2.62240    2.62310    2.62480    8.50000    8.69240    0.06400 -999.25000 -999.25000  101.39370 -999.25000    6.66050    2.13830    2.15760    2.61860    9.15320    1.90140    2.04650    1.90140 -999.25000    0.00000 -999.25000 -999.25000 -999.25000 -999.25000 -999.25000    0.73320
 3659.40000    2.59710    2.60570    2.61530    2.61190    8.50000    8.70130    0.06160 -999.25000 -999.25000  108.39300 -999.25000    6.95140    2.12050    2.11880    2.60620    9.08600    1.96500    2.04330    1.96500 -999.25000    0.00000 -999.25000 -999.25000 -999.25000 -999.25000 -999.25000    0.78890
 3659.90000 -999.25000 -999.25000 -999.25000    2.58460    8.50000 -999.25000    0.08980 -999.25000 -999.25000  101.78820 -999.25000    7.91230    2.03410    2.07310    2.58060    9.12460    2.28720    2.14020    2.28720 -999.25000    0.00000 -999.25000 -999.25000 -999.25000 -999.25000 -999.25000    0.73640
 3660.40000 -999.25000 -999.25000 -999.25000 -999.25000    8.50000 -999.25000 -999.25000 -999.25000 -999.25000  109.81070 -999.25000 -999.25000    1.99640    2.08440 -999.25000    9.17980    1.80370    1.92860    1.80370 -999.25000    0.00000 -999.25000 -999.25000 -999.25000 -999.25000 -999.25000    0.80010
 3660.90000 -999.25000 -999.25000 -999.25000 -999.25000    8.50000 -999.25000 -999.25000 -999.25000 -999.25000  108.87130 -999.25000 -999.25000    2.02690    2.10670 -999.25000    9.18620    1.97030    2.02110    1.97030 -999.25000    0.00000 -999.25000 -999.25000 -999.25000 -999.25000 -999.25000    0.79270
 3661.40000 -999.25000 -999.25000 -999.25000 -999.25000    8.50000 -999.25000 -999.25000 -999.25000 -999.25000  103.87210 -999.25000 -999.25000    2.14340    2.15330 -999.25000    9.17280    2.11700    2.12770    2.11700 -999.25000    0.00000 -999.25000 -999.25000 -999.25000 -999.25000 -999.25000    0.75290
 3661.90000 -999.25000 -999.25000 -999.25000 -999.25000    8.50000 -999.25000 -999.25000 -999.25000 -999.25000  115.26460 -999.25000 -999.25000    2.18480    2.16690 -999.25000    9.19660    2.28150    2.22150    2.28150 -999.25000    0.00000 -999.25000 -999.25000 -999.25000 -999.25000 -999.25000    0.84350
 3662.40000 -999.25000 -999.25000 -999.25000 -999.25000    8.50000 -999.25000 -999.25000 -999.25000 -999.25000  108.43660 -999.25000 -999.25000    2.17320    2.17880 -999.25000    9.17570    2.12650    2.15950    2.12650 -999.25000    0.00000 -999.25000 -999.25000 -999.25000 -999.25000 -999.25000    0.78920
 3662.90000 -999.25000 -999.25000 -999.25000 -999.25000    8.50000 -999.25000 -999.25000 -999.25000 -999.25000  105.88570 -999.25000 -999.25000    2.17090    2.17050 -999.25000    9.17970    2.06010    2.13170    2.06010 -999.25000    0.00000 -999.25000 -999.25000 -999.25000 -999.25000 -999.25000    0.76890
 3663.40000 -999.25000 -999.25000 -999.25000 -999.25000    8.50000 -999.25000 -999.25000 -999.25000 -999.25000  104.79390 -999.25000 -999.25000    2.16890    2.13190 -999.25000    9.19190    2.09280    2.13050    2.09280 -999.25000    0.00000 -999.25000 -999.25000 -999.25000 -999.25000 -999.25000    0.76030
 3663.90000 -999.25000 -999.25000 -999.25000 -999.25000    8.50000 -999.25000 -999.25000 -999.25000 -999.25000  105.26720 -999.25000 -999.25000    2.12640    2.08790 -999.25000    9.18920    2.22560    2.15900    2.22560 -999.25000    0.00000 -999.25000 -999.25000 -999.25000 -999.25000 -999.25000    0.76400
 3664.40000 -999.25000 -999.25000 -999.25000 -999.25000    8.50000 -999.25000 -999.25000 -999.25000 -999.25000  103.16590 -999.25000 -999.25000    2.05210    2.05960 -999.25000    9.20330    2.05650    2.06620    2.05650 -999.25000    0.00000 -999.25000 -999.25000 -999.25000 -999.25000 -999.25000    0.74730
 3664.90000 -999.25000 -999.25000 -999.25000 -999.25000    8.50000 -999.25000 -999.25000 -999.25000 -999.25000  109.27440 -999.25000 -999.25000    2.03890    2.04220 -999.25000    9.21790    1.88560    1.96260    1.88560 -999.25000    0.00000 -999.25000 -999.25000 -999.25000 -999.25000 -999.25000    0.79580
 3665.40000 -999.25000 -999.25000 -999.25000 -999.25000    8.50000 -999.25000 -999.25000 -999.25000 -999.25000  107.24640 -999.25000 -999.25000    2.02460    2.04530 -999.25000    9.15840    2.00100    2.00980    2.00100 -999.25000    0.00000 -999.25000 -999.25000 -999.25000 -999.25000 -999.25000    0.77970
 3665.90000 -999.25000 -999.25000 -999.25000 -999.25000    8.50000 -999.25000 -999.25000 -999.25000 -999.25000  112.08030 -999.25000 -999.25000    2.10540    2.10850 -999.25000    9.20850    1.93710    2.01410    1.93710 -999.25000    0.00000 -999.25000 -999.25000 -999.25000 -999.25000 -999.25000    0.81810
 3666.40000 -999.25000 -999.25000 -999.25000 -999.25000    8.50000 -999.25000 -999.25000 -999.25000 -999.25000  111.96040 -999.25000 -999.25000    2.16070    2.19170 -999.25000    8.84970    2.28210    2.19660    2.28210 -999.25000    0.00000 -999.25000 -999.25000 -999.25000 -999.25000 -999.25000    0.81710
 3666.90000 -999.25000 -999.25000 -999.25000 -999.25000    8.50000 -999.25000 -999.25000 -999.25000 -999.25000  102.75090 -999.25000 -999.25000    2.28920    2.31770 -999.25000    7.96040    2.47870    2.34490    2.47870 -999.25000    0.00000 -999.25000 -999.25000 -999.25000 -999.25000 -999.25000    0.74410
 3667.40000 -999.25000 -999.25000 -999.25000 -999.25000    8.50000 -999.25000 -999.25000 -999.25000 -999.25000  112.60120 -999.25000 -999.25000    2.45250    2.49620 -999.25000    8.47500    2.26100    2.35450    2.26100 -999.25000    0.00000 -999.25000 -999.25000 -999.25000 -999.25000 -999.25000    0.82220
 3667.90000 -999.25000 -999.25000 -999.25000 -999.25000    8.50000 -999.25000 -999.25000 -999.25000 -999.25000  113.71350 -999.25000 -999.25000    2.61610    2.63730 -999.25000    9.37040    2.43050    2.49870    2.43050 -999.25000    0.00000 -999.25000 -999.25000 -999.25000 -999.25000 -999.25000    0.83110
 3668.40000 -999.25000 -999.25000 -999.25000 -999.25000    8.50000 -999.25000 -999.25000 -999.25000 -999.25000  114.63480 -999.25000 -999.25000    2.79090    2.77310 -999.25000    9.98110    2.78200    2.75960    2.78200 -999.25000    0.00000 -999.25000 -999.25000 -999.25000 -999.25000 -999.25000    0.83850
