~Version ---------------------------------------------------
VERS.   2.0 : CWLS log ASCII Standard -VERSION 2.0
WRAP.    NO : One line per depth step
DLM . SPACE : Column Data Section Delimiter
~Well ------------------------------------------------------
STRT.ft          145.90000 : START DEPTH
STOP.ft         4684.90000 : STOP DEPTH
STEP.ft            0.50000 : STEP
NULL.              -999.25 : NULL VALUE
COMP. STATOIL PETROLEUM AS : COMPANY
WELL.          15/9-F-15 D : WELL
FLD .                VOLVE : FIELD
LOC .                      : LOCATION
PROV.                      : PROVINCE
CNTY.      MAERSK INSPIRER : COUNTY
STAT.                      : STATE
CTRY.                      : COUNTRY
SRVC.                      : SERVICE COMPANY
DATE.                      : DATE
UWI .                      : UNIQUE WELL ID
API .                      : API NUMBER
~Curve Information -----------------------------------------
DEPT     .ft        : 
ABDCQF01 .g/cm3     : 
ABDCQF02 .g/cm3     : 
ABDCQF03 .g/cm3     : 
ABDCQF04 .g/cm3     : 
BS       .inches    : 
CALI     .inches    : 
DRHO     .g/cm3     : 
GR       .API       : 
NBGRCFM  .API       : 
NPHI     .v/v       : 
PEF      .b/elec    : 
RACEHM   .ohm.m     : 
RACELM   .ohm.m     : 
RD       .ohm.m     : 
RHOB     .g/cm3     : 
RM       .ohm.m     : 
ROP      .m/hr      : 
RPCEHM   .ohm.m     : 
RPCELM   .ohm.m     : 
RT       .ohm.m     : 
BVW      .v/v       : 
COAL_FLAG.unitless  : 
KLOGH    .mD        : 
PHIF     .v/v       : 
SAND_FLAG.unitless  : 
SW       .v/v       : 
VCARB    .v/v       : 
VSH      .v/v       : 
~Params ----------------------------------------------------
~Other -----------------------------------------------------
PETROPHYSICAL INTERPRETATION: INPUT

# --- LOG MNEMONICS AND UNITS ---
#Depth          ABDCQF01        ABDCQF02        ABDCQF03        ABDCQF04        BS              CALI            DRHO            GR              NBGRCFM         NPHI            PEF             RACEHM          RACELM          RD              RHOB            RM              ROP             RPCEHM          RPCELM          RT
#M              g/cm3           g/cm3           g/cm3           g/cm3           inches          inches          g/cm3           API             API             v/v             b/elec          ohm.m           ohm.m           ohm.m           g/cm3           ohm.m           m/hr            ohm.m           ohm.m           ohm.m
~ASCII -----------------------------------------------------
# ...
 4095.90000    2.55080    2.59310    2.59590    2.57030    8.50000    8.62470    0.06830   56.04030   54.97760    0.19120    6.39690    5.75110    7.12460    5.68600    2.58450    5.05320   29.41000    5.05310    5.68600    4.94660    0.03740    0.00000    0.00870    0.03740    0.00000    1.00000    0.04120    0.48450
 4096.40000    2.52590    2.55020    2.51250    2.56440    8.50000    8.57810    0.03920   54.30840   52.06330    0.17780    6.25590    7.11270    8.44560    5.31160    2.52880    3.80450   30.91870    3.80440    5.31150    3.94010    0.06760    0.00000    0.02100    0.06930    0.00000    0.97520    0.00000    0.47030
 4096.90000    2.54530    2.57130    2.49690    2.56330    8.50000    8.57810    0.05500   52.72800   52.74320    0.19090    6.09050    8.89670    7.77860    7.54450    2.55160    7.59940   30.81600    7.60010    7.54490    6.60770    0.04860    0.00000    0.02310    0.05620    0.00000    0.86460    0.01870    0.45390
 4097.40000    2.60440    2.45530    2.30560    2.59610    8.50000    8.56240    0.03280   53.42550   52.79380    0.20640    6.04630   21.59340    7.11010   13.90270    2.46110   18.32070   31.02000   18.32180   13.90300   14.26870    0.03860    0.00000    0.04710    0.10800    0.00000    0.35770    0.00000    0.46570
 4097.90000    2.65640    2.45270    2.38910    2.58720    8.50000    8.57810    0.04330   55.27380   54.30940    0.19750    6.10150   17.46290    6.82530   14.45960    2.53100   24.32190   31.60010   24.32010   14.45940   26.22980    0.03170    0.00000    0.01840    0.06800    0.00000    0.46550    0.00000    0.47550
 4098.40000    2.56560    2.48340    2.43290    2.57580    8.50000    8.57810    0.03960   58.91520   56.96000    0.19270    5.90300   13.70710    7.13940   13.29110    2.51070   16.07890   31.25360   16.07920   13.29140   15.60800    0.03910    0.00000    0.01080    0.07960    0.00000    0.49080    0.00000    0.51160
 4098.90000    2.55040    2.50760    2.45850    2.54050    8.50000    8.62470    0.03220   59.96080   59.24860    0.19720    6.08640    9.92560    7.78740    7.94400    2.50410    7.42230   30.86040    7.42230    7.94400    7.78800    0.05430    0.00000    0.00830    0.08340    0.00000    0.65150    0.00000    0.52730
 4099.40000    2.56220    2.55360    2.47230    2.55900    8.50000    8.57810    0.03200   59.25850   62.47950    0.20480    6.04270    7.94960    7.60190    8.56820    2.52170    8.50030   30.74930    8.50050    8.56830    8.32130    0.05000    0.00000    0.00890    0.07330    0.00000    0.68170    0.00000    0.51540
 4099.90000    2.52810    2.58910    2.47320    2.53980    8.50000    8.57840    0.02460   61.44670   60.09830    0.21920    6.43330    7.14340    8.76780    6.66240    2.52870    5.11730   30.76590    5.11650    6.66210    5.93340    0.06150    0.00000    0.00490    0.06930    0.00000    0.88770    0.00000    0.54080
 4100.40000    2.53850    2.56630    2.50340    2.53110    8.50000    8.57810    0.03200   62.99500   63.73150    0.20520    6.18050    6.58090    8.90950    5.89800    2.52500    4.61370   30.59860    4.61360    5.89790    5.01210    0.06460    0.00000    0.00460    0.07150    0.00000    0.90310    0.00000    0.54570
 4100.90000    2.57170    2.58870    2.63920    2.55870    8.50000    8.62490    0.05560   60.07490   64.16070    0.19970    6.15540    6.12050    8.47030    5.97300    2.59070    5.13270   30.78960    5.13280    5.97310    4.69880    0.03390    0.00000    0.00270    0.03390    0.00000    1.00000    0.01080    0.53690
 4101.40000    2.53490    2.55100    2.64830    2.56280    8.50000    8.57810    0.06410   61.08920   56.09320    0.20210    6.01140    6.06070    7.40150    5.83490    2.57440    5.32510   30.76580    5.32530    5.83490    5.18640    0.04320    0.00000    0.00340    0.04320    0.00000    1.00000    0.00000    0.53470
 4101.90000    2.59030    2.59770    2.64740    2.57540    8.50000    8.60170    0.07450   58.42690   57.69370    0.19870    6.18000    5.95190    8.16600    4.87450    2.60110    3.85370   30.73240    3.85370    4.87450    3.86420    0.02790    0.00000    0.00460    0.02790    0.00000    1.00000    0.04620    0.50720
 4102.40000    2.54580    2.57830    2.64870    2.56250    8.50000    8.62500    0.06920   59.15730   55.61160    0.19040    6.25720    4.93680    7.89420    4.37150    2.59620    3.20910   30.73930    3.20920    4.37160    3.09450    0.03070    0.00000    0.00580    0.03070    0.00000    1.00000    0.04660    0.49840
 4102.90000    2.52960    2.56710    2.48110    2.57700    8.50000    8.57810    0.04950   59.53800   59.23330    0.18010    5.87300    6.55300    9.80090    4.60460    2.54170    2.94660   30.74820    2.94650    4.60450    3.02430    0.06180    0.00000    0.00700    0.06180    0.00000    1.00000    0.00000    0.51670
 4103.40000    2.55370    2.54180    2.36910    2.58800    8.50000    8.57810    0.02530   57.53360   56.14450    0.18520    5.71690    7.70810    8.42900    5.98100    2.48780    5.04250   30.75850    5.04230    5.98080    5.20410    0.06430    0.00000    0.01800    0.09270    0.00000    0.69340    0.00000    0.49850
 4103.90000    2.59170    2.53930    2.37340    2.58630    8.50000    8.57810    0.03380   54.34670   54.93180    0.19560    5.98480    8.46820    7.51670    7.83080    2.49620    7.63940   30.77090    7.63920    7.83060    8.06210    0.05300    0.00000    0.03900    0.08790    0.00000    0.60270    0.00000    0.45680
 4104.40000    2.58470    2.47680    2.33590    2.60330    8.50000    8.57810    0.03360   54.83990   59.85830    0.19670    6.02300   10.16330    6.86410   11.24080    2.47330   15.97250   30.75150   15.97320   11.24100   13.09440    0.04050    0.00000    0.03000    0.10100    0.00000    0.40150    0.00000    0.48120
 4104.90000    2.58920    2.50220    2.30740    2.57480    8.50000    8.57800    0.02820   56.34290   56.47150    0.20020    6.24710    9.30670    7.20140   10.00500    2.47250   11.96440   30.72390   11.96380   10.00480   11.77600    0.04580    0.00000    0.02580    0.10140    0.00000    0.45150    0.00000    0.48890
 4105.40000    2.59800    2.53750    2.35930    2.60390    8.50000    8.57810    0.02860   57.79130   54.09310    0.19590    6.19030    8.44590    7.70950    8.54810    2.52170    8.76080   30.72090    8.76110    8.54810    8.40060    0.04920    0.00000    0.01120    0.07340    0.00000    0.67000    0.00000    0.50410
 4105.90000    2.62880    2.59710    2.49800    2.59720    8.50000    8.57810    0.04090   58.44100   59.22050    0.20250    6.32490   10.43290    9.61800    6.64420    2.57780    4.98480   30.73390    4.98500    6.64440    4.64750    0.04130    0.00000    0.00630    0.04130    0.00000    1.00000    0.01750    0.50340
 4106.40000    2.58710    2.57890    2.64970    2.61340    8.50000    8.57810    0.05810   59.47650   60.69220    0.19240    5.91460    7.37980    8.57230    6.58940    2.59980    5.14300   30.74610    5.14300    6.58940    5.17360    0.02870    0.00000    0.00370    0.02870    0.00000    1.00000    0.03630    0.51770
 4106.90000    2.57350    2.51540    2.48920    2.57660    8.50000    8.57810    0.02690   58.98770   57.46170    0.19710    6.43670    6.39470    7.87010    7.85270    2.54260    6.52780   31.55260    6.52770    7.85280    6.38610    0.05390    0.00000    0.00660    0.06130    0.00000    0.87960    0.00000    0.51920
 4107.40000    2.62810    2.48980    2.32730    2.51330    8.50000    8.57810    0.05090   51.92690   55.88940    0.19240    5.98490   23.95460   11.58510    7.03450    2.47860    4.24470   31.51650    4.24370    7.03380    6.06560    0.06890    0.00000    0.04680    0.09790    0.00000    0.70380    0.00000    0.45700
 4107.90000    2.57450    2.49170    2.26820    2.38130    8.50000    8.57790    0.04620   50.83190   50.60700    0.17860    5.41240   23.65690    6.46620   16.39310    2.42920   44.20180   30.99470   44.20030   16.39260   43.35770    0.02990    0.00000    0.18360    0.16140    1.00000    0.19020    0.00000    0.44370
