~Version ---------------------------------------------------
VERS.   2.0 : CWLS log ASCII Standard -VERSION 2.0
WRAP.    NO : One line per depth step
DLM . SPACE : Column Data Section Delimiter
~Well ------------------------------------------------------
STRT.ft          145.90000 : START DEPTH
STOP.ft         3681.90000 : STOP DEPTH
STEP.ft            0.50000 : STEP
NULL.              -999.25 : NULL VALUE
COMP. Statoil Petroleum AS : COMPANY
WELL.           15/9-F-1 A : WELL
FLD .                VOLVE : FIELD
LOC .      Maersk Inspirer : LOCATION
PROV.                      : PROVINCE
CNTY.               Unused : COUNTY
STAT.                      : STATE
CTRY.                      : COUNTRY
SRVC.                      : SERVICE COMPANY
DATE.                      : DATE
UWI .                      : UNIQUE WELL ID
API .                      : API NUMBER
~Curve Information -----------------------------------------
DEPT     .ft        : 
ABDCQF01 .g/cm3     : 
ABDCQF02 .g/cm3     : 
ABDCQF03 .g/cm3     : 
ABDCQF04 .g/cm3     : 
BS       .inches    : 
CALI     .inches    : 
DRHO     .g/cm3     : 
DT       .us/ft     : 
DTS      .us/ft     : 
GR       .API       : 
NPHI     .v/v       : 
PEF      .b/elec    : 
RACEHM   .UNKNOWN   : 
RACELM   .UNKNOWN   : 
RHOB     .g/cm3     : 
ROP      .m/hr      : 
RPCEHM   .UNKNOWN   : 
RPCELM   .UNKNOWN   : 
RT       .ohm.m     : 
BVW      .V/V       : 
COAL_FLAG.unitless  : 
KLOGH    .mD        : 
PHIF     .V/V       : 
SAND_FLAG.unitless  : 
SW       .V/V       : 
VCARB    .V/V       : 
VSH      .V/V       : 
~Params ----------------------------------------------------
~Other -----------------------------------------------------
PETROPHYSICAL INTERPRETATION: INPUT

# --- LOG MNEMONICS AND UNITS ---
#Depth          ABDCQF01        ABDCQF02        ABDCQF03        ABDCQF04        BS              CALI            DRHO            DT              DTS             GR              NPHI            PEF             RACEHM          RACELM          RHOB            ROP             RPCEHM          RPCELM          RT
#M              g/cm3           g/cm3           g/cm3           g/cm3           inches          inches          g/cm3           us/ft           us/ft           API             v/v             b/elec          UNKNOWN         UNKNOWN         g/cm3           m/hr            UNKNOWN         UNKNOWN         ohm.m
~ASCII -----------------------------------------------------
# ...
 3018.90000    2.51430    2.53670    2.49880    2.50050    8.50000    8.57810    0.04930   69.67930  126.27260    7.00650    0.13040    7.63590    2.27220    2.22780    2.50980   25.93990    2.32400    2.28760    2.32400 -999.25000 -999.25000 -999.25000 -999.25000 -999.25000 -999.25000 -999.25000 -999.25000
 3019.40000    2.51270    2.50760    2.51330    2.48620    8.50000    8.57820    0.04900   69.74480  126.84690   11.66600    0.12310    7.39970    2.18930    2.22080    2.50240   25.94740    2.08740    2.14920    2.08740 -999.25000 -999.25000 -999.25000 -999.25000 -999.25000 -999.25000 -999.25000 -999.25000
 3019.90000    2.47380    2.49840    2.48660    2.48080    8.50000    8.57810    0.04730   70.25860  130.51600   15.50950    0.13140    7.57790    2.16240    2.19240    2.48250   27.13090    2.20730    2.19510    2.20730 -999.25000 -999.25000 -999.25000 -999.25000 -999.25000 -999.25000 -999.25000 -999.25000
 3020.40000    2.47830    2.48860    2.51020    2.49320    8.50000    8.57810    0.03970   70.60300  132.76120   12.15530    0.12590    7.44970    2.19830    2.18490    2.49370   28.18560    2.32140    2.24060    2.32140 -999.25000 -999.25000 -999.25000 -999.25000 -999.25000 -999.25000 -999.25000 -999.25000
 3020.90000    2.51300    2.50530    2.53170    2.52730    8.50000    8.57810    0.04090   70.61340  132.44810   10.69350    0.13170    7.52630    2.22230    2.18870    2.52070   27.74360    2.40450    2.28060    2.40450 -999.25000 -999.25000 -999.25000 -999.25000 -999.25000 -999.25000 -999.25000 -999.25000
 3021.40000    2.54000    2.56200    2.50960    2.53350    8.50000    8.57810    0.05200   70.86510  131.71140   10.26220    0.12620    7.68280    2.23500    2.20270    2.52930   26.09910    2.29240    2.24430    2.29240 -999.25000 -999.25000 -999.25000 -999.25000 -999.25000 -999.25000 -999.25000 -999.25000
 3021.90000    2.50230    2.51530    2.51650    2.53330    8.50000    8.57810    0.05130   71.51020  133.33730   10.62030    0.13520    7.72130    2.22180    2.21160    2.51610   24.69860    2.27550    2.24250    2.27550 -999.25000 -999.25000 -999.25000 -999.25000 -999.25000 -999.25000 -999.25000 -999.25000
 3022.40000    2.50390    2.51220    2.49710    2.49410    8.50000    8.57810    0.04260   73.01120  138.23040   15.23890    0.13390    7.48320    2.24250    2.21050    2.49930   21.92630    2.27190    2.24000    2.27190 -999.25000 -999.25000 -999.25000 -999.25000 -999.25000 -999.25000 -999.25000 -999.25000
 3022.90000    2.48340    2.51570    2.51710    2.51240    8.50000    8.57810    0.04580   73.75410  141.30890   20.22860    0.12870    7.60220    2.21980    2.22000    2.50940   26.22480    2.36130    2.28320    2.36130 -999.25000 -999.25000 -999.25000 -999.25000 -999.25000 -999.25000 -999.25000 -999.25000
 3023.40000    2.50360    2.54290    2.50810    2.51490    8.50000    8.57810    0.04280   73.07140  140.36750   23.68690    0.13380    7.42570    2.25410    2.23680    2.51470   33.27760    2.37090    2.28830    2.37090 -999.25000 -999.25000 -999.25000 -999.25000 -999.25000 -999.25000 -999.25000 -999.25000
 3023.90000    2.54410    2.55160    2.56000    2.54660    8.50000    8.57810    0.04950   72.64830  137.47290   14.75930    0.13610    7.48770    2.27710    2.25970    2.55200   30.79970    2.37140    2.30990    2.37140 -999.25000 -999.25000 -999.25000 -999.25000 -999.25000 -999.25000 -999.25000 -999.25000
 3024.40000    2.55750    2.55480    2.54770    2.55430    8.50000    8.62490    0.05070   72.15860  135.61830   15.71120    0.13150    7.38090    2.34100    2.29300    2.55000   36.70610    2.25690    2.27300    2.25690 -999.25000 -999.25000 -999.25000 -999.25000 -999.25000 -999.25000 -999.25000 -999.25000
 3024.90000    2.53110    2.52620    2.52600    2.52080    8.50000    8.62490    0.04570   71.34890  135.10330   15.68780    0.12030    7.41950    2.30370    2.30260    2.52230   39.22530    2.33440    2.30470    2.33440 -999.25000 -999.25000 -999.25000 -999.25000 -999.25000 -999.25000 -999.25000 -999.25000
 3025.40000    2.52050    2.52840    2.55440    2.53320    8.50000    8.60150    0.04730   70.93730  133.69520   12.28970    0.12210    7.26970    2.31480    2.29460    2.53520   37.86620    2.42510    2.34510    2.42510 -999.25000 -999.25000 -999.25000 -999.25000 -999.25000 -999.25000 -999.25000 -999.25000
 3025.90000    2.52720    2.52970    2.53320    2.52810    8.50000    8.62500    0.04510   71.15590  133.33340   12.47360    0.12310    7.28990    2.35560    2.32550    2.52710   37.10170    2.44620    2.36680    2.44620 -999.25000 -999.25000 -999.25000 -999.25000 -999.25000 -999.25000 -999.25000 -999.25000
 3026.40000    2.49930    2.52470    2.51600    2.50840    8.50000    8.60150    0.04160   71.32170  133.53360   13.07140    0.12080    7.29790    2.37350    2.36290    2.51090   36.68150    2.43560    2.38470    2.43560 -999.25000 -999.25000 -999.25000 -999.25000 -999.25000 -999.25000 -999.25000 -999.25000
 3026.90000    2.51060    2.52140    2.52400    2.51890    8.50000    8.57820    0.04320   70.85920  131.81760   13.70520    0.12420    7.35770    2.39970    2.40960    2.51650   33.28390    2.45880    2.41540    2.45880 -999.25000 -999.25000 -999.25000 -999.25000 -999.25000 -999.25000 -999.25000 -999.25000
 3027.40000    2.52420    2.52280    2.52940    2.53670    8.50000    8.57810    0.04630   70.38900  129.12530   13.01430    0.12120    7.50370    2.45040    2.48270    2.52550   19.16180    2.49830    2.47000    2.49830 -999.25000 -999.25000 -999.25000 -999.25000 -999.25000 -999.25000 -999.25000 -999.25000
 3027.90000    2.55620    2.53100    2.54320    2.53720    8.50000    8.57810    0.05320   69.81730  128.26880   11.94330    0.11870    7.40470    2.51320    2.54750    2.53960   14.71520    2.57890    2.53580    2.57890 -999.25000 -999.25000 -999.25000 -999.25000 -999.25000 -999.25000 -999.25000 -999.25000
 3028.40000    2.51980    2.53400    2.54540    2.52250    8.50000    8.57810    0.05200   69.36450  128.55390   11.66270    0.10820    7.41810    2.65360    2.63520    2.53280   18.90630    2.62920    2.61880    2.62920 -999.25000 -999.25000 -999.25000 -999.25000 -999.25000 -999.25000 -999.25000 -999.25000
 3028.90000    2.54210    2.54070    2.54050    2.53030    8.50000    8.57810    0.04760   68.97980  127.87510   12.08840    0.10440    7.41830    2.77530    2.72010    2.53520   20.73390    2.77140    2.74170    2.77140 -999.25000 -999.25000 -999.25000 -999.25000 -999.25000 -999.25000 -999.25000 -999.25000
 3029.40000    2.55220    2.58340    2.57470    2.55330    8.50000    8.57810    0.04960   68.43350  126.29400   14.07790    0.11300    7.65380    2.84310    2.81640    2.56530   19.51120    3.02440    2.90570    3.02440 -999.25000 -999.25000 -999.25000 -999.25000 -999.25000 -999.25000 -999.25000 -999.25000
 3029.90000    2.56290    2.56080    2.54440    2.55040    8.50000    8.57810    0.05310   68.06770  126.12310    9.86670    0.11330    7.44020    2.90230    2.91570    2.54970   21.06070    3.23660    3.05680    3.23660 -999.25000 -999.25000 -999.25000 -999.25000 -999.25000 -999.25000 -999.25000 -999.25000
 3030.40000    2.54070    2.54470    2.54860    2.55150    8.50000    8.57810    0.04980   68.47400  126.45530    9.80220    0.09940    7.59500    3.08900    3.05480    2.54260   23.32340    2.99350    3.01240    2.99350 -999.25000 -999.25000 -999.25000 -999.25000 -999.25000 -999.25000 -999.25000 -999.25000
 3030.90000    2.56890    2.58690    2.58390    2.57380    8.50000    8.57810    0.04390   68.97520  126.25860   15.65200    0.10160    7.49080    3.15650    3.15480    2.57710   24.86010    3.05570    3.10650    3.05570 -999.25000 -999.25000 -999.25000 -999.25000 -999.25000 -999.25000 -999.25000 -999.25000
 3031.40000    2.58050    2.58100    2.57350    2.57370    8.50000    8.57810    0.04910   68.51490  124.48700   18.25710    0.11070    7.31160    3.23110    3.21460    2.57310   26.88490    3.53900    3.37790    3.53900 -999.25000 -999.25000 -999.25000 -999.25000 -999.25000 -999.25000 -999.25000 -999.25000
