~Version ---------------------------------------------------
VERS.   2.0 : CWLS log ASCII Standard -VERSION 2.0
WRAP.    NO : One line per depth step
DLM . SPACE : Column Data Section Delimiter
~Well ------------------------------------------------------
STRT.ft       145.90000 : START DEPTH
STOP.ft      4093.90000 : STOP DEPTH
STEP.ft         0.50000 : STEP
NULL.           -999.25 : NULL VALUE
COMP. Statoil Petroleum : COMPANY
WELL.        15/9-F-1 C : WELL
FLD .             VOLVE : FIELD
LOC .   Maersk Inspirer : LOCATION
PROV.                   : PROVINCE
CNTY.                   : COUNTY
STAT.                   : STATE
CTRY.                   : COUNTRY
SRVC.                   : SERVICE COMPANY
DATE.                   : DATE
UWI .                   : UNIQUE WELL ID
API .                   : API NUMBER
~Curve Information -----------------------------------------
DEPT        .ft        : 
ABDCQF01    .g/cm3     : 
ABDCQF02    .g/cm3     : 
ABDCQF03    .g/cm3     : 
ABDCQF04    .g/cm3     : 
BS          .inches    : 
CALI        .inches    : 
DRHO        .g/cm3     : 
GR          .API       : 
NBGRCFM     .API       : 
NPHI        .v/v       : 
PEF         .b/elec    : 
RACEHM      .ohm.m     : 
RACELM      .ohm.m     : 
RD          .ohm.m     : 
RHOB        .g/cm3     : 
RM          .ohm.m     : 
ROP         .m/hr      : 
RPCEHM      .ohm.m     : 
RPCELM      .ohm.m     : 
RT          .ohm.m     : 
BADDATA_FLAG.unitless  : 
BVW         .v/v       : 
COAL_FLAG   .unitless  : 
KLOGH       .mD        : 
PHIF        .v/v       : 
SAND_FLAG   .unitless  : 
SW          .v/v       : 
VCARB       .v/v       : 
VSH         .v/v       : 
~Params ----------------------------------------------------
~Other -----------------------------------------------------
PETROPHYSICAL INTERPRETATION: INPUT

# --- LOG MNEMONICS AND UNITS ---
#Depth          ABDCQF01        ABDCQF02        ABDCQF03        ABDCQF04        BS              CALI            DRHO            GR              NBGRCFM         NPHI            PEF             RACEHM          RACELM          RD              RHOB            RM              ROP             RPCEHM          RPCELM          RT
#M              g/cm3           g/cm3           g/cm3           g/cm3           inches          inches          g/cm3           API             API             v/v             b/elec          ohm.m           ohm.m           ohm.m           g/cm3           ohm.m           m/hr            ohm.m           ohm.m           ohm.m
~ASCII -----------------------------------------------------
# ...
 3333.40000    2.46650    2.47620    2.48160    2.47630    8.50000    8.63830    0.04790   62.03350   68.46190    0.23590    6.18870    1.50330    1.50520    1.58780    2.47380    1.79540   22.48520    1.79530    1.58780    1.79540    0.00000    0.10020    0.00000    0.02640    0.10070    0.00000    0.99490    0.00000    0.48710
 3333.90000    2.45370    2.49350    2.49740    2.51070    8.50000    8.60570    0.05390   62.19120   70.39740    0.22810    6.31940    1.48810    1.47520    1.61240    2.48920    1.92690   22.65440    1.92690    1.61240    1.92690    0.00000    0.09190    0.00000    0.02190    0.09190    0.00000    1.00000    0.00000    0.48840
 3334.40000    2.51560    2.50870    2.52160    2.48200    8.50000    8.60570    0.06190   73.43900   78.45130    0.23620    6.50220    1.52800    1.44720    1.65020    2.50520    2.03040   23.25660    2.03030    1.65020    2.03040    0.00000    0.08270    0.00000    0.00230    0.08270    0.00000    1.00000    0.00000    0.58790
 3334.90000    2.53640    2.48190    2.50190    2.49730    8.50000    8.55690    0.05630   74.40120   81.65870    0.25110    6.25370    1.61540    1.42860    1.80460    2.49850    2.58640   23.59020    2.58630    1.80450    2.58640    0.00000    0.08660    0.00000    0.00210    0.08660    0.00000    1.00000    0.00000    0.59650
 3335.40000    2.47240    2.49770    2.47130    2.46630    8.50000    8.55700    0.05150   81.42040   82.06630    0.25200    6.08660    1.67130    1.42460    1.81330    2.47340    2.56000   23.90990    2.56010    1.81340    2.56000    0.00000    0.09110    0.00000    0.00100    0.10090    0.00000    0.90290    0.00000    0.65850
 3335.90000    2.44950    2.47440    2.44960    2.48790    8.50000    8.55690    0.04400   85.49510   90.12620    0.25000    6.17010    1.59690    1.42030    1.67370    2.46550    2.08930   23.90410    2.08940    1.67370    2.08930    0.00000    0.09970    0.00000    0.00100    0.10480    0.00000    0.95090    0.00000    0.68610
 3336.40000    2.45690    2.47430    2.42190    2.50780    8.50000    8.55690    0.04750   73.95180   83.21010    0.25810    6.06450    1.59150    1.42210    1.63820    2.46300    1.94400   23.87920    1.94400    1.63820    1.94400    0.00000    0.10130    0.00000    0.00330    0.10690    0.00000    0.94760    0.00000    0.59250
 3336.90000    2.46140    2.50600    2.41450    2.48460    8.50000    8.60570    0.04720   70.26190   80.52130    0.26160    5.97980    1.62180    1.46220    1.64240    2.46130    1.91960   23.99060    1.91960    1.64240    1.91960    0.00000    0.10090    0.00000    0.00670    0.10780    0.00000    0.93600    0.00000    0.55980
 3337.40000    2.45690    2.49500    2.46210    2.50060    8.50000    8.55690    0.04780   75.58860  127.75230    0.26000    6.01530    1.65150    1.55410    1.65050    2.47780    1.86780   24.45920    1.86780    1.65050    1.86780    0.00000    0.09840    0.00000    0.00210    0.09840    0.00000    1.00000    0.00000    0.60710
 3337.90000    2.45170    2.47650    2.49940    2.50220    8.50000    8.60580    0.04950   72.66390   77.66230    0.25520    6.12120    1.75480    1.79390    1.72700    2.48160    1.79450   24.79400    1.79450    1.72700    1.79450    0.00000    0.09620    0.00000    0.00350    0.09620    0.00000    1.00000    0.00000    0.58110
 3338.40000    2.43900    2.50560    2.49410    2.48690    8.50000    8.63820    0.04190   71.14750   74.53320    0.23940    6.62420    2.25300    2.32700    2.06010    2.47990    1.97250   24.99720    1.97240    2.06000    1.97250    0.00000    0.09720    0.00000    0.00470    0.09720    0.00000    1.00000    0.00000    0.56770
 3338.90000    2.46340    2.51010    2.58000    2.52110    8.50000    8.60560    0.04460   65.26870   81.10680    0.22640    6.64670    3.82100    2.85140    3.27820    2.52240    3.44220   24.98330    3.44170    3.27790    3.44220    0.00000    0.07290    0.00000    0.00870    0.07290    0.00000    1.00000    0.00000    0.51570
 3339.40000    2.58800    2.53230    2.62980    2.55660    8.50000    8.51620    0.03190   45.42980   49.73750    0.16580    6.50700    6.29020    3.34980    9.68260    2.58070   29.41220   24.81190   29.41140    9.68210   29.41220    0.00000    0.02650    0.00000    0.18010    0.04950    0.00000    0.53440    0.14780    0.34020
 3339.90000    2.72440    2.70460    2.64560    2.70760    8.50000    8.52430    0.04930   34.22530   39.06140    0.06080    6.98450   10.84890    4.32070   14.33720    2.68520   36.75690   20.39960   36.75560   14.33680   36.75690    0.00000    0.02240    0.00000    1.59400    0.04290    0.00000    0.52180    0.30380    0.24090
 3340.40000    2.73930    2.70840    2.64320    2.71240    8.50000    8.55690    0.05460   38.82240   39.69480    0.05840    6.88820   12.27460    5.12270   16.69060    2.69250   31.58580   15.42360   31.58920   16.69150   31.58580    0.00000    0.02420    0.00000    0.67340    0.04290    0.00000    0.56450    0.24530    0.28160
 3340.90000    2.63000    2.52830    2.43380    2.50730    8.50000    8.47550    0.07090   44.05730   43.31110    0.12790    6.02440   10.66120    5.84600   12.69980    2.49610   16.31320   16.90660   16.31350   12.70000   16.31320    0.00000    0.03980    0.00000    0.91140    0.11390    1.00000    0.34930    0.00000    0.32790
 3341.40000    2.44750    2.35730    2.35710    2.35300    8.50000    8.47550    0.04870   48.02440   51.45530    0.17920    5.95220    9.89090    6.01930   11.16600    2.36620   13.71780   21.18900   13.71810   11.16620   13.71780    0.00000    0.04730    0.00000    1.46020    0.17900    1.00000    0.26430    0.00000    0.36310
 3341.90000    2.34960    2.27730    2.29730    2.29810    8.50000    8.47550    0.04000   45.57720   50.71560    0.19730    5.77950    8.59980    5.88600    8.93880    2.30070   10.03750   23.47640   10.03780    8.93890   10.03750    0.00000    0.05520    0.00000    3.95210    0.20870    1.00000    0.26460    0.00000    0.34140
 3342.40000    2.35390    2.29610    2.29360    2.32330    8.50000    8.47550    0.03880   45.46850   46.67580    0.19340    5.89090    8.68690    5.48430    8.91680    2.31380   10.96010   25.58720   10.95960    8.91650   10.96010    0.00000    0.05290    0.00000    3.60820    0.20260    1.00000    0.26130    0.00000    0.34040
 3342.90000    2.33110    2.31230    2.29030    2.30120    8.50000    8.47560    0.03360   45.43130   51.08340    0.20170    5.74770   10.71450    5.15140   10.01300    2.30460   13.18060   25.87640   13.17980   10.01280   13.18060    0.00000    0.04940    0.00000    4.09220    0.20910    1.00000    0.23640    0.00000    0.34010
 3343.40000    2.27250    2.30690    2.28350    2.26140    8.50000    8.52430    0.04000   47.50730   49.29830    0.21840    5.69050   11.98200    4.47890   11.68680    2.27850   23.30340   26.01370   23.30280   11.68710   23.30340    0.00000    0.03990    0.00000    3.72820    0.22470    1.00000    0.17760    0.00000    0.35850
 3343.90000    2.22220    2.26930    2.26930    2.25120    8.50000    8.52430    0.03010   48.31890   49.92380    0.22110    5.56240    8.74960    3.95970    9.78200    2.25520   23.91250   25.99910   23.91320    9.78220   23.91250    0.00000    0.03990    0.00000    3.79730    0.23380    1.00000    0.17050    0.00000    0.36570
 3344.40000    2.24370    2.26930    2.25850    2.25560    8.50000    8.47550    0.03360   46.83670   49.34170    0.23450    5.56920    5.37260    3.35760    6.61490    2.25700   13.94590   26.05380   13.94730    6.61540   13.94590    0.00000    0.04980    0.00000    5.44000    0.23850    1.00000    0.20860    0.00000    0.35250
 3344.90000    2.26760    2.27140    2.25760    2.27410    8.50000    8.49980    0.03440   45.66570   48.90860    0.23680    5.61430    3.20830    2.83590    2.85120    2.26710    3.10150   26.36110    3.10170    2.85120    3.10150    0.00000    0.09150    0.00000    6.43420    0.23600    1.00000    0.38780    0.00000    0.34220
 3345.40000    2.27430    2.29100    2.26330    2.28370    8.50000    8.47560    0.02990   50.41040   55.18970    0.22440    5.78410    1.84950    2.42610    1.67730    2.27690    1.35330   26.62170    1.35340    1.67740    1.35330    0.00000    0.12850    0.00000    2.31160    0.22770    1.00000    0.56420    0.00000    0.38420
