~Version ---------------------------------------------------
VERS.   2.0 : CWLS log ASCII Standard -VERSION 2.0
WRAP.    NO : One line per depth step
DLM . SPACE : Column Data Section Delimiter
~Well ------------------------------------------------------
STRT.ft          188.50000 : START DEPTH
STOP.ft         4770.50000 : STOP DEPTH
STEP.ft            0.50000 : STEP
NULL.              -999.25 : NULL VALUE
COMP. Statoil Petroleum AS : COMPANY
WELL.          15/9-F-11 B : WELL
FLD .                VOLVE : FIELD
LOC .      Maersk Inspirer : LOCATION
PROV.                      : PROVINCE
CNTY.                      : COUNTY
STAT.                      : STATE
CTRY.                      : COUNTRY
SRVC.                      : SERVICE COMPANY
DATE.                      : DATE
UWI .                      : UNIQUE WELL ID
API .                      : API NUMBER
~Curve Information -----------------------------------------
DEPT     .ft        : 
ABDCQF01 .g/cm3     : 
ABDCQF02 .g/cm3     : 
ABDCQF03 .g/cm3     : 
ABDCQF04 .g/cm3     : 
BS       .inches    : 
CALI     .inches    : 
DRHO     .g/cm3     : 
GR       .API       : 
NPHI     .v/v       : 
PEF      .b/elec    : 
RACEHM   .ohm.m     : 
RACELM   .ohm.m     : 
RD       .ohm.m     : 
RHOB     .g/cm3     : 
RM       .ohm.m     : 
ROP      .m/hr      : 
RPCEHM   .ohm.m     : 
RPCELM   .ohm.m     : 
RT       .ohm.m     : 
BVW      .v/v       : 
CARB_FLAG.unitless  : 
COAL_FLAG.unitless  : 
KLOGH    .mD        : 
PHIF     .v/v       : 
SAND_FLAG.UNKNOWN   : 
SW       .v/v       : 
VSH      .v/v       : 
~Params ----------------------------------------------------
~Other -----------------------------------------------------
PETROPHYSICAL_INTERPRETATION: INPUT

# --- LOG MNEMONICS AND UNITS ---
#Depth     ABDCQF01   ABDCQF02   ABDCQF03   ABDCQF04   BS         CALI       DRHO       GR         NPHI       PEF        RACEHM     RACELM     RD         RHOB       RM         ROP        RPCEHM     RPCELM     RT
#M         g/cm3      g/cm3      g/cm3      g/cm3      inches     inches     g/cm3      API        v/v        b/elec     ohm.m      ohm.m      ohm.m      g/cm3      ohm.m      m/hr       ohm.m      ohm.m      ohm.m
~ASCII -----------------------------------------------------
# ...
 4023.50000    2.17100    2.16900    2.16000    2.17400    8.50000    8.67200    0.04700   21.12000    0.17600    4.75000   45.91100   50.65000   50.65200    2.16400   55.00300   29.94400   55.00300   50.65300   55.00300    0.02800    0.00000    0.00000  613.60500    0.24700    1.00000    0.11200    0.13200
 4024.00000    2.16000    2.15900    2.14400    2.14900    8.50000    8.67200    0.03800   23.08600    0.18600    4.58300   40.83300   47.19200   46.22700    2.15100   52.48200   29.91200   52.48300   46.22600   52.48200    0.02800    0.00000    0.00000  513.83700    0.25600    1.00000    0.11100    0.14800
 4024.50000    2.14700    2.16000    2.16800    2.16000    8.50000    8.67200    0.04200   23.04200    0.19200    4.65800   37.26200   37.39800   42.65600    2.15900   48.79200   29.96400   48.79200   42.65700   48.79200    0.02900    0.00000    0.00000  512.62200    0.25500    1.00000    0.11500    0.14800
 4025.00000    2.13600    2.18200    2.19600    2.16400    8.50000    8.67200    0.04600   25.15900    0.19400    4.73800   34.68300   32.32200   40.07800    2.17200   47.67800   29.78100   47.67800   40.07900   47.67800    0.02900    0.00000    0.00000  333.99800    0.25100    1.00000    0.11700    0.16500
 4025.50000    2.14900    2.18100    2.24200    2.17000    8.50000    8.65600    0.04000   24.62300    0.18900    5.08300   31.70400   30.78600   38.41000    2.19700   46.12600   29.90000   46.12500   38.41100   46.12600    0.03000    0.00000    0.00000  303.18400    0.24100    1.00000    0.12300    0.16100
 4026.00000    2.14600    2.25500    2.28000    2.23900    8.50000    8.67200    0.03800   25.21900    0.19900    5.42300   31.84300   27.73300   38.41500    2.24100   53.49700   29.95200   53.49400   38.41500   53.49700    0.02800    0.00000    0.00000  222.22400    0.23000    1.00000    0.12000    0.16600
 4026.50000    2.20500    2.30700    2.28200    2.29100    8.50000    8.67200    0.04700   30.30400    0.20400    5.82800   36.91100   26.12500   44.05700    2.27500   69.93400   29.96100   69.93600   44.05800   69.93400    0.02500    0.00000    0.00000   78.65000    0.22000    1.00000    0.11200    0.20700
 4027.00000    2.28300    2.31900    2.33300    2.30100    8.50000    8.64100    0.04400   32.24300    0.22000    6.03500   67.72700   27.22400   56.27500    2.31200  139.61000   29.88400  139.61800   56.27600  139.61000    0.02400    0.00000    0.00000   50.51100    0.21400    1.00000    0.11200    0.22300
 4027.50000    2.32700    2.32800    2.41900    2.31900    8.50000    8.67200    0.04200   40.35300    0.20600    5.85600 6381.09900   31.29100  135.45200    2.35900 1072.76400   29.93900 1072.81600  135.44100 1072.76400    0.02300    0.00000    0.00000    8.50000    0.19200    1.00000    0.12200    0.29000
 4028.00000    2.31900    2.39800    2.58700    2.35700    8.50000    8.65600    0.03600   39.12300    0.21100    5.99400 6381.09900   30.67400  194.30500    2.40300 62290.77000   29.99200 62290.77000  194.32600 62290.77000    0.02500    0.00000    0.00000    4.09500    0.14100    1.00000    0.18000    0.28000
 4028.50000    2.30800    2.50200    2.69200    2.42400    8.50000    8.67200    0.02700   41.10100    0.22500    6.53400   54.21700   55.96900   25.96700    2.49300   27.07400   29.95900   27.08600   25.97800   27.07400    0.03000    0.00000    0.00000    1.13800    0.09000    0.00000    0.33900    0.29600
 4029.00000    2.41500    2.50100    2.39500    2.41800    8.50000    8.67200    0.05600   43.51000    0.21100    5.89400   17.49900 1980.91000    4.71900    2.44200    1.56600   29.92700    1.56600    4.71800    1.56600    0.10400    0.00000    0.00000    1.28900    0.11900    1.00000    0.87700    0.31600
 4029.50000    2.45900    2.38800    2.20400    2.33900    8.50000    8.67200    0.00400   39.48300    0.22400    5.92500 6366.61600 1976.43800    5.06100    2.36700  177.84800   29.97900  143.63200    5.04400  177.84800    0.10500    0.00000    0.00000    5.64200    0.19700    1.00000    0.53000    0.28300
 4030.00000    2.43500    2.38600    2.18300    2.34100    8.50000    8.67200    0.03100   37.48800    0.20900    5.28000 6373.89700   14.91700   44.24100    2.33300 3169.50700   29.94700 3171.20100   44.24700 3169.50700    0.04500    0.00000    0.00000   16.74500    0.20300    1.00000    0.22300    0.26600
 4030.50000    2.31800    2.25700    2.18000    2.28600    8.50000    8.62500    0.05100   35.99900    0.21300    4.86800   39.78700   16.86500   24.24700    2.24600   39.84900   29.99900   39.84900   24.24700   39.84900    0.03100    0.00000    0.00000   38.05400    0.23300    1.00000    0.13300    0.25300
 4031.00000    2.29000    2.21100    2.17000    2.20500    8.50000    8.67200    0.05500   36.37000    0.20500    4.56800   64.28700   14.86000   27.88400    2.21200   87.05900   29.97200   87.04500   27.88100   87.05900    0.02300    0.00000    0.00000   42.01100    0.24200    1.00000    0.09600    0.25700
 4031.50000    2.21000    2.19100    2.17200    2.18700    8.50000    8.67200    0.04800   33.66000    0.21300    4.52800 6381.09900   13.94500   38.08300    2.18700  168.56900   29.94200  168.56900   38.08500  168.56900    0.01800    0.00000    0.00000   83.12200    0.25400    1.00000    0.07000    0.23500
 4032.00000    2.18300    2.18600    2.15500    2.18600    8.50000    8.67200    0.04200   32.75300    0.21200    4.50500   27.41400   14.16500   28.96900    2.17200   60.60300   29.91000   60.60500   28.97100   60.60300    0.02700    0.00000    0.00000  105.71400    0.25900    1.00000    0.10500    0.22800
 4032.50000    2.16900    2.21100    2.15200    2.20600    8.50000    8.62500    0.02400   30.49900    0.21400    4.75200   28.98700   14.61000   25.26400    2.18500   60.95600   29.96200   60.94600   25.26300   60.95600    0.02700    0.00000    0.00000  144.43000    0.25500    1.00000    0.10600    0.20900
 4033.00000    2.39600    2.19000    2.16300    2.19100    8.50000    8.64900    0.06500   30.97700    0.20400    4.48700   18.65800   13.37800   26.42100    2.22900   89.37900   29.93000   89.38800   26.42200   89.37900    0.02300    0.00000    0.00000   93.07100    0.23600    1.00000    0.09600    0.21300
 4033.50000    2.20400    2.16800    2.14900    2.16100    8.50000    8.67200    0.05100   28.23500    0.20200    4.46200   17.09200   13.55400   25.04200    2.16800   64.08300   29.89800   64.03900   25.04100   64.08300    0.02600    0.00000    0.00000  215.38400    0.25600    1.00000    0.10300    0.19100
 4034.00000    2.15200    2.15700    2.14500    2.16100    8.50000    8.67200    0.04200   27.52700    0.20400    4.42100   17.30700   13.15200   24.88900    2.14800   83.75400   29.95000   83.76400   24.88900   83.75400    0.02400    0.00000    0.00000  280.73500    0.26400    1.00000    0.09000    0.18500
 4034.50000    2.16900    2.15200    2.13900    2.13200    8.50000    8.62500    0.04400   24.95500    0.20300    4.40400   16.40500   13.69700   23.44000    2.14600   50.22300   29.91800   50.22400   23.44100   50.22300    0.02900    0.00000    0.00000  436.82700    0.26400    1.00000    0.11100    0.16400
 4035.00000    2.15100    2.13000    2.14200    2.13400    8.50000    8.67200    0.04400   27.49000    0.20000    4.36400   16.15500   14.35900   21.67800    2.13700   40.71100   29.88500   40.71200   21.67800   40.71100    0.03200    0.00000    0.00000  293.80300    0.26600    1.00000    0.12000    0.18400
 4035.50000    2.14000    2.14600    2.12500    2.13800    8.50000    8.67200    0.03800   26.21900    0.20300    4.28100   15.39900   14.32400   21.12300    2.13300   33.74500   29.96900   33.74500   21.12400   33.74500    0.03500    0.00000    0.00000  382.21000    0.26800    1.00000    0.12900    0.17400
 4036.00000    2.14800    2.13400    2.13200    2.13500    8.50000    8.67200    0.03700   26.83500    0.19600    4.24600   15.15800   15.30400   20.85600    2.13400   32.93400   29.97600   32.93400   20.85600   32.93400    0.03500    0.00000    0.00000  324.85300    0.26500    1.00000    0.13100    0.17900
