~Version ---------------------------------------------------
VERS.   2.0 : CWLS log ASCII Standard -VERSION 2.0
WRAP.    NO : One line per depth step
DLM . SPACE : Column Data Section Delimiter
~Well ------------------------------------------------------
STRT.ft          145.90000 : START DEPTH
STOP.ft         4684.90000 : STOP DEPTH
STEP.ft            0.50000 : STEP
NULL.              -999.25 : NULL VALUE
COMP. STATOIL PETROLEUM AS : COMPANY
WELL.          15/9-F-15 D : WELL
FLD .                VOLVE : FIELD
LOC .                      : LOCATION
PROV.                      : PROVINCE
CNTY.      MAERSK INSPIRER : COUNTY
STAT.                      : STATE
CTRY.                      : COUNTRY
SRVC.                      : SERVICE COMPANY
DATE.                      : DATE
UWI .                      : UNIQUE WELL ID
API .                      : API NUMBER
~Curve Information -----------------------------------------
DEPT     .ft        : 
ABDCQF01 .g/cm3     : 
ABDCQF02 .g/cm3     : 
ABDCQF03 .g/cm3     : 
ABDCQF04 .g/cm3     : 
BS       .inches    : 
CALI     .inches    : 
DRHO     .g/cm3     : 
GR       .API       : 
NBGRCFM  .API       : 
NPHI     .v/v       : 
PEF      .b/elec    : 
RACEHM   .ohm.m     : 
RACELM   .ohm.m     : 
RD       .ohm.m     : 
RHOB     .g/cm3     : 
RM       .ohm.m     : 
ROP      .m/hr      : 
RPCEHM   .ohm.m     : 
RPCELM   .ohm.m     : 
RT       .ohm.m     : 
BVW      .v/v       : 
COAL_FLAG.unitless  : 
KLOGH    .mD        : 
PHIF     .v/v       : 
SAND_FLAG.unitless  : 
SW       .v/v       : 
VCARB    .v/v       : 
VSH      .v/v       : 
~Params ----------------------------------------------------
~Other -----------------------------------------------------
PETROPHYSICAL INTERPRETATION: INPUT

# --- LOG MNEMONICS AND UNITS ---
#Depth          ABDCQF01        ABDCQF02        ABDCQF03        ABDCQF04        BS              CALI            DRHO            GR              NBGRCFM         NPHI            PEF             RACEHM          RACELM          RD              RHOB            RM              ROP             RPCEHM          RPCELM          RT
#M              g/cm3           g/cm3           g/cm3           g/cm3           inches          inches          g/cm3           API             API             v/v             b/elec          ohm.m           ohm.m           ohm.m           g/cm3           ohm.m           m/hr            ohm.m           ohm.m           ohm.m
~ASCII -----------------------------------------------------
# ...
 4470.90000    2.42290    2.35370    2.36580    2.37740    8.50000    8.62500    0.05770   48.97810   47.69280    0.18630    4.99270    2.95390    3.78450    2.70930    2.36920    2.18910   31.11880    2.18910    2.70930    2.21950    0.09990    0.00000    0.45810    0.18080    1.00000    0.55240    0.00000    0.42060
 4471.40000    2.49470    2.34350    2.28660    2.42830    8.50000    8.70280    0.05280   49.70270   51.12160    0.19300    5.14920    3.34310    3.95060    3.03440    2.36000    2.64920   28.06580    2.64920    3.03440    2.62600    0.09310    0.00000    0.43190    0.18660    1.00000    0.49910    0.00000    0.42860
 4471.90000    2.54760    2.35770    2.30780    2.48110    8.50000    8.57810    0.04450   48.51920   50.47680    0.20940    5.27720    3.71450    4.13530    3.33740    2.38740    3.01810   17.55510    3.01810    3.33740    3.06350    0.08770    0.00000    0.57390    0.18380    1.00000    0.47730    0.00000    0.41240
 4472.40000    2.55900    2.39330    2.31800    2.51270    8.50000    8.57810    0.04180   54.09040   54.16580    0.20250    5.42880    3.83150    4.24030    3.67020    2.41230    3.49950   12.96620    3.49950    3.67020    3.49320    0.07870    0.00000    0.09580    0.13590    1.00000    0.57910    0.00000    0.45620
 4472.90000    2.43300    2.49290    2.42280    2.50270    8.50000    8.62510    0.03480   56.93740   56.28340    0.19440    5.65430    3.89600    4.37160    3.46850    2.45380    3.01310   10.53230    3.01310    3.46850    3.02020    0.08190    0.00000    0.02070    0.11210    0.00000    0.73040    0.00000    0.50890
 4473.40000    2.32230    2.44780    2.52510    2.39080    8.50000    8.62500    0.05920   56.95190   60.70290    0.21360    5.27770    3.82460    4.25030    3.83410    2.41290    3.89400   11.29420    3.89380    3.83400    3.88980    0.07590    0.00000    0.04950    0.13540    1.00000    0.56080    0.00000    0.48760
 4473.90000    2.26650    2.38810    2.40300    2.30620    8.50000    8.62500    0.05840   57.24390   57.98600    0.19350    4.71940    4.40430    4.17740    4.15040    2.33540    4.49890   17.27780    4.49880    4.15040    4.57300    0.07690    0.00000    0.10960    0.19520    0.00000    0.39400    0.00000    0.50240
 4474.40000    2.26980    2.26980    2.27740    2.24150    8.50000    8.56240    0.05130   42.97020   48.82870    0.18720    4.39070    4.64590    4.06210    5.22400    2.26850    6.94860   25.77200    6.94860    5.22390    6.82600    0.06390    0.00000    2.39630    0.21560    1.00000    0.29640    0.00000    0.37170
 4474.90000    2.25600    2.24790    2.22600    2.24880    8.50000    8.54690    0.03830   32.22290   36.56880    0.18920    4.28110    5.09110    4.13780    5.89030    2.23940    8.09440   31.12140    8.09450    5.89030    8.05310    0.05930    0.00000   31.76120    0.22650    1.00000    0.26210    0.00000    0.25660
 4475.40000    2.26060    2.25700    2.25340    2.26320    8.50000    8.54690    0.04080   28.21290   27.71270    0.17770    4.31580    5.34250    4.33860    5.97060    2.25600    7.53420   31.10260    7.53420    5.97060    7.51440    0.06010    0.00000   55.41370    0.21620    1.00000    0.27780    0.00000    0.22060
 4475.90000    2.28180    2.28040    2.27860    2.27270    8.50000    8.54690    0.04170   25.68480   28.41240    0.18080    4.33030    5.63830    4.55500    6.08970    2.27410    7.16310   31.16410    7.16310    6.08970    7.14670    0.06070    0.00000   87.07400    0.21120    1.00000    0.28730    0.00000    0.19440
 4476.40000    2.30970    2.29360    2.27190    2.28820    8.50000    8.54690    0.04630   23.62170   27.97360    0.15900    4.35030    5.96520    4.81800    6.50270    2.28670    7.47180   31.13230    7.47180    6.50260    7.58400    0.05860    0.00000   87.21560    0.19820    1.00000    0.29590    0.00000    0.18270
 4476.90000    2.29080    2.28540    2.26450    2.27810    8.50000    8.54690    0.04470   23.31260   29.08580    0.16490    4.41110    6.62120    5.06910    7.35020    2.27580    8.79340   31.17410    8.79330    7.35020    8.80040    0.05520    0.00000  115.87400    0.20430    1.00000    0.27010    0.00000    0.17450
 4477.40000    2.29000    2.27680    2.28530    2.30350    8.50000    8.54690    0.04570   24.56860   23.65510    0.16340    4.29910    7.39260    5.30610    8.29250    2.28540   10.13140   31.14550   10.13120    8.29240   10.30010    0.05200    0.00000   83.58840    0.20040    1.00000    0.25930    0.00000    0.18680
 4477.90000    2.27770    2.28050    2.27950    2.28680    8.50000    8.54690    0.04190   23.12510   24.64810    0.17050    4.25940    8.24700    5.71110    9.12050    2.27960   10.81810   31.12920   10.81810    9.12050   10.82820    0.05070    0.00000  124.51380    0.20520    1.00000    0.24710    0.00000    0.17180
 4478.40000    2.26720    2.29260    2.28930    2.26840    8.50000    8.54690    0.04940   24.06220   22.93980    0.17720    4.32570    8.57440    5.94750    9.43250    2.28170   10.98300   31.14750   10.98290    9.43250   11.02640    0.05060    0.00000  103.00280    0.20720    1.00000    0.24430    0.00000    0.18270
 4478.90000    2.26190    2.27890    2.27940    2.23160    8.50000    8.54690    0.04910   24.00260   22.85480    0.17660    4.41750    9.01190    6.17730    9.85230    2.26140   11.27480   31.16330   11.27480    9.85230   11.29120    0.05040    0.00000  133.30130    0.21390    1.00000    0.23560    0.00000    0.17620
 4479.40000    2.28290    2.27500    2.25730    2.25600    8.50000    8.54690    0.04130   22.82640   27.16730    0.17840    4.29020    9.25850    6.35970   10.27870    2.26300   11.66330   31.17630   11.66320   10.27870   11.69130    0.04960    0.00000  150.55470    0.21400    1.00000    0.23200    0.00000    0.17050
 4479.90000    2.29360    2.29940    2.26600    2.27450    8.50000    8.54690    0.04000   22.67060   25.25690    0.17170    4.32970    9.40940    6.48630   10.55480    2.27500   11.96400   31.17110   11.96400   10.55480   11.93850    0.04870    0.00000  141.36990    0.20730    1.00000    0.23520    0.00000    0.16750
 4480.40000    2.29130    2.28970    2.29200    2.28890    8.50000    8.54690    0.04290   23.20700   22.80650    0.16640    4.41530    9.44750    6.48450   10.58830    2.28740   12.02570   31.14380   12.02570   10.58830   12.03310    0.04830    0.00000  111.70840    0.20090    1.00000    0.24060    0.00000    0.17320
 4480.90000    2.29220    2.30050    2.29000    2.29220    8.50000    8.54690    0.04420   21.63240   23.02040    0.17000    4.49140    9.27340    6.37890   10.37390    2.29160   12.01520   31.12530   12.01520   10.37390   12.00820    0.04820    0.00000  148.73830    0.20090    1.00000    0.24000    0.00000    0.15940
 4481.40000    2.29200    2.29860    2.29650    2.30190    8.50000    8.54690    0.04440   22.36680   23.51010    0.16380    4.42940    8.65510    6.05380    9.96970    2.29760   12.05320   31.14180   12.05320    9.96980   12.02090    0.04800    0.00000  113.57870    0.19630    1.00000    0.24440    0.00000    0.16840
 4481.90000    2.30220    2.30860    2.30470    2.29430    8.50000    8.54690    0.04350   21.50750   22.98150    0.16920    4.49990    8.02700    5.74610    9.35130    2.29720   11.57740   31.13620   11.57740    9.35140   11.52460    0.04870    0.00000  168.48900    0.19860    1.00000    0.24540    0.00000    0.15140
 4482.40000    2.31290    2.29310    2.29210    2.30950    8.50000    8.54690    0.04180   22.89310   24.75200    0.16100    4.35380    7.60320    5.50970    8.84600    2.30030   10.97530   31.26470   10.97540    8.84610   10.91290    0.04980    0.00000  105.16380    0.19430    1.00000    0.25610    0.00000    0.17030
 4482.90000    2.30090    2.30220    2.29340    2.31170    8.50000    8.54690    0.04160   23.79630   21.23440    0.16740    4.41290    7.01200    5.31580    8.21970    2.29960    9.97270   30.57070    9.97280    8.21980    9.81040    0.05200    0.00000   93.69520    0.19710    1.00000    0.26380    0.00000    0.17830
