~Version ---------------------------------------------------
VERS.   2.0 : CWLS log ASCII Standard -VERSION 2.0
WRAP.    NO : One line per depth step
DLM . SPACE : Column Data Section Delimiter
~Well ------------------------------------------------------
STRT.ft  239.87760 : START DEPTH
STOP.ft 4186.87760 : STOP DEPTH
STEP.ft    0.50000 : STEP
NULL.      -999.25 : NULL VALUE
COMP. STATOILHYDRO : COMPANY
WELL.    15/9-F-12 : WELL
FLD .        VOLVE : FIELD
LOC .      UNKNOWN : LOCATION
PROV.              : PROVINCE
CNTY.      UNKNOWN : COUNTY
STAT.      UNKNOWN : STATE
CTRY.       Norway : COUNTRY
SRVC.      UNKNOWN : SERVICE COMPANY
DATE.      UNKNOWN : DATE
UWI . NO 15/9-F-12 : UNIQUE WELL ID
API .              : API NUMBER
~Curve Information -----------------------------------------
DEPT     .ft           : 
CARB_FLAG.UNKNOWN      : 
COAL_FLAG.UNKNOWN      : 
DT       .us/ft        : 
GR       .API          : 
NPHI     .v/v_decimal  : 
RD       .UNKNOWN      : 
RHOB     .g/cm3        : 
ROP5_RM  .UNKNOWN      : 
RS       .UNKNOWN      : 
RT       .ohm.m        : 
SAND_FLAG.UNKNOWN      : 
BVW      .v/v_decimal  : 
KLOGH    .mD           : 
PHIF     .v/v_decimal  : 
SW       .v/v_decimal  : 
VSH      .v/v_decimal  : 
~Params ----------------------------------------------------
~Other -----------------------------------------------------
~ASCII -----------------------------------------------------
# ...
 3249.87760    0.00000    0.00000   84.06707   61.33412    0.22680   35.09783    2.26267   14.91000   35.38073   38.90067    1.00000    0.03313    0.88134    0.23353    0.14197    0.43592
 3250.37760    0.00000    0.00000   88.79094   61.07594    0.24358   32.43974    2.23226   14.91000   31.90823   36.42674    1.00000    0.03447    1.27255    0.25070    0.13776    0.43346
 3250.87760    0.00000    0.00000   88.64107   63.03068    0.23804   27.76194    2.25773   14.87984   31.24922   33.84320    1.00000    0.03534    0.70857    0.23968    0.14763    0.45221
 3251.37760    0.00000    0.00000   84.86532   63.59713    0.24335   24.99756    2.24736   14.90018   31.36778   32.44498    1.00000    0.03620    0.69907    0.24539    0.14750    0.45770
 3251.87760    0.00000    0.00000   89.72096   62.45474    0.24041   22.85347    2.21733   14.87979   30.10369   32.55739    1.00000    0.03632    1.03862    0.25451    0.14279    0.44667
 3252.37760    0.00000    0.00000   89.87890   58.74856    0.22636   22.92567    2.24018   14.90013   26.22949   35.80090    1.00000    0.03438    1.69599    0.24107    0.14249    0.41103
 3252.87760    0.00000    0.00000   82.13332   57.80101    0.22658   15.90254    2.26508   14.91000   21.13012   25.48405    1.00000    0.03919    1.75128    0.23262    0.16851    0.40190
 3253.37760    0.00000    0.00000   88.30780   58.07655    0.21991   11.15598    2.27757   14.91000   23.43477   23.61762    1.00000    0.04013    1.45945    0.22567    0.17780    0.40456
 3253.87760    0.00000    0.00000   92.17024   57.69686    0.22346    9.21698    2.25738   14.87978   10.06991   10.69945    1.00000    0.05610    1.83565    0.23400    0.23959    0.40097
 3254.37760    0.00000    0.00000   91.71555   55.78586    0.22584    5.98674    2.24998   14.88508    3.79826    4.34297    1.00000    0.08068    2.86811    0.23752    0.33974    0.38257
 3254.87760    0.00000    0.00000   92.71706   56.53914    0.23290    3.67042    2.23487   14.87487    3.25983    3.35257    1.00000    0.09028    2.85559    0.24549    0.36780    0.38982
 3255.37760    0.00000    0.00000   98.61458   58.47286    0.24843    2.94059    2.20734   14.90019    3.11408    3.05874    1.00000    0.09524    2.59250    0.26115    0.36461    0.40840
 3255.87760    0.00000    0.00000   98.36920   58.28165    0.25038    2.72928    2.20000   14.87989    3.07751    3.03018    1.00000    0.09579    2.86112    0.26439    0.36229    0.40654
 3256.37760    0.00000    0.00000   98.44983   58.12794    0.24914    2.65975    2.20000   14.90025    3.04975    3.04755    1.00000    0.09550    2.92329    0.26397    0.36187    0.40509
 3256.87760    0.00000    0.00000   97.20024   59.02603    0.24309    2.72553    2.19244   14.89491    3.04000    2.92917    1.00000    0.09721    2.45355    0.26416    0.36813    0.41370
 3257.37760    0.00000    0.00000   93.35029   59.74049    0.25079    2.81799    2.19759   14.90510    3.13820    2.98820    1.00000    0.09667    2.17931    0.26543    0.36411    0.42058
 3257.87760    0.00000    0.00000   96.54499   60.57567    0.25187    2.89332    2.20762   14.87995    3.14764    3.23914    1.00000    0.09344    1.74560    0.26238    0.35607    0.42864
 3258.37760    0.00000    0.00000   92.91765   59.18633    0.24464    3.11393    2.24025   14.90025    3.22306    3.57433    1.00000    0.08855    1.77669    0.24836    0.35656    0.41529
 3258.87760    0.00000    0.00000   85.04140   56.83999    0.23344    3.33862    2.27267   14.91000    3.53697    4.24907    1.00000    0.08109    2.12781    0.23273    0.34847    0.39272
 3259.37760    0.00000    0.00000   88.49235   53.09323    0.18634    3.66941    2.40082   14.90242    4.40035    5.27824    1.00000    0.06903    1.41166    0.16999    0.40637    0.35670
 3259.87760    0.72703    0.00000   79.89779   54.55463    0.16725    4.00164    2.46268   14.87732    4.41590    5.78410    0.27297    0.06323    0.55854    0.13158    0.48849    0.37072
 3260.37760    0.00000    0.00000   77.67971   57.03656    0.17781    3.95161    2.43223   14.85492    4.37777    5.67876    1.00000    0.06645    0.49564    0.15579    0.42666    0.39460
 3260.87760    0.00000    0.00000   77.05178   56.19043    0.18715    3.69852    2.39732   14.86509    4.91113    5.96742    1.00000    0.06627    0.78500    0.17154    0.38642    0.38648
 3261.37760    0.00000    0.00000   87.72607   56.00521    0.19689    3.83265    2.36720   14.87106    4.92315    7.86890    1.00000    0.06012    1.05671    0.18577    0.32384    0.38463
 3261.87760    0.00000    0.00000   89.72583   56.58844    0.21318    3.77163    2.29957   15.14941    5.17211    8.02197    1.00000    0.06158    1.62956    0.21540    0.28577    0.39025
 3262.37760    0.00000    0.00000   91.63638   54.95262    0.21850    3.63938    2.27247   15.27016    5.27753    7.63831    1.00000    0.06330    2.78729    0.22681    0.27883    0.37456
 3262.87760    0.00000    0.00000   95.61609   56.54494    0.22549    3.70814    2.30019   15.31776    4.21515    5.94389    1.00000    0.06988    1.79021    0.22013    0.31738    0.38985
 3263.37760    0.00000    0.00000   91.42663   53.51175    0.22384    3.65690    2.31000   15.13366    3.83979    5.17831    1.00000    0.07317    3.06294    0.21613    0.33867    0.36071
 3263.87760    0.00000    0.00000   87.19135   53.99164    0.21313    3.57713    2.29493   15.03976    4.12454    5.30387    1.00000    0.07264    2.81338    0.21701    0.33460    0.36533
 3264.37760    0.00000    0.00000   85.83302   50.89995    0.20826    3.75638    2.29000   15.01492    4.74105    6.35177    1.00000    0.06708    5.20548    0.21676    0.30942    0.33561
 3264.87760    0.00000    0.00000   86.01849   48.21659    0.20858    3.93334    2.29763   15.01006    5.11467    7.06450    1.00000    0.06373    8.43724    0.21428    0.29736    0.30979
 3265.37760    0.00000    0.00000   88.56428   48.05227    0.19507    4.09084    2.33022   15.02511    5.58782    8.05845    1.00000    0.05936    6.43814    0.19768    0.30021    0.30817
 3265.87760    0.00000    0.00000   80.54700   46.59674    0.18773    4.24329    2.34753   14.52399    6.21842    9.08008    1.00000    0.05582    7.29434    0.18884    0.29549    0.29418
 3266.37760    0.00000    0.00000   67.63807   45.53874    0.16555    4.43863    2.41801   14.34486    7.22581   10.56611    1.00000    0.05024    4.90508    0.15577    0.32229    0.28406
 3266.87760    0.00000    0.00000   76.39962   43.48713    0.15794    4.79959    2.44000   14.30227    7.68127   12.75226    1.00000    0.04557    6.07483    0.14518    0.31389    0.26431
 3267.37760    0.00000    0.00000   83.59790   42.72898    0.16108    4.87733    2.43244   14.75822    7.07542   12.18964    1.00000    0.04659    7.57246    0.14903    0.31262    0.25701
 3267.87760    0.00000    0.00000   90.54343   47.06015    0.18560    5.67053    2.37718   14.91000    6.16520   11.99373    1.00000    0.04921    5.43697    0.17781    0.27688    0.29863
 3268.37760    0.00000    0.00000   86.31588   48.52250    0.20135    5.02956    2.32239   13.78063    6.24631    9.59992    1.00000    0.05559    6.43551    0.20287    0.27396    0.31270
 3268.87760    0.00000    0.00000   88.67125   55.49560    0.21012    5.87038    2.31000   13.47799    8.12981   13.11482    1.00000    0.05005    1.90647    0.21063    0.23770    0.37979
 3269.37760    0.00000    0.00000   83.88936   60.59200    0.21744    5.04674    2.31000   13.50753    7.07126   11.00831    1.00000    0.05443    0.71103    0.21355    0.25496    0.42880
 3269.87760    0.00000    0.00000   82.13448   59.05560    0.22868    4.17670    2.29487   14.65793    4.22912    7.35519    1.00000    0.06453    1.15165    0.22320    0.28909    0.41396
 3270.37760    0.00000    0.00000   80.13366   55.13299    0.22938    3.67238    2.27484   16.34021    2.88425    4.98817    1.00000    0.07557    2.87504    0.23041    0.32796    0.37629
 3270.87760    0.00000    0.00000   80.22121   67.37907    0.24694    3.09933    2.23979   20.13575    2.56162    5.07661    0.54856    0.07786    0.39223    0.24941    0.31225    0.49399
