~Version ---------------------------------------------------
VERS.   2.0 : CWLS log ASCII Standard -VERSION 2.0
WRAP.    NO : One line per depth step
DLM . SPACE : Column Data Section Delimiter
~Well ------------------------------------------------------
STRT.ft          188.50000 : START DEPTH
STOP.ft         4770.50000 : STOP DEPTH
STEP.ft            0.50000 : STEP
NULL.              -999.25 : NULL VALUE
COMP. Statoil Petroleum AS : COMPANY
WELL.          15/9-F-11 B : WELL
FLD .                VOLVE : FIELD
LOC .      Maersk Inspirer : LOCATION
PROV.                      : PROVINCE
CNTY.                      : COUNTY
STAT.                      : STATE
CTRY.                      : COUNTRY
SRVC.                      : SERVICE COMPANY
DATE.                      : DATE
UWI .                      : UNIQUE WELL ID
API .                      : API NUMBER
~Curve Information -----------------------------------------
DEPT     .ft        : 
ABDCQF01 .g/cm3     : 
ABDCQF02 .g/cm3     : 
ABDCQF03 .g/cm3     : 
ABDCQF04 .g/cm3     : 
BS       .inches    : 
CALI     .inches    : 
DRHO     .g/cm3     : 
GR       .API       : 
NPHI     .v/v       : 
PEF      .b/elec    : 
RACEHM   .ohm.m     : 
RACELM   .ohm.m     : 
RD       .ohm.m     : 
RHOB     .g/cm3     : 
RM       .ohm.m     : 
ROP      .m/hr      : 
RPCEHM   .ohm.m     : 
RPCELM   .ohm.m     : 
RT       .ohm.m     : 
BVW      .v/v       : 
CARB_FLAG.unitless  : 
COAL_FLAG.unitless  : 
KLOGH    .mD        : 
PHIF     .v/v       : 
SAND_FLAG.UNKNOWN   : 
SW       .v/v       : 
VSH      .v/v       : 
~Params ----------------------------------------------------
~Other -----------------------------------------------------
PETROPHYSICAL_INTERPRETATION: INPUT

# --- LOG MNEMONICS AND UNITS ---
#Depth     ABDCQF01   ABDCQF02   ABDCQF03   ABDCQF04   BS         CALI       DRHO       GR         NPHI       PEF        RACEHM     RACELM     RD         RHOB       RM         ROP        RPCEHM     RPCELM     RT
#M         g/cm3      g/cm3      g/cm3      g/cm3      inches     inches     g/cm3      API        v/v        b/elec     ohm.m      ohm.m      ohm.m      g/cm3      ohm.m      m/hr       ohm.m      ohm.m      ohm.m
~ASCII -----------------------------------------------------
# ...
 3308.50000    2.62100    2.63200    2.64500    2.64500    8.50000    8.57800    0.05300   25.39200    0.08500    7.41000    4.42600    3.64400    5.03500    2.64100    7.26300   18.12300    7.26300    5.03500    7.26300 -999.25000 -999.25000 -999.25000 -999.25000 -999.25000 -999.25000 -999.25000 -999.25000
 3309.00000    2.63600    2.65000    2.65900    2.64700    8.50000    8.62500    0.05400   25.21000    0.08200    7.49000    4.47500    3.68700    5.23700    2.64700    7.62400   18.30400    7.62400    5.23700    7.62400 -999.25000 -999.25000 -999.25000 -999.25000 -999.25000 -999.25000 -999.25000 -999.25000
 3309.50000    2.65300    2.62800    2.60400    2.64300    8.50000    8.57800    0.06500   38.13800    0.09500    7.27300    4.32100    3.69900    5.20700    2.62900    7.29200   17.64800    7.29200    5.20700    7.29200 -999.25000 -999.25000 -999.25000 -999.25000 -999.25000 -999.25000 -999.25000 -999.25000
 3310.00000    2.65000    2.59200    2.58200    2.56900    8.50000    8.62500    0.07000   52.45600    0.13900    6.97900    4.45100    3.79600    4.34000    2.59100    5.12300   18.31600    5.12300    4.34000    5.12300 -999.25000 -999.25000 -999.25000 -999.25000 -999.25000 -999.25000 -999.25000 -999.25000
 3310.50000    2.58900    2.56200    2.57400    2.59000    8.50000    8.62500    0.06200   54.06700    0.17200    6.89100    4.06700    3.93400    3.87000    2.57000    3.98200   21.24800    3.98200    3.87000    3.98200 -999.25000 -999.25000 -999.25000 -999.25000 -999.25000 -999.25000 -999.25000 -999.25000
 3311.00000    2.57100    2.58400    2.58000    2.59000    8.50000    8.62500    0.05400   52.70700    0.15400    6.68400    3.80300    3.91800    3.85000    2.57600    4.07300   23.06000    4.07300    3.85000    4.07300 -999.25000 -999.25000 -999.25000 -999.25000 -999.25000 -999.25000 -999.25000 -999.25000
 3311.50000    2.58700    2.59600    2.59600    2.58600    8.50000    8.57800    0.05700   45.99700    0.14600    6.89000    3.67400    3.86900    4.17000    2.58700    4.96200   24.64300    4.96200    4.16900    4.96200 -999.25000 -999.25000 -999.25000 -999.25000 -999.25000 -999.25000 -999.25000 -999.25000
 3312.00000    2.59200    2.60200    2.58900    2.58400    8.50000    8.57800    0.05300   42.92200    0.14000    6.98200    3.77700    3.84700    4.40600    2.59100    5.63100   24.95800    5.63100    4.40600    5.63100 -999.25000 -999.25000 -999.25000 -999.25000 -999.25000 -999.25000 -999.25000 -999.25000
 3312.50000    2.60000    2.60400    2.61000    2.58900    8.50000    8.57800    0.05400   38.73800    0.13600    6.86300    3.92900    3.89200    4.41300    2.59800    5.70100   23.36900    5.70100    4.41300    5.70100 -999.25000 -999.25000 -999.25000 -999.25000 -999.25000 -999.25000 -999.25000 -999.25000
 3313.00000    2.58900    2.59600    2.59600    2.59500    8.50000    8.57800    0.05000   40.76700    0.13100    6.80400    4.03400    3.91800    4.57000    2.59000    6.04100   22.57300    6.04100    4.57000    6.04100 -999.25000 -999.25000 -999.25000 -999.25000 -999.25000 -999.25000 -999.25000 -999.25000
 3313.50000    2.61000    2.61700    2.60700    2.60800    8.50000    8.57800    0.05700   39.84000    0.12800    6.98900    4.17300    3.97200    4.70400    2.60800    6.28000   21.28100    6.28000    4.70400    6.28000 -999.25000 -999.25000 -999.25000 -999.25000 -999.25000 -999.25000 -999.25000 -999.25000
 3314.00000    2.58900    2.61100    2.62600    2.62300    8.50000    8.57800    0.05500   39.18300    0.12500    7.05500    4.27100    4.05600    4.92400    2.61200    6.52000   21.20700    6.52000    4.92400    6.52000 -999.25000 -999.25000 -999.25000 -999.25000 -999.25000 -999.25000 -999.25000 -999.25000
 3314.50000    2.61400    2.61600    2.61400    2.61100    8.50000    8.57800    0.05600   38.48600    0.12700    6.95000    4.40200    4.12600    5.07700    2.60900    6.81000   21.04000    6.81000    5.07700    6.81000 -999.25000 -999.25000 -999.25000 -999.25000 -999.25000 -999.25000 -999.25000 -999.25000
 3315.00000    2.61100    2.62200    2.62300    2.60700    8.50000    8.57800    0.06000   41.09200    0.13000    7.02000    4.47100    4.16100    5.20700    2.61600    6.87600   21.46100    6.87600    5.20700    6.87600 -999.25000 -999.25000 -999.25000 -999.25000 -999.25000 -999.25000 -999.25000 -999.25000
 3315.50000    2.61700    2.61800    2.61500    2.59500    8.50000    8.57800    0.05600   43.96000    0.13300    6.91900    4.53600    4.19700    5.27900    2.60800    6.91100   13.06000    6.91000    5.27900    6.91100 -999.25000 -999.25000 -999.25000 -999.25000 -999.25000 -999.25000 -999.25000 -999.25000
 3316.00000    2.60500    2.60100    2.61500    2.61400    8.50000    8.57800    0.05900   43.95000    0.14100    7.12400    4.54800    4.24500    5.28400    2.60600    6.82500    8.62800    6.82500    5.28400    6.82500 -999.25000 -999.25000 -999.25000 -999.25000 -999.25000 -999.25000 -999.25000 -999.25000
 3316.50000    2.59700    2.60900    2.61300    2.60300    8.50000    8.62500    0.06000   45.43400    0.14400    7.08500    4.48700    4.24600    5.32700    2.60600    6.91700   10.38700    6.91700    5.32700    6.91700 -999.25000 -999.25000 -999.25000 -999.25000 -999.25000 -999.25000 -999.25000 -999.25000
 3317.00000    2.58900    2.59500    2.60200    2.60000    8.50000    8.62500    0.05800   42.84700    0.14300    7.11100    4.44500    4.25900    5.21700    2.59500    6.69500    9.23300    6.69500    5.21700    6.69500 -999.25000 -999.25000 -999.25000 -999.25000 -999.25000 -999.25000 -999.25000 -999.25000
 3317.50000    2.59600    2.60900    2.58700    2.58900    8.50000    8.64100    0.06400   44.86000    0.14400    7.31000    4.37400    4.21500    5.03500    2.59800    6.27000    6.94700    6.27000    5.03500    6.27000 -999.25000 -999.25000 -999.25000 -999.25000 -999.25000 -999.25000 -999.25000 -999.25000
 3318.00000    2.58400    2.59600    2.60000    2.60100    8.50000    8.67200    0.06400   48.12100    0.15100    7.12100    4.34700    4.19400    4.67600    2.59600    5.34200   13.32500    5.34200    4.67600    5.34200 -999.25000 -999.25000 -999.25000 -999.25000 -999.25000 -999.25000 -999.25000 -999.25000
 3318.50000    2.58700    2.56000    2.60400    2.57200    8.50000    8.57800    0.05000   45.67600    0.15100    6.66400    4.40300    4.16800    3.97400    2.57600    4.01100   22.76000    4.01100    3.97400    4.01100 -999.25000 -999.25000 -999.25000 -999.25000 -999.25000 -999.25000 -999.25000 -999.25000
 3319.00000    2.59400    2.60900    2.62700    2.58400    8.50000    8.57800    0.06000   35.84600    0.12800    6.84900    4.16100    4.07500    4.13500    2.60200    4.42500   23.06900    4.42500    4.13500    4.42500 -999.25000 -999.25000 -999.25000 -999.25000 -999.25000 -999.25000 -999.25000 -999.25000
 3319.50000    2.57900    2.58400    2.59800    2.58500    8.50000    8.57800    0.05200   37.40800    0.13300    6.72200    3.92400    3.94100    4.02500    2.58700    4.46600   15.79100    4.46600    4.02500    4.46600 -999.25000 -999.25000 -999.25000 -999.25000 -999.25000 -999.25000 -999.25000 -999.25000
 3320.00000    2.60200    2.60200    2.58300    2.59200    8.50000    8.57800    0.05600   38.03400    0.13000    6.85600    3.99900    3.91700    4.07000    2.59400    4.53700   10.95300    4.53700    4.07000    4.53700 -999.25000 -999.25000 -999.25000 -999.25000 -999.25000 -999.25000 -999.25000 -999.25000
 3320.50000    2.59400    2.58800    2.59300    2.60100    8.50000    8.57800    0.05700   40.42000    0.13800    6.83100    4.09400    3.91600    4.13500    2.59300    4.70300   10.46400    4.70300    4.13500    4.70300 -999.25000 -999.25000 -999.25000 -999.25000 -999.25000 -999.25000 -999.25000 -999.25000
 3321.00000    2.58600    2.58900    2.58200    2.56500    8.50000    8.57800    0.05200   41.77500    0.14300    6.79600    4.17400    3.97900    4.19900    2.57900    4.87500   12.17400    4.87500    4.19900    4.87500 -999.25000 -999.25000 -999.25000 -999.25000 -999.25000 -999.25000 -999.25000 -999.25000
