~Version ---------------------------------------------------
VERS.   2.0 : CWLS log ASCII Standard -VERSION 2.0
WRAP.    NO : One line per depth step
DLM . SPACE : Column Data Section Delimiter
~Well ------------------------------------------------------
STRT.ft          188.50000 : START DEPTH
STOP.ft         3762.00000 : STOP DEPTH
STEP.ft            0.50000 : STEP
NULL.              -999.25 : NULL VALUE
COMP. Statoil Petroleum AS : COMPANY
WELL.          15/9-F-11 A : WELL
FLD .                VOLVE : FIELD
LOC .      Maersk Inspirer : LOCATION
PROV.                      : PROVINCE
CNTY.                      : COUNTY
STAT.                      : STATE
CTRY.                      : COUNTRY
SRVC.                      : SERVICE COMPANY
DATE.                      : DATE
UWI .                      : UNIQUE WELL ID
API .                      : API NUMBER
~Curve Information -----------------------------------------
DEPT     .ft       : 
ABDCQF01 .g/cm3    : 
ABDCQF02 .g/cm3    : 
ABDCQF03 .g/cm3    : 
ABDCQF04 .g/cm3    : 
BS       .inches   : 
CALI     .inches   : 
DRHO     .g/cm3    : 
DT       .us/ft    : 
DTS      .us/ft    : 
GR       .API      : 
NPHI     .v/v      : 
PEF      .b/elec   : 
RACEHM   .ohm.m    : 
RACELM   .ohm.m    : 
RD       .ohm.m    : 
RHOB     .g/cm3    : 
RM       .ohm.m    : 
ROP      .m/hr     : 
RPCEHM   .ohm.m    : 
RPCELM   .ohm.m    : 
RT       .ohm.m    : 
BVW      .v/v      : 
CARB_FLAG.UNKNOWN  : 
COAL_FLAG.UNKNOWN  : 
KLOGH    .mD       : 
PHIF     .v/v      : 
SAND_FLAG.UNKNOWN  : 
SW       .v/v      : 
VSH      .v/v      : 
~Params ----------------------------------------------------
~Other -----------------------------------------------------
PETROPHYSICAL_INTERPRETATION: INPUT

# --- LOG MNEMONICS AND UNITS ---
#Depth     ABDCQF01   ABDCQF02   ABDCQF03   ABDCQF04   BS         CALI       DRHO       DT         DTS        GR         NPHI       PEF        RACEHM     RACELM     RD         RHOB       RM         ROP        RPCEHM     RPCELM     RT
#M         g/cm3      g/cm3      g/cm3      g/cm3      inches     inches     g/cm3      us/ft      us/ft      API        v/v        b/elec     ohm.m      ohm.m      ohm.m      g/cm3      ohm.m      m/hr       ohm.m      ohm.m      ohm.m
~ASCII -----------------------------------------------------
# ...
 3726.00000    2.48100    2.49200    2.51400    2.49100    8.50000    8.72700    0.06700 -999.25000 -999.25000   68.80200    0.17500    6.34800    1.22100    1.17600    1.20000    2.49700    1.14900   16.04700    1.14900    1.20000    1.14900    0.08700    0.00000    0.00000    0.03400    0.08700    0.00000    1.00000    0.63100
 3726.50000    2.47900    2.49400    2.48900    2.50000    8.50000    8.70300    0.07100 -999.25000 -999.25000   73.05000    0.17600    6.09800    1.14500    1.20300    1.29800    2.48700    1.35200   16.00300    1.35200    1.29800    1.35200    0.09300    0.00000    0.00000    0.04300    0.09300    0.00000    1.00000    0.67400
 3727.00000    2.46500    2.45400    2.44300    2.44300    8.50000    8.70300    0.07700 -999.25000 -999.25000   72.98900    0.18400    6.06700    1.19800    1.23600    1.31900    2.44700    1.36700   16.01300    1.36700    1.31900    1.36700    0.10900    0.00000    0.00000    0.23500    0.11600    0.00000    0.93700    0.67300
 3727.50000    2.44400    2.46700    2.48700    2.48400    8.50000    8.75000    0.05400 -999.25000 -999.25000   67.10200    0.18400    6.69900    1.25100    1.25300    1.20100    2.47200    1.03000   16.01300    1.03000    1.20100    1.03000    0.10100    0.00000    0.00000    0.10500    0.10100    0.00000    1.00000    0.61300
 3728.00000    2.51900    2.52800    2.50900    2.51800    8.50000    8.70300    0.07600 -999.25000 -999.25000   74.40400    0.18700    6.69600    1.18700    1.25300    1.31300    2.51600    1.37700   16.00200    1.37800    1.31300    1.37700    0.07600    0.00000    0.00000    0.01200    0.07600    0.00000    1.00000    0.68800
 3728.50000    2.49000    2.48700    2.47500    2.48600    8.50000    8.75000    0.07100 -999.25000 -999.25000   77.98000    0.18700    6.58600    1.24700    1.31200    1.30400    2.48000    1.36400   16.63500    1.36400    1.30400    1.36400    0.09700    0.00000    0.00000    0.04600    0.09700    0.00000    1.00000    0.72400
 3729.00000    2.47500    2.45100    2.49500    2.48800    8.50000    8.72700    0.06900 -999.25000 -999.25000   72.39900    0.18900    6.83600    1.22600    1.40100    1.28400    2.47300    1.15200   18.55600    1.15200    1.28400    1.15200    0.10100    0.00000    0.00000    0.08100    0.10100    0.00000    1.00000    0.66700
 3729.50000    2.49800    2.50000    2.60700    2.53400    8.50000    8.72700    0.05400 -999.25000 -999.25000   70.63400    0.13100    7.19900    1.72700    1.53700    1.61700    2.52600    1.67400   19.38300    1.67500    1.61700    1.67400    0.07100    0.00000    0.00000    0.00900    0.07100    0.00000    1.00000    0.64900
 3730.00000    2.58600    2.64800    2.69100    2.69600    8.50000    8.70300    0.06300 -999.25000 -999.25000   64.37700    0.12200    7.65100    2.02400    1.61600    2.33000    2.65700    3.75600   19.81000    3.75700    2.33000    3.75600 -999.25000    1.00000    0.00000 -999.25000 -999.25000    0.00000 -999.25000    0.58600
 3730.50000    2.69600    2.67200    2.59400    2.61400    8.50000    8.70300    0.07100 -999.25000 -999.25000   45.94400    0.12900    6.87900    2.40300    1.79900    2.81100    2.62600    4.01500   19.10400    4.01600    2.81100    4.01500    0.01400    0.00000    0.00000    0.00100    0.01400    0.00000    1.00000    0.39700
 3731.00000    2.61800    2.59300    2.62000    2.60900    8.50000    8.67200    0.06900 -999.25000 -999.25000   47.65000    0.11800    6.84400    2.90800    1.94900    3.16800    2.60900    4.11500   14.40100    4.11500    3.16800    4.11500    0.02400    0.00000    0.00000    0.00100    0.02400    0.00000    1.00000    0.41500
 3731.50000    2.60500    2.66600    2.70500    2.68300    8.50000    8.67200    0.06300 -999.25000 -999.25000   47.47500    0.11200    7.45600    3.20300    1.99100    3.24900    2.67700    4.00700   12.51800    4.00700    3.24900    4.00700 -999.25000    1.00000    0.00000 -999.25000 -999.25000    0.00000 -999.25000    0.41300
 3732.00000    2.72400    2.62600    2.54300    2.59800    8.50000    8.67200    0.08800 -999.25000 -999.25000   40.42100    0.13200    6.55100    2.58900    1.84000    3.54800    2.59700    5.97300   13.22400    5.97300    3.54800    5.97300    0.03100    0.00000    0.00000    0.00200    0.03100    0.00000    1.00000    0.34100
 3732.50000    2.49500    2.48200    2.52400    2.51600    8.50000    8.70300    0.07700 -999.25000 -999.25000   46.22800    0.15600    6.26200    2.09500    1.58600    2.16500    2.50200    2.74700   14.01100    2.74600    2.16500    2.74700    0.07700    0.00000    0.00000    0.08200    0.08500    0.00000    0.91300    0.40000
 3733.00000    2.39600    2.38200    2.37900    2.39900    8.50000    8.67200    0.06700 -999.25000 -999.25000   47.17800    0.21300    5.75200    1.22800    1.25300    1.18700    2.38500    1.02700   14.72700    1.02700    1.18700    1.02700    0.12400    0.00000    0.00000   10.52200    0.15100    1.00000    0.82000    0.41000
 3733.50000    2.36700    2.39300    2.42100    2.40600    8.50000    8.70300    0.06200 -999.25000 -999.25000   55.39700    0.20100    6.01900    0.82400    0.96200    0.87100    2.39700    0.82400   14.97100    0.82400    0.87100    0.82400    0.13600    0.00000    0.00000    4.28000    0.14400    1.00000    0.94000    0.49400
 3734.00000    2.41400    2.41500    2.38700    2.39600    8.50000    8.67200    0.06700 -999.25000 -999.25000   69.29700    0.21700    5.99200    0.71700    0.77200    0.79900    2.39500    0.83300   16.19200    0.83300    0.79900    0.83300    0.13600    0.00000    0.00000    2.45300    0.14600    0.00000    0.93600    0.63600
 3734.50000    2.41300    2.38200    2.33900    2.36500    8.50000    8.64800    0.07000 -999.25000 -999.25000   65.28800    0.22000    5.45900    0.64100    0.60300    0.68800    2.36500    0.77100   17.99000    0.77100    0.68800    0.77100    0.14200    0.00000    0.00000   10.29300    0.16300    0.00000    0.87400    0.59500
 3735.00000    2.33700    2.33800    2.34100    2.31300    8.50000    8.67200    0.07200 -999.25000 -999.25000   51.12300    0.22600    5.72500    0.60700    0.53100    0.57600    2.33200    0.55100   19.49400    0.55100    0.57600    0.55100    0.16400    0.00000    0.00000   80.38400    0.18100    1.00000    0.90500    0.45000
 3735.50000    2.27800    2.29100    2.26900    2.28200    8.50000    8.62500    0.05000 -999.25000 -999.25000   45.78400    0.25100    5.68300    0.51000    0.49700    0.53900    2.27700    0.51300   19.94600    0.51300    0.53900    0.51300    0.17200    0.00000    0.00000 1051.42200    0.21300    1.00000    0.80800    0.39600
 3736.00000    2.30300    2.30500    2.32800    2.32800    8.50000    8.62500    0.05400 -999.25000 -999.25000   47.67700    0.23500    5.78900    0.45300    0.45300    0.41900    2.31800    0.36000   19.92300    0.36000    0.41900    0.36000    0.19000    0.00000    0.00000  173.33600    0.19000    1.00000    1.00000    0.41500
 3736.50000    2.31600    2.31900    2.29000    2.29800    8.50000    8.62500    0.05800 -999.25000 -999.25000   43.02100    0.25100    5.51100    0.43200    0.42100    0.43500    2.29900    0.44100   19.97100    0.44100    0.43500    0.44100    0.18100    0.00000    0.00000  482.16000    0.20100    1.00000    0.90400    0.36800
 3737.00000    2.29700    2.29200    2.28500    2.28700    8.50000    8.62500    0.05500 -999.25000 -999.25000   41.74200 -999.25000    5.60000    0.44100    0.43800    0.41100    2.28700    0.38200   19.97300    0.38200    0.41100    0.38200 -999.25000    0.00000    0.00000 -999.25000 -999.25000 -999.25000 -999.25000    0.35400
 3737.50000    2.30500    2.30500    2.28300    2.29600    8.50000    8.62500    0.05600 -999.25000 -999.25000   45.51400 -999.25000    5.54800    0.56700    0.51800    0.50400    2.29200    0.42300   19.95900    0.42400    0.50400    0.42300 -999.25000    0.00000    0.00000 -999.25000 -999.25000 -999.25000 -999.25000    0.39300
 3738.00000    2.28900    2.30800    2.34300    2.31200    8.50000    8.62500    0.05100 -999.25000 -999.25000   53.36800 -999.25000    5.71800    0.61500    0.50400    0.62300    2.31800    0.68200   19.93600    0.68200    0.62300    0.68200 -999.25000    0.00000    0.00000 -999.25000 -999.25000 -999.25000 -999.25000    0.47300
