~Version ---------------------------------------------------
VERS.   2.0 : CWLS log ASCII Standard -VERSION 2.0
WRAP.    NO : One line per depth step
DLM . SPACE : Column Data Section Delimiter
~Well ------------------------------------------------------
STRT.ft       145.90000 : START DEPTH
STOP.ft      3464.90000 : STOP DEPTH
STEP.ft         0.50000 : STEP
NULL.           -999.25 : NULL VALUE
COMP. Statoil Petroleum : COMPANY
WELL.        15/9-F-1 B : WELL
FLD .             VOLVE : FIELD
LOC .   Maersk Inspirer : LOCATION
PROV.                   : PROVINCE
CNTY.                   : COUNTY
STAT.                   : STATE
CTRY.                   : COUNTRY
SRVC.                   : SERVICE COMPANY
DATE.                   : DATE
UWI .                   : UNIQUE WELL ID
API .                   : API NUMBER
~Curve Information -----------------------------------------
DEPT     .ft        : 
ABDCQF01 .g/cm3     : 
ABDCQF02 .g/cm3     : 
ABDCQF03 .g/cm3     : 
ABDCQF04 .g/cm3     : 
BS       .inches    : 
CALI     .inches    : 
DRHO     .g/cm3     : 
DT       .us/ft     : 
DTS      .us/ft     : 
GR       .API       : 
NBGRCFM  .API       : 
NPHI     .v/v       : 
PEF      .b/elec    : 
RACEHM   .ohm.m     : 
RACELM   .ohm.m     : 
RD       .ohm.m     : 
RHOB     .g/cm3     : 
RM       .ohm.m     : 
ROP      .m/hr      : 
RPCEHM   .ohm.m     : 
RPCELM   .ohm.m     : 
RT       .ohm.m     : 
BVW      .V/V       : 
CARB_FLAG.V/V       : 
COAL_FLAG.UNITLESS  : 
KLOGH    .mD        : 
PHIF     .V/V       : 
SAND_FLAG.UNITLESS  : 
SW       .V/V       : 
VCARB    .V/V       : 
VSH      .V/V       : 
~Params ----------------------------------------------------
~Other -----------------------------------------------------
PETROPHYSICAL INTERPRETATION: INPUT

# --- LOG MNEMONICS AND UNITS ---
#Depth          ABDCQF01        ABDCQF02        ABDCQF03        ABDCQF04        BS              CALI            DRHO            DT              DTS             GR              NBGRCFM         NPHI            PEF             RACEHM          RACELM          RD              RHOB            RM              ROP             RPCEHM          RPCELM          RT
#M              g/cm3           g/cm3           g/cm3           g/cm3           inches          inches          g/cm3           us/ft           us/ft           API             API             v/v             b/elec          ohm.m           ohm.m           ohm.m           g/cm3           ohm.m           m/hr            ohm.m           ohm.m           ohm.m
~ASCII -----------------------------------------------------
# ...
 3342.90000    2.46200    2.48210    2.48520    2.48420    8.50000    8.66400    0.06080   73.41880  128.28000   47.58000 -999.25000    0.15890    6.35340    1.09170    1.09800    1.13240    2.47370    1.14530   27.81420    1.14530    1.13240    1.14530    0.10070    0.00000    0.00000    0.43320    0.10070    1.00000    1.00000    0.03390    0.29360
 3343.40000    2.49630    2.47970    2.48910    2.48940    8.50000    8.66400    0.05910   71.94430  125.72260   58.21240 -999.25000    0.14420    6.40290    1.24890    1.25110    1.30060    2.48800    1.25050   27.86090    1.25060    1.30060    1.25060    0.09260    0.00000    0.00000    0.16910    0.09260    0.00000    1.00000    0.00000    0.36700
 3343.90000    2.56230    2.53970    2.53900    2.55440    8.50000    8.72270    0.06330   70.23220  122.24950   44.46140 -999.25000    0.10340    6.69920    1.51630    1.37190    1.65320    2.55140    1.90080   25.62070    1.90090    1.65320    1.90090    0.05640    0.00000    0.00000    0.01820    0.05640    0.00000    1.00000    0.20790    0.27220
 3344.40000    2.52900    2.54200    2.54610    2.52520    8.50000    8.66370    0.06820   70.20060  121.36090   53.63480 -999.25000    0.13230    6.33430    1.59420    1.42600    1.69270    2.53030    1.84990   22.85230    1.84980    1.69270    1.84980    0.06830    0.00000    0.00000    0.03280    0.06830    0.00000    1.00000    0.09260    0.33540
 3344.90000    2.55270    2.51740    2.52380    2.53130    8.50000    8.68050    0.06430   71.49440  123.46450   52.29180 -999.25000    0.12620    6.32810    1.45250    1.40170    1.53140    2.52720    1.62520   23.89030    1.62520    1.53130    1.62520    0.07020    0.00000    0.00000    0.03920    0.07020    0.00000    1.00000    0.09650    0.32620
 3345.40000    2.48620    2.51370    2.50160    2.48970    8.50000    8.66370    0.06500   73.06530  125.53580   54.21000 -999.25000    0.15280    6.33080    1.35380    1.37420    1.34680    2.49710    1.28810   24.20490    1.28800    1.34670    1.28800    0.08740    0.00000    0.00000    0.13100    0.08740    0.00000    1.00000    0.03110    0.33930
 3345.90000    2.50920    2.50360    2.51430    2.51460    8.50000    8.66380    0.05950   72.44040  128.80230   47.70080 -999.25000    0.13140    6.28330    1.36170    1.37700    1.40510    2.50660    1.42220   29.97850    1.42220    1.40510    1.42220    0.08190    0.00000    0.00000    0.10790    0.08190    0.00000    1.00000    0.09250    0.29460
 3346.40000    2.52480    2.51050    2.53000    2.52190    8.50000    8.69760    0.06390   72.15570  128.07950   41.83180 -999.25000    0.12500    6.42780    1.47310    1.42370    1.53560    2.51990    1.58610   27.63510    1.58610    1.53560    1.58610    0.07430    0.00000    0.00000    0.07430    0.07430    0.00000    1.00000    0.16610    0.25400
 3346.90000    2.51700    2.51250    2.51110    2.50880    8.50000    8.69730    0.05920   72.30690  124.70540   47.58400 -999.25000    0.13160    6.12070    1.45280    1.45380    1.50140    2.50770    1.50640   25.02800    1.50630    1.50140    1.50630    0.08130    0.00000    0.00000    0.10300    0.08130    0.00000    1.00000    0.09580    0.29370
 3347.40000    2.52790    2.50730    2.51210    2.52470    8.50000    8.69760    0.05660   72.05660  125.20820   48.67960 -999.25000    0.13000    6.32670    1.44670    1.46510    1.55360    2.51310    1.61730   24.77660    1.61740    1.55360    1.61740    0.07830    0.00000    0.00000    0.07990    0.07830    0.00000    1.00000    0.09730    0.30120
 3347.90000    2.51640    2.53880    2.51780    2.51220    8.50000    8.66370    0.05920   71.73630  124.73740   59.15790 -999.25000    0.13370    6.35660    1.50550    1.47960    1.52160    2.51640    1.46860   24.09700    1.46870    1.52170    1.46870    0.07630    0.00000    0.00000    0.04960    0.07630    0.00000    1.00000    0.03190    0.37360
 3348.40000    2.55960    2.56190    2.54320    2.54580    8.50000    8.69760    0.06320   71.47720  123.53130   51.84800 -999.25000    0.12300    6.35790    1.50610    1.42470    1.65690    2.54820    1.78280   23.74350    1.78270    1.65690    1.78270    0.05820    0.00000    0.00000    0.01640    0.05820    0.00000    1.00000    0.13880    0.32320
 3348.90000    2.52920    2.52110    2.54450    2.53590    8.50000    8.69750    0.05740   71.52990  123.33910   54.65510 -999.25000    0.11740    6.25100    1.47460    1.27760    1.54910    2.53080    1.65740   22.69050    1.65750    1.54910    1.65750    0.06820    0.00000    0.00000    0.03140    0.06820    0.00000    1.00000    0.08570    0.34250
 3349.40000    2.50350    2.52520    2.51240    2.50950    8.50000    8.66370    0.05700   73.24450  127.10490   47.94270 -999.25000    0.14150    5.88850    1.16330    1.07100    1.23990    2.50760    1.30980   21.44040    1.30970    1.23980    1.30970    0.08130    0.00000    0.00000    0.10230    0.08130    0.00000    1.00000    0.09300    0.29600
 3349.90000    2.45940    2.49960    2.46880    2.44800    8.50000    8.68050    0.07370   75.35260  133.35370   44.82400 -999.25000    0.17050    5.75970    0.94700    0.91420    0.92250    2.46000    1.01720   22.32930    1.01700    0.92250    1.01700    0.10850    0.00000    0.00000    0.83410    0.10850    1.00000    1.00000    0.02820    0.27470
 3350.40000    2.38190    2.38940    2.43310    2.42410    8.50000    8.61300    0.04360   75.60160  134.40810   33.92080 -999.25000    0.14810    5.83250    0.79870    0.89780    0.77980    2.41120    0.73440   24.33330    0.73450    0.77980    0.73450    0.13650    0.00000    0.00000    9.32460    0.13650    1.00000    1.00000    0.01220    0.19940
 3350.90000    2.49660    2.49040    2.50650    2.53620    8.50000    8.69760    0.04850   72.55430  124.32490   38.75400 -999.25000    0.10620    6.36280    1.20770    1.07400    1.29520    2.51010    1.50690   25.19200    1.50710    1.29530    1.50710    0.08000    0.00000    0.00000    0.12420    0.08000    0.00000    1.00000    0.17220    0.23290
 3351.40000    2.49660    2.52360    2.50420    2.48640    8.50000    8.68070    0.06710   72.54330  122.34720   47.20790 -999.25000    0.14570    6.11040    1.41730    1.25780    1.42710    2.49560    1.45790   22.12280    1.45780    1.42710    1.45780    0.08820    0.00000    0.00000    0.17350    0.08820    0.00000    1.00000    0.07610    0.29100
 3351.90000    2.50820    2.47350    2.48190    2.49310    8.50000    8.69730    0.05090   73.30360  124.77650   60.31550 -999.25000    0.14280    6.28390    1.50920    1.43470    1.53930    2.48470    1.48430   23.56890    1.48430    1.53930    1.48430    0.09450    0.00000    0.00000    0.18260    0.09450    0.00000    1.00000    0.00000    0.38150
 3352.40000    2.52820    2.53660    2.51420    2.51460    8.50000    8.69730    0.07340   73.35090  126.95590   57.07530 -999.25000    0.15310    6.28410    1.47220    1.46680    1.50380    2.51690    1.41830   23.52780    1.41810    1.50380    1.41810    0.07600    0.00000    0.00000    0.05170    0.07600    0.00000    1.00000    0.04590    0.35910
 3352.90000    2.50640    2.50360    2.49970    2.50470    8.50000    8.69760    0.05460   73.02440  126.98560   55.54620 -999.25000    0.13300    6.12000    1.43020    1.43210    1.46950    2.50000    1.43520   22.79590    1.43520    1.46950    1.43520    0.08580    0.00000    0.00000    0.11150    0.08580    0.00000    1.00000    0.02710    0.34880
 3353.40000    2.52250    2.52070    2.51660    2.52520    8.50000    8.69760    0.05690   73.03700  125.73110   47.17940 -999.25000    0.13320    6.13580    1.39580    1.36550    1.46760    2.51470    1.52760   21.44210    1.52750    1.46760    1.52750    0.07730    0.00000    0.00000    0.07800    0.07730    0.00000    1.00000    0.11190    0.29090
 3353.90000    2.50350    2.50990    2.49830    2.47990    8.50000    8.69760    0.06180   72.90110  127.30850   53.53330 -999.25000    0.14920    6.20410    1.28800    1.31660    1.29540    2.49510    1.26730   20.65420    1.26740    1.29540    1.26740    0.08850    0.00000    0.00000    0.14550    0.08850    0.00000    1.00000    0.03190    0.33480
