~Version ---------------------------------------------------
VERS.   2.0 : CWLS log ASCII Standard -VERSION 2.0
WRAP.    NO : One line per depth step
DLM . SPACE : Column Data Section Delimiter
~Well ------------------------------------------------------
STRT.ft       145.90000 : START DEPTH
STOP.ft      3464.90000 : STOP DEPTH
STEP.ft         0.50000 : STEP
NULL.           -999.25 : NULL VALUE
COMP. Statoil Petroleum : COMPANY
WELL.        15/9-F-1 B : WELL
FLD .             VOLVE : FIELD
LOC .   Maersk Inspirer : LOCATION
PROV.                   : PROVINCE
CNTY.                   : COUNTY
STAT.                   : STATE
CTRY.                   : COUNTRY
SRVC.                   : SERVICE COMPANY
DATE.                   : DATE
UWI .                   : UNIQUE WELL ID
API .                   : API NUMBER
~Curve Information -----------------------------------------
DEPT     .ft        : 
ABDCQF01 .g/cm3     : 
ABDCQF02 .g/cm3     : 
ABDCQF03 .g/cm3     : 
ABDCQF04 .g/cm3     : 
BS       .inches    : 
CALI     .inches    : 
DRHO     .g/cm3     : 
DT       .us/ft     : 
DTS      .us/ft     : 
GR       .API       : 
NBGRCFM  .API       : 
NPHI     .v/v       : 
PEF      .b/elec    : 
RACEHM   .ohm.m     : 
RACELM   .ohm.m     : 
RD       .ohm.m     : 
RHOB     .g/cm3     : 
RM       .ohm.m     : 
ROP      .m/hr      : 
RPCEHM   .ohm.m     : 
RPCELM   .ohm.m     : 
RT       .ohm.m     : 
BVW      .V/V       : 
CARB_FLAG.V/V       : 
COAL_FLAG.UNITLESS  : 
KLOGH    .mD        : 
PHIF     .V/V       : 
SAND_FLAG.UNITLESS  : 
SW       .V/V       : 
VCARB    .V/V       : 
VSH      .V/V       : 
~Params ----------------------------------------------------
~Other -----------------------------------------------------
PETROPHYSICAL INTERPRETATION: INPUT

# --- LOG MNEMONICS AND UNITS ---
#Depth          ABDCQF01        ABDCQF02        ABDCQF03        ABDCQF04        BS              CALI            DRHO            DT              DTS             GR              NBGRCFM         NPHI            PEF             RACEHM          RACELM          RD              RHOB            RM              ROP             RPCEHM          RPCELM          RT
#M              g/cm3           g/cm3           g/cm3           g/cm3           inches          inches          g/cm3           us/ft           us/ft           API             API             v/v             b/elec          ohm.m           ohm.m           ohm.m           g/cm3           ohm.m           m/hr            ohm.m           ohm.m           ohm.m
~ASCII -----------------------------------------------------
# ...
 3411.90000    2.45460    2.45890    2.44970    2.46330    8.50000    8.59610    0.04150   74.94190  128.95410   55.39520 -999.25000    0.16470    5.52390    1.33540    1.25840    1.45850    2.45540    1.65500   29.96380    1.65500    1.45850    1.65500    0.09730    0.00000    0.00000    0.73310    0.11130    1.00000    0.87450    0.00000    0.34750
 3412.40000    2.50580    2.51590    2.52010    2.49940    8.50000    8.72270    0.06620   74.42040  130.65640   55.53280 -999.25000    0.16310    6.32860    1.29780    1.26790    1.31360    2.50560    1.29950   29.97110    1.29950    1.31360    1.29950    0.08250    0.00000    0.00000    0.08740    0.08250    0.00000    1.00000    0.03700    0.34850
 3412.90000    2.47510    2.46200    2.46540    2.44300    8.50000    8.66400    0.04720   75.54880  135.73930   54.24450 -999.25000    0.18550    5.47960    1.27210    1.29640    1.20710    2.45470    1.09440   29.97940    1.09440    1.20710    1.09440    0.11150    0.00000    0.00000    0.77660    0.11150    1.00000    1.00000    0.00000    0.33960
 3413.40000    2.44420    2.43210    2.43180    2.44300    8.50000    8.57890    0.02990   74.83410  131.97520   51.74670 -999.25000    0.17290    4.98330    1.28240    1.31600    1.35320    2.43840    1.37780   29.98690    1.37780    1.35330    1.37780    0.10580    0.00000    0.00000    1.68300    0.12100    1.00000    0.87430    0.00000    0.32250
 3413.90000    2.48310    2.48950    2.47830    2.47430    8.50000    8.61300    0.05000   73.67900  126.23410   58.76400 -999.25000    0.17010    5.26780    1.37930    1.34270    1.43070    2.48000    1.42930   29.98000    1.42930    1.43080    1.42930    0.09710    0.00000    0.00000    0.23290    0.09710    0.00000    1.00000    0.00000    0.37070
 3414.40000    2.49950    2.50260    2.48180    2.49560    8.50000    8.57910    0.04620   73.94940  129.69680   55.95970 -999.25000    0.15700    5.33630    1.38750    1.30630    1.53680    2.49350    1.76040   29.97110    1.76030    1.53680    1.76030    0.08950    0.00000    0.00000    0.14470    0.08950    0.00000    1.00000    0.01410    0.35160
 3414.90000    2.48800    2.48040    2.48110    2.46710    8.50000    8.61270    0.04460   74.96060  130.76930   59.22480 -999.25000    0.17240    4.99260    1.20380    1.20360    1.22840    2.47410    1.20850   28.50660    1.20850    1.22840    1.20850    0.10050    0.00000    0.00000    0.29290    0.10050    1.00000    1.00000    0.00000    0.37400
 3415.40000    2.45550    2.45530    2.45400    2.45420    8.50000    8.69660    0.04130   77.20620  136.21890   57.42220 -999.25000    0.18060    5.38500    1.03410    1.08910    1.17420    2.45280    1.25910   26.79750    1.25900    1.17420    1.25900    0.10900    0.00000    0.00000    0.76300    0.11270    1.00000    0.96720    0.00000    0.36170
 3415.90000    2.43600    2.42270    2.41310    2.39920    8.50000    8.57910    0.04030   76.95730  137.22280   51.89080 -999.25000    0.19620    5.21960    1.07290    1.05610    1.05110    2.41260    0.96310   25.69620    0.96320    1.05110    0.96320    0.12420    0.00000    0.00000    4.94890    0.13570    1.00000    0.91540    0.00000    0.32330
 3416.40000    2.50330    2.49670    2.48510    2.49860    8.50000    8.69760    0.05650   77.38920  134.49080   47.77730 -999.25000    0.16430    6.37310    0.86170    0.95770    1.12890    2.49460    1.47750   25.86870    1.47700    1.12870    1.47700    0.08880    0.00000    0.00000    0.17830    0.08880    0.00000    1.00000    0.06970    0.29530
 3416.90000    2.36560    2.40200    2.40240    2.38340    8.50000    8.57980    0.05360   78.46990  136.99920   38.56960 -999.25000    0.20140    5.31890    0.84300    0.95750    0.84200    2.38240    0.75450   26.10880    0.75450    0.84210    0.75450    0.13860    0.00000    0.00000   26.82080    0.15290    1.00000    0.90650    0.00000    0.23150
 3417.40000    2.45200    2.44010    2.42950    2.45430    8.50000    8.69760    0.05170   76.23280  130.94030   50.86950 -999.25000    0.16810    5.92130    1.08070    0.99870    1.20200    2.44180    1.46430   26.86740    1.46430    1.20200    1.46430    0.10290    0.00000    0.00000    1.50090    0.11900    1.00000    0.86440    0.00000    0.31630
 3417.90000    2.47040    2.47350    2.46100    2.44480    8.50000    8.66370    0.06760   77.86440  136.66840   44.33880 -999.25000    0.18260    5.77820    0.99160    1.02540    0.99640    2.45630    0.94770   27.75340    0.94770    0.99640    0.94770    0.11060    0.00000    0.00000    0.99000    0.11060    1.00000    1.00000    0.02480    0.27130
 3418.40000    2.43340    2.42340    2.41240    2.40570    8.50000    8.66370    0.05400   78.93560  140.64810   36.72960 -999.25000    0.16270    5.84110    0.95560    1.04240    1.02020    2.42230    1.03930   28.36960    1.03930    1.02020    1.03930    0.11900    0.00000    0.00000    5.34450    0.13020    1.00000    0.91410    0.01360    0.21880
 3418.90000    2.45280    2.45760    2.43670    2.45050    8.50000    8.66400    0.06420   77.15990  138.65590   39.28950 -999.25000    0.16800    5.76000    1.07230    1.08900    1.07080    2.44680    1.03730   28.93410    1.03730    1.07080    1.03730    0.11610    0.00000    0.00000    1.74820    0.11610    1.00000    1.00000    0.04180    0.23650
 3419.40000    2.45310    2.44420    2.46880    2.46250    8.50000    8.69760    0.05810   75.42220  133.10130   33.68440 -999.25000    0.15140    5.94830    1.15010    1.11980    1.21000    2.45840    1.28500   29.47130    1.28500    1.21000    1.28500    0.10660    0.00000    0.00000    1.28240    0.10950    1.00000    0.97330    0.10800    0.19780
 3419.90000    2.42280    2.42990    2.42250    2.41440    8.50000    8.61360    0.05520   75.41280  135.51070   47.12900 -999.25000    0.19680    5.26610    1.11950    1.14220    1.24580    2.41510    1.33070   29.90320    1.33070    1.24580    1.33070    0.10840    0.00000    0.00000    5.15960    0.13420    1.00000    0.80800    0.00000    0.29040
 3420.40000    2.42320    2.42490    2.41950    2.40030    8.50000    8.69730    0.06080   75.70490  136.35670   46.08450 -999.25000    0.19150    5.88220    1.24730    1.20050    1.05910    2.41280    0.85710   29.97560    0.85710    1.05900    0.85710    0.12980    0.00000    0.00000    5.87340    0.13550    1.00000    0.95820    0.00000    0.28330
 3420.90000    2.41460    2.39610    2.41720    2.45710    8.50000    8.69760    0.05000   74.67830  133.73490   50.55740 -999.25000    0.16600    5.93050    1.20120    1.19200    1.35560    2.41840    1.49520   29.99420    1.49520    1.35560    1.49520    0.10330    0.00000    0.00000    4.05850    0.13240    1.00000    0.78050    0.00000    0.31420
 3421.40000    2.47820    2.48090    2.47430    2.49460    8.50000    8.74810    0.06440   73.84680  135.94040   53.48890 -999.25000    0.16720    6.31330    1.30930    1.26740    1.42980    2.47810    1.49490   29.99300    1.49480    1.42980    1.49480    0.09820    0.00000    0.00000    0.29820    0.09820    0.00000    1.00000    0.00410    0.33440
 3421.90000    2.47700    2.46580    2.46740    2.49050    8.50000    8.74810    0.05810   74.40110  135.13930   57.32960 -999.25000    0.16400    6.09790    1.36210    1.32560    1.41590    2.47070    1.39650   29.99310    1.39660    1.41600    1.39660    0.10250    0.00000    0.00000    0.36030    0.10250    1.00000    1.00000    0.00000    0.36100
 3422.40000    2.50810    2.47720    2.47580    2.49030    8.50000    8.74830    0.05840   73.86270  132.40230   57.04930 -999.25000    0.16500    6.07760    1.41760    1.34630    1.49760    2.48580    1.54980   29.99300    1.54980    1.49760    1.54980    0.09380    0.00000    0.00000    0.19260    0.09380    0.00000    1.00000    0.00000    0.35890
 3422.90000    2.47390    2.47400    2.46240    2.47270    8.50000    8.74790    0.05860   73.56630  131.56970   63.85080 -999.25000    0.15280    6.29690    1.49130    1.32090    1.59480    2.46750    1.77820   29.96790    1.77830    1.59480    1.77830    0.09400    0.00000    0.00000    0.33520    0.10430    1.00000    0.90160    0.00000    0.40590
