~Version ---------------------------------------------------
VERS.   2.0 : CWLS log ASCII Standard -VERSION 2.0
WRAP.    NO : One line per depth step
DLM . SPACE : Column Data Section Delimiter
~Well ------------------------------------------------------
STRT.ft  239.87760 : START DEPTH
STOP.ft 4186.87760 : STOP DEPTH
STEP.ft    0.50000 : STEP
NULL.      -999.25 : NULL VALUE
COMP. STATOILHYDRO : COMPANY
WELL.    15/9-F-12 : WELL
FLD .        VOLVE : FIELD
LOC .      UNKNOWN : LOCATION
PROV.              : PROVINCE
CNTY.      UNKNOWN : COUNTY
STAT.      UNKNOWN : STATE
CTRY.       Norway : COUNTRY
SRVC.      UNKNOWN : SERVICE COMPANY
DATE.      UNKNOWN : DATE
UWI . NO 15/9-F-12 : UNIQUE WELL ID
API .              : API NUMBER
~Curve Information -----------------------------------------
DEPT     .ft           : 
CARB_FLAG.UNKNOWN      : 
COAL_FLAG.UNKNOWN      : 
DT       .us/ft        : 
GR       .API          : 
NPHI     .v/v_decimal  : 
RD       .UNKNOWN      : 
RHOB     .g/cm3        : 
ROP5_RM  .UNKNOWN      : 
RS       .UNKNOWN      : 
RT       .ohm.m        : 
SAND_FLAG.UNKNOWN      : 
BVW      .v/v_decimal  : 
KLOGH    .mD           : 
PHIF     .v/v_decimal  : 
SW       .v/v_decimal  : 
VSH      .v/v_decimal  : 
~Params ----------------------------------------------------
~Other -----------------------------------------------------
~ASCII -----------------------------------------------------
# ...
 1486.87760 -999.25000 -999.25000  142.12385  144.24147    0.38178    1.28468    1.95464   49.87588    1.61538    1.12993 -999.25000 -999.25000 -999.25000 -999.25000 -999.25000 -999.25000
 1487.37760 -999.25000 -999.25000  139.08576  148.15981    0.42854    1.26648    1.97729   49.87698    1.58635    1.15958 -999.25000 -999.25000 -999.25000 -999.25000 -999.25000 -999.25000
 1487.87760 -999.25000 -999.25000  145.42077  130.52847    0.45268    1.32016    1.99043   49.88195    1.54902    1.14236 -999.25000 -999.25000 -999.25000 -999.25000 -999.25000 -999.25000
 1488.37760 -999.25000 -999.25000  144.55004  138.87258    0.26213    1.29150    1.99781   49.87262    1.43284    1.09227 -999.25000 -999.25000 -999.25000 -999.25000 -999.25000 -999.25000
 1488.87760 -999.25000 -999.25000  143.45381  135.34219    0.29270    1.25242    2.01695   49.87707    1.37478    1.14251 -999.25000 -999.25000 -999.25000 -999.25000 -999.25000 -999.25000
 1489.37760 -999.25000 -999.25000  144.21565  147.04575    0.37766    1.27915    1.97381   49.87645    1.61453    1.17392 -999.25000 -999.25000 -999.25000 -999.25000 -999.25000 -999.25000
 1489.87760 -999.25000 -999.25000  143.11643  146.48411    0.43368    1.27904    1.95953   49.87299    1.39051    1.10479 -999.25000 -999.25000 -999.25000 -999.25000 -999.25000 -999.25000
 1490.37760 -999.25000 -999.25000  137.60196  138.57186    0.37932    1.31098    2.00669   49.87876    1.33502    1.09317 -999.25000 -999.25000 -999.25000 -999.25000 -999.25000 -999.25000
 1490.87760 -999.25000 -999.25000  140.52639  130.01204    0.36061    1.31917    1.97937   49.87190    1.34073    1.20694 -999.25000 -999.25000 -999.25000 -999.25000 -999.25000 -999.25000
 1491.37760 -999.25000 -999.25000  140.27610  139.63003    0.43494    1.38031    1.98395   49.87934    1.57134    1.24411 -999.25000 -999.25000 -999.25000 -999.25000 -999.25000 -999.25000
 1491.87760 -999.25000 -999.25000  142.78527  132.84990    0.32933    1.32013    1.95699   49.87435    1.44726    1.20979 -999.25000 -999.25000 -999.25000 -999.25000 -999.25000 -999.25000
 1492.37760 -999.25000 -999.25000  143.51626  138.02870    0.40122    1.32398    1.97092   49.87376    1.78110    1.18486 -999.25000 -999.25000 -999.25000 -999.25000 -999.25000 -999.25000
 1492.87760 -999.25000 -999.25000  141.79104  142.85077    0.51270    1.26351    1.99880   50.06020    1.40997    1.17825 -999.25000 -999.25000 -999.25000 -999.25000 -999.25000 -999.25000
 1493.37760 -999.25000 -999.25000  140.13115  141.17168    0.40618    1.28440    2.00436   50.32990    1.34616    1.18399 -999.25000 -999.25000 -999.25000 -999.25000 -999.25000 -999.25000
 1493.87760 -999.25000 -999.25000  145.56680  137.48050    0.44246    1.30212    2.01222   50.33715    1.35087    1.20084 -999.25000 -999.25000 -999.25000 -999.25000 -999.25000 -999.25000
 1494.37760 -999.25000 -999.25000  143.57776  135.50291    0.39673    1.31632    2.00797   50.33463    1.53477    1.22294 -999.25000 -999.25000 -999.25000 -999.25000 -999.25000 -999.25000
 1494.87760 -999.25000 -999.25000  146.19555  147.88589    0.31271    1.32199    2.08758   50.76859    1.40567    1.18374 -999.25000 -999.25000 -999.25000 -999.25000 -999.25000 -999.25000
 1495.37760 -999.25000 -999.25000  143.97903  150.82628    0.37071    1.32740    2.03887   51.31901    1.46466    1.15452 -999.25000 -999.25000 -999.25000 -999.25000 -999.25000 -999.25000
 1495.87760 -999.25000 -999.25000  127.72808  136.62170    0.42654    1.37453    1.99113   52.12467    1.70634    1.20012 -999.25000 -999.25000 -999.25000 -999.25000 -999.25000 -999.25000
 1496.37760 -999.25000 -999.25000  147.20392  128.68049    0.40245    1.59381    1.99718   37.32320    2.24374    1.59872 -999.25000 -999.25000 -999.25000 -999.25000 -999.25000 -999.25000
 1496.87760 -999.25000 -999.25000  133.89319  145.21608    0.37073    1.47781    1.96755   37.33053    1.79164    1.22298 -999.25000 -999.25000 -999.25000 -999.25000 -999.25000 -999.25000
 1497.37760 -999.25000 -999.25000  102.46677  147.82743    0.34004    1.40491    2.06887   37.49857    1.70122    1.28367 -999.25000 -999.25000 -999.25000 -999.25000 -999.25000 -999.25000
 1497.87760 -999.25000 -999.25000  138.43090  146.12416    0.31053    1.33992    2.11029   52.24900    1.51512    1.15252 -999.25000 -999.25000 -999.25000 -999.25000 -999.25000 -999.25000
 1498.37760 -999.25000 -999.25000  139.04642  143.21550    0.47988    1.32967    1.99526   52.24900    1.58758    1.11027 -999.25000 -999.25000 -999.25000 -999.25000 -999.25000 -999.25000
 1498.87760 -999.25000 -999.25000  138.75360  154.18442    0.37017    1.33757    2.01038   52.24900    1.61901    1.13443 -999.25000 -999.25000 -999.25000 -999.25000 -999.25000 -999.25000
 1499.37760 -999.25000 -999.25000  138.63949  149.08054    0.48831    1.34078    2.01912   52.25686    1.63256    1.14846 -999.25000 -999.25000 -999.25000 -999.25000 -999.25000 -999.25000
 1499.87760 -999.25000 -999.25000  138.43224  146.27219    0.49933    1.34533    1.93924   52.24900    1.64338    1.18393 -999.25000 -999.25000 -999.25000 -999.25000 -999.25000 -999.25000
 1500.37760 -999.25000 -999.25000  140.12207  146.48452    0.43008    1.31861    1.90438   51.94425    1.59822    1.24663 -999.25000 -999.25000 -999.25000 -999.25000 -999.25000 -999.25000
 1500.87760 -999.25000 -999.25000  137.40231  152.61950    0.43776    1.36961    1.89760   52.03908    1.86963    1.24458 -999.25000 -999.25000 -999.25000 -999.25000 -999.25000 -999.25000
 1501.37760 -999.25000 -999.25000  143.38976  148.61239    0.46075    1.37973    1.86087   52.02732    1.78207    1.18654 -999.25000 -999.25000 -999.25000 -999.25000 -999.25000 -999.25000
 1501.87760 -999.25000 -999.25000  139.63546  147.66901    0.35429    1.40020    1.99717   52.24919    1.96750    1.22150 -999.25000 -999.25000 -999.25000 -999.25000 -999.25000 -999.25000
 1502.37760 -999.25000 -999.25000  143.11332  146.99321    0.29676    1.39232    2.06734   52.26103    2.01134    1.20995 -999.25000 -999.25000 -999.25000 -999.25000 -999.25000 -999.25000
 1502.87760 -999.25000 -999.25000  142.59340  140.57210    0.42073    1.37141    1.89897   52.24900    2.13767    1.15398 -999.25000 -999.25000 -999.25000 -999.25000 -999.25000 -999.25000
 1503.37760 -999.25000 -999.25000  138.43099  151.51272    0.32934    1.34022    1.98146   52.25159    2.10912    1.13976 -999.25000 -999.25000 -999.25000 -999.25000 -999.25000 -999.25000
 1503.87760 -999.25000 -999.25000  133.12597  141.64967    0.32725    1.30518    2.08567   52.24900    1.70218    1.15598 -999.25000 -999.25000 -999.25000 -999.25000 -999.25000 -999.25000
 1504.37760 -999.25000 -999.25000  126.91290  150.96988    0.37331    1.24071    2.04180   52.25510    1.73326    1.10404 -999.25000 -999.25000 -999.25000 -999.25000 -999.25000 -999.25000
 1504.87760 -999.25000 -999.25000  136.11493  143.93622    0.34856    1.07517    2.05726   52.24900    1.26857    0.92188 -999.25000 -999.25000 -999.25000 -999.25000 -999.25000 -999.25000
 1505.37760 -999.25000 -999.25000  139.98640  154.13486    0.50871    1.02490    1.98650   52.25345    1.39740    0.81010 -999.25000 -999.25000 -999.25000 -999.25000 -999.25000 -999.25000
 1505.87760 -999.25000 -999.25000  141.52537  143.85838    0.42703    1.03020    1.87146   52.24900    1.51329    0.85145 -999.25000 -999.25000 -999.25000 -999.25000 -999.25000 -999.25000
 1506.37760 -999.25000 -999.25000  141.54038  148.51297    0.41696    1.12128    1.87820   52.04274    1.43417    0.96553 -999.25000 -999.25000 -999.25000 -999.25000 -999.25000 -999.25000
 1506.87760 -999.25000 -999.25000  132.54078  146.50747    0.54579    1.12274    1.80998   52.04109    1.48679    0.93183 -999.25000 -999.25000 -999.25000 -999.25000 -999.25000 -999.25000
 1507.37760 -999.25000 -999.25000  144.17118  140.89785    0.49354    1.18965    1.92953   51.29997    1.75381    1.02626 -999.25000 -999.25000 -999.25000 -999.25000 -999.25000 -999.25000
 1507.87760 -999.25000 -999.25000  140.52124  134.12342    0.30821    1.12903    2.04059   50.47434    1.71871    1.17173 -999.25000 -999.25000 -999.25000 -999.25000 -999.25000 -999.25000
