~Version ---------------------------------------------------
VERS.   2.0 : CWLS log ASCII Standard -VERSION 2.0
WRAP.    NO : One line per depth step
DLM . SPACE : Column Data Section Delimiter
~Well ------------------------------------------------------
STRT.ft       145.90000 : START DEPTH
STOP.ft      3464.90000 : STOP DEPTH
STEP.ft         0.50000 : STEP
NULL.           -999.25 : NULL VALUE
COMP. Statoil Petroleum : COMPANY
WELL.        15/9-F-1 B : WELL
FLD .             VOLVE : FIELD
LOC .   Maersk Inspirer : LOCATION
PROV.                   : PROVINCE
CNTY.                   : COUNTY
STAT.                   : STATE
CTRY.                   : COUNTRY
SRVC.                   : SERVICE COMPANY
DATE.                   : DATE
UWI .                   : UNIQUE WELL ID
API .                   : API NUMBER
~Curve Information -----------------------------------------
DEPT     .ft        : 
ABDCQF01 .g/cm3     : 
ABDCQF02 .g/cm3     : 
ABDCQF03 .g/cm3     : 
ABDCQF04 .g/cm3     : 
BS       .inches    : 
CALI     .inches    : 
DRHO     .g/cm3     : 
DT       .us/ft     : 
DTS      .us/ft     : 
GR       .API       : 
NBGRCFM  .API       : 
NPHI     .v/v       : 
PEF      .b/elec    : 
RACEHM   .ohm.m     : 
RACELM   .ohm.m     : 
RD       .ohm.m     : 
RHOB     .g/cm3     : 
RM       .ohm.m     : 
ROP      .m/hr      : 
RPCEHM   .ohm.m     : 
RPCELM   .ohm.m     : 
RT       .ohm.m     : 
BVW      .V/V       : 
CARB_FLAG.V/V       : 
COAL_FLAG.UNITLESS  : 
KLOGH    .mD        : 
PHIF     .V/V       : 
SAND_FLAG.UNITLESS  : 
SW       .V/V       : 
VCARB    .V/V       : 
VSH      .V/V       : 
~Params ----------------------------------------------------
~Other -----------------------------------------------------
PETROPHYSICAL INTERPRETATION: INPUT

# --- LOG MNEMONICS AND UNITS ---
#Depth          ABDCQF01        ABDCQF02        ABDCQF03        ABDCQF04        BS              CALI            DRHO            DT              DTS             GR              NBGRCFM         NPHI            PEF             RACEHM          RACELM          RD              RHOB            RM              ROP             RPCEHM          RPCELM          RT
#M              g/cm3           g/cm3           g/cm3           g/cm3           inches          inches          g/cm3           us/ft           us/ft           API             API             v/v             b/elec          ohm.m           ohm.m           ohm.m           g/cm3           ohm.m           m/hr            ohm.m           ohm.m           ohm.m
~ASCII -----------------------------------------------------
# ...
 3193.40000    2.36110    2.31120    2.31650    2.29140    8.50000    8.66370    0.04380  119.78630 -999.25000  224.08730 -999.25000    0.42910    7.83500    2.63550    2.73170    2.44920    2.31180    2.25350   29.93810    2.25340    2.44910    2.25340 -999.25000 -999.25000 -999.25000 -999.25000 -999.25000 -999.25000 -999.25000 -999.25000 -999.25000
 3193.90000    2.30440    2.29550    2.32310    2.32120    8.50000    8.66370    0.03450  118.43140 -999.25000  199.47240 -999.25000    0.46320    7.33320    2.35920    2.41170    2.12330    2.30820    1.96970   29.93490    1.96970    2.12320    1.96970 -999.25000 -999.25000 -999.25000 -999.25000 -999.25000 -999.25000 -999.25000 -999.25000 -999.25000
 3194.40000    2.30760    2.29800    2.29770    2.30670    8.50000    8.59660    0.03980  117.91320 -999.25000  177.89190 -999.25000    0.41360    6.69070    2.04660    2.16240    1.85430    2.29820    1.67610   29.95790    1.67620    1.85430    1.67620 -999.25000 -999.25000 -999.25000 -999.25000 -999.25000 -999.25000 -999.25000 -999.25000 -999.25000
 3194.90000    2.28760    2.30980    2.28080    2.29540    8.50000    8.66370    0.04280  118.08830 -999.25000  170.49980 -999.25000    0.43130    6.47480    1.87550    1.98150    1.81570    2.28830    1.79210   29.92570    1.79200    1.81560    1.79200 -999.25000 -999.25000 -999.25000 -999.25000 -999.25000 -999.25000 -999.25000 -999.25000 -999.25000
 3195.40000    2.30520    2.30690    2.30500    2.30750    8.50000    8.52840    0.03270  117.99660 -999.25000  193.22470 -999.25000    0.44230    6.73480    1.83380    1.99350    1.79370    2.30880    1.71910   29.92170    1.71900    1.79370    1.71900 -999.25000 -999.25000 -999.25000 -999.25000 -999.25000 -999.25000 -999.25000 -999.25000 -999.25000
 3195.90000    2.28030    2.27230    2.26010    2.27750    8.50000    8.63850    0.03960  118.84190 -999.25000  175.06550 -999.25000    0.40010    6.71480    1.96770    2.09130    1.81800    2.27020    1.72510   29.94550    1.72500    1.81800    1.72500 -999.25000 -999.25000 -999.25000 -999.25000 -999.25000 -999.25000 -999.25000 -999.25000 -999.25000
 3196.40000    2.29300    2.30440    2.28900    2.29470    8.50000    8.66370    0.03500  120.75570 -999.25000  222.63380 -999.25000    0.43220    7.31190    2.21560    2.32200    2.05710    2.29340    1.91810   29.92150    1.91820    2.05720    1.91820 -999.25000 -999.25000 -999.25000 -999.25000 -999.25000 -999.25000 -999.25000 -999.25000 -999.25000
 3196.90000    2.26960    2.24650    2.25950    2.27350    8.50000    8.61340    0.01980  122.84960 -999.25000  225.14650 -999.25000    0.46600    6.14210    2.43800    2.51000    2.27580    2.26040    2.07570   29.92040    2.07570    2.27590    2.07570 -999.25000 -999.25000 -999.25000 -999.25000 -999.25000 -999.25000 -999.25000 -999.25000 -999.25000
 3197.40000    2.23730    2.21210    2.21610    2.23190    8.50000    8.51200    0.02260  124.44810 -999.25000  242.00400 -999.25000    0.44980    5.66200    2.64310    2.62570    2.42310    2.22230    2.14810   29.94130    2.14820    2.42310    2.14820 -999.25000 -999.25000 -999.25000 -999.25000 -999.25000 -999.25000 -999.25000 -999.25000 -999.25000
 3197.90000    2.17900    2.17280    2.16330    2.18240    8.50000    8.39270    0.01640  125.12420 -999.25000  272.21550 -999.25000    0.48720    5.58880    2.62100    2.44590    2.59420    2.16880    2.44590   29.92190    2.44560    2.59410    2.44560 -999.25000 -999.25000 -999.25000 -999.25000 -999.25000 -999.25000 -999.25000 -999.25000 -999.25000
 3198.40000    2.22050    2.23220    2.22680    2.24870    8.50000    8.66370    0.03980  125.73140 -999.25000  275.52270 -999.25000    0.49130    6.72350    2.40010    2.10220    2.34250    2.22740    2.18570   29.92910    2.18570    2.34250    2.18570 -999.25000 -999.25000 -999.25000 -999.25000 -999.25000 -999.25000 -999.25000 -999.25000 -999.25000
 3198.90000    2.22840    2.22610    2.22910    2.24030    8.50000    8.68050    0.03600  125.57640 -999.25000  284.08260 -999.25000    0.52270    7.40890    2.05300    1.53660    2.00400    2.22810    2.08880   30.01410    2.08890    2.00400    2.08890 -999.25000 -999.25000 -999.25000 -999.25000 -999.25000 -999.25000 -999.25000 -999.25000 -999.25000
 3199.40000    2.19630    2.22460    2.25130    2.20700    8.50000    8.68610    0.02290  118.41840 -999.25000  295.94820 -999.25000    0.46630    7.13410    1.34820    1.01520    1.26650    2.21370    1.38200   29.98100    1.38160    1.26610    1.38160 -999.25000 -999.25000 -999.25000 -999.25000 -999.25000 -999.25000 -999.25000 -999.25000 -999.25000
 3199.90000    2.42480    2.59800    2.58590    2.46580    8.50000    8.63810    0.01890   99.88050 -999.25000  246.44330 -999.25000    0.33800    7.65180    0.69970    0.72440    0.68500    2.53480    0.83930   29.94870    0.83910    0.68490    0.83910 -999.25000 -999.25000 -999.25000 -999.25000 -999.25000 -999.25000 -999.25000 -999.25000 -999.25000
 3200.40000    2.64210    2.63390    2.64290    2.63030    8.50000    8.69760    0.04680   88.23750 -999.25000  233.45830 -999.25000    0.34070    7.71550    0.53100    0.60060    0.81440    2.64710    0.99080   30.00070    0.99050    0.81420    0.99050 -999.25000 -999.25000 -999.25000 -999.25000 -999.25000 -999.25000 -999.25000 -999.25000 -999.25000
 3200.90000    2.58000    2.68200    2.63470    2.56100    8.50000    8.66400    0.06300   86.67300 -999.25000  198.76220 -999.25000    0.33670    7.92270    0.58540    0.59780    0.91700    2.60770    1.56150   29.05090    1.56180    0.91700    1.56180 -999.25000 -999.25000 -999.25000 -999.25000 -999.25000 -999.25000 -999.25000 -999.25000 -999.25000
 3201.40000    2.68590    2.78510    2.78640    2.79770    8.50000    8.65500    0.08260   87.23270 -999.25000  181.90720 -999.25000    0.31220    8.60330    1.13110    0.91210    0.30260    2.77100    0.22350   26.91460    0.22370    0.30270    0.22370 -999.25000 -999.25000 -999.25000 -999.25000 -999.25000 -999.25000 -999.25000 -999.25000 -999.25000
 3201.90000    2.62480    2.54240    2.52050    2.57650    8.50000    8.66370    0.07070   88.78760 -999.25000  159.66780 -999.25000    0.31990    7.20440    1.17550    1.00170    1.20890    2.56150    1.44330   27.11120    1.44340    1.20900    1.44340 -999.25000 -999.25000 -999.25000 -999.25000 -999.25000 -999.25000 -999.25000 -999.25000 -999.25000
 3202.40000    2.48070    2.48900    2.49810    2.48540    8.50000    8.66370    0.04950   92.17180 -999.25000  142.60970 -999.25000    0.29050    6.77030    1.70870    1.32360    1.71260    2.48910    1.83680   28.34090    1.83680    1.71260    1.83680 -999.25000 -999.25000 -999.25000 -999.25000 -999.25000 -999.25000 -999.25000 -999.25000 -999.25000
 3202.90000    2.50180    2.48450    2.48870    2.51150    8.50000    8.66370    0.05260   93.50580 -999.25000  135.05800 -999.25000    0.26960    7.02790    1.71700    1.58880    1.74390    2.49280    1.74920   27.29150    1.74920    1.74390    1.74920 -999.25000 -999.25000 -999.25000 -999.25000 -999.25000 -999.25000 -999.25000 -999.25000 -999.25000
 3203.40000    2.49110    2.49910    2.49270    2.51270    8.50000    8.66330    0.03970   96.44610 -999.25000  143.78120 -999.25000    0.30740    6.53410    1.67850    1.64870    1.62370    2.49600    1.52550   27.01000    1.52550    1.62370    1.52550 -999.25000 -999.25000 -999.25000 -999.25000 -999.25000 -999.25000 -999.25000 -999.25000 -999.25000
 3203.90000    2.47550    2.44970    2.47020    2.48720    8.50000    8.59660    0.04400   97.83320 -999.25000  138.23030 -999.25000    0.33660    5.90450    1.57690    1.61640    1.54590    2.47010    1.47980   25.90320    1.47980    1.54590    1.47980 -999.25000 -999.25000 -999.25000 -999.25000 -999.25000 -999.25000 -999.25000 -999.25000 -999.25000
 3204.40000    2.46580    2.50690    2.50950    2.49260    8.50000    8.57890    0.03550   95.48830  180.35480  128.47330 -999.25000    0.30110    5.44350    1.53790    1.57010    1.51770    2.49790    1.45530   26.85920    1.45530    1.51770    1.45530 -999.25000    0.00000    0.00000 -999.25000 -999.25000 -999.25000 -999.25000 -999.25000    0.98780
