~Version ---------------------------------------------------
VERS.   2.0 : CWLS log ASCII Standard -VERSION 2.0
WRAP.    NO : One line per depth step
DLM . SPACE : Column Data Section Delimiter
~Well ------------------------------------------------------
STRT.ft       145.90000 : START DEPTH
STOP.ft      3464.90000 : STOP DEPTH
STEP.ft         0.50000 : STEP
NULL.           -999.25 : NULL VALUE
COMP. Statoil Petroleum : COMPANY
WELL.        15/9-F-1 B : WELL
FLD .             VOLVE : FIELD
LOC .   Maersk Inspirer : LOCATION
PROV.                   : PROVINCE
CNTY.                   : COUNTY
STAT.                   : STATE
CTRY.                   : COUNTRY
SRVC.                   : SERVICE COMPANY
DATE.                   : DATE
UWI .                   : UNIQUE WELL ID
API .                   : API NUMBER
~Curve Information -----------------------------------------
DEPT     .ft        : 
ABDCQF01 .g/cm3     : 
ABDCQF02 .g/cm3     : 
ABDCQF03 .g/cm3     : 
ABDCQF04 .g/cm3     : 
BS       .inches    : 
CALI     .inches    : 
DRHO     .g/cm3     : 
DT       .us/ft     : 
DTS      .us/ft     : 
GR       .API       : 
NBGRCFM  .API       : 
NPHI     .v/v       : 
PEF      .b/elec    : 
RACEHM   .ohm.m     : 
RACELM   .ohm.m     : 
RD       .ohm.m     : 
RHOB     .g/cm3     : 
RM       .ohm.m     : 
ROP      .m/hr      : 
RPCEHM   .ohm.m     : 
RPCELM   .ohm.m     : 
RT       .ohm.m     : 
BVW      .V/V       : 
CARB_FLAG.V/V       : 
COAL_FLAG.UNITLESS  : 
KLOGH    .mD        : 
PHIF     .V/V       : 
SAND_FLAG.UNITLESS  : 
SW       .V/V       : 
VCARB    .V/V       : 
VSH      .V/V       : 
~Params ----------------------------------------------------
~Other -----------------------------------------------------
PETROPHYSICAL INTERPRETATION: INPUT

# --- LOG MNEMONICS AND UNITS ---
#Depth          ABDCQF01        ABDCQF02        ABDCQF03        ABDCQF04        BS              CALI            DRHO            DT              DTS             GR              NBGRCFM         NPHI            PEF             RACEHM          RACELM          RD              RHOB            RM              ROP             RPCEHM          RPCELM          RT
#M              g/cm3           g/cm3           g/cm3           g/cm3           inches          inches          g/cm3           us/ft           us/ft           API             API             v/v             b/elec          ohm.m           ohm.m           ohm.m           g/cm3           ohm.m           m/hr            ohm.m           ohm.m           ohm.m
~ASCII -----------------------------------------------------
# ...
 3273.90000    2.21740    2.22470    2.23870    2.23100    8.50000    8.66370    0.03040   84.21340  131.83370   19.04440 -999.25000    0.16990    5.21400    5.75360    6.11390    7.17630    2.23070    8.05160   29.91800    8.05080    7.17610    8.05080    0.05770    0.00000    0.00000 1128.77220    0.22180    1.00000    0.26020    0.00000    0.08020
 3274.40000    2.29840    2.28020    2.27480    2.31780    8.50000    8.61300    0.05850   84.99280  135.74460   17.18240 -999.25000    0.15630    5.19650    6.09220    5.93250    5.69190    2.28450    5.09270   29.96990    5.09380    5.69260    5.09380    0.06760    0.00000    0.00000  902.42720    0.19780    1.00000    0.34160    0.00000    0.06960
 3274.90000    2.25030    2.24270    2.24940    2.25490    8.50000    8.66370    0.03640   86.29930  137.26070   25.44790 -999.25000    0.17980    5.38780    5.41560    4.64710    5.31130    2.24810    5.15320   29.93760    5.15300    5.31100    5.15300    0.06960    0.00000    0.00000  509.61410    0.21970    1.00000    0.31660    0.00000    0.11670
 3275.40000    2.28940    2.27140    2.27320    2.27900    8.50000    8.66370    0.05240   85.05680  135.46320   21.51210 -999.25000    0.17410    5.50420    4.41610    3.52250    4.09710    2.27490    3.95870   29.98980    3.95900    4.09690    3.95900    0.07620    0.00000    0.00000  655.06370    0.20820    1.00000    0.36570    0.00000    0.09440
 3275.90000    2.25700    2.27500    2.33220    2.26970    8.50000    8.66370    0.01920   84.40880  133.10730   26.05370 -999.25000    0.19050    5.97950    2.11410    2.07080    2.68240    2.29760    3.54810   29.95740    3.54700    2.68200    3.54700    0.07990    0.00000    0.00000  376.84180    0.20720    1.00000    0.38550    0.00000    0.12010
 3276.40000    2.49940    2.50160    2.42580    2.46560    8.50000    8.66370    0.08540   84.31590  136.59290   35.63390 -999.25000    0.18550    5.81180    1.12480    1.46030    1.22360    2.45440    1.15960   29.92560    1.15980    1.22360    1.15980    0.11060    0.00000    0.00000   20.71860    0.11150    1.00000    0.99180    0.12810    0.17510
 3276.90000    2.37990    2.40250    2.40980    2.39980    8.50000    8.66370    0.05120   83.00760  138.35890   44.27620 -999.25000    0.17780    5.89440    1.01640    1.22730    0.95320    2.40310    0.82740   29.89330    0.82740    0.95320    0.82740    0.14060    0.00000    0.00000   20.26100    0.16580    1.00000    0.84800    0.00000    0.22440
 3277.40000    2.50910    2.53180    2.48790    2.51460    8.50000    8.69760    0.06060   80.81110  136.19860   53.26050 -999.25000    0.16710    6.20700    1.07620    1.24340    1.11870    2.50780    1.11540   29.94500    1.11540    1.11870    1.11540    0.08130    0.00000    0.00000    1.47360    0.08130    0.00000    1.00000    0.11580    0.27570
 3277.90000    2.56730    2.50360    2.51700    2.57910    8.50000    8.66370    0.09470   79.18310  132.76050   49.76340 -999.25000    0.15510    5.95170    1.62990    1.63610    1.28290    2.52870    0.95270   29.91290    0.95410    1.28330    0.95410    0.06910    0.00000    0.00000    1.76690    0.06910    0.00000    1.00000    0.18240    0.25620
 3278.40000    2.38110    2.38970    2.44530    2.40410    8.50000    8.66370    0.02910   79.89410  131.10670   44.25640 -999.25000    0.19780    6.12980    1.59850    1.70100    1.63090    2.41770    1.58350   29.88080    1.58340    1.63080    1.58340    0.10260    0.00000    0.00000   11.06840    0.13290    1.00000    0.77250    0.00000    0.22430
 3278.90000    2.36230    2.35460    2.33900    2.37190    8.50000    8.66370    0.03960   82.27310  134.98420   36.11750 -999.25000    0.21900    5.46240    1.56800    1.85760    1.47440    2.35180    1.24760   29.96210    1.24760    1.47450    1.24760    0.12280    0.00000    0.00000   99.89380    0.19980    1.00000    0.61450    0.00000    0.17770
 3279.40000    2.33980    2.29970    2.25600    2.30250    8.50000    8.66330    0.06910   89.17790  139.46230   36.12900 -999.25000    0.20320    5.29980    1.95290    2.12930    2.04300    2.27760    2.12010   29.79930    2.12030    2.04320    2.12030    0.10100    0.00000    0.00000  141.04040    0.21880    1.00000    0.46170    0.00000    0.17790
 3279.90000    2.18860    2.17700    2.17270    2.18090    8.50000    8.66370    0.04210   95.17630  151.95160   35.39020 -999.25000    0.21010    5.20110    2.72420    2.57180    2.91260    2.17670    3.22270   29.95250    3.22300    2.91280    3.22300    0.08830    0.00000    0.00000  307.04610    0.25630    1.00000    0.34450    0.00000    0.17370
 3280.40000    2.17170    2.16800    2.17170    2.18200    8.50000    8.61300    0.03820   94.66230  144.30980   33.12740 -999.25000    0.20450    5.19690    3.65580    3.26960    3.94580    2.17220    4.33760   30.00460    4.33760    3.94590    4.33760    0.07800    0.00000    0.00000  396.23540    0.25560    1.00000    0.30500    0.00000    0.16080
 3280.90000    2.22850    2.22710    2.22260    2.22230    8.50000    8.66330    0.03450   89.99310  140.27530   26.16010 -999.25000    0.18750    5.24570    4.13000    3.78310    4.38220    2.22350    4.49140   29.97220    4.49120    4.38210    4.49120    0.07410    0.00000    0.00000  578.52400    0.23130    1.00000    0.32050    0.00000    0.12090
 3281.40000    2.25370    2.26140    2.27050    2.27510    8.50000    8.61340    0.02920   88.27780  138.86730   33.18760 -999.25000    0.19900    5.55740    3.93100    3.79080    3.66870    2.26580    3.22800   29.94000    3.22870    3.66890    3.22870    0.08510    0.00000    0.00000  209.63030    0.22140    1.00000    0.38430    0.00000    0.16110
 3281.90000    2.44520    2.43930    2.48800    2.46720    8.50000    8.66370    0.04540   89.16400  142.51100   39.04000 -999.25000    0.19830    6.44060    3.29820    3.22190    3.39090    2.46820    3.54900   29.99230    3.54840    3.39060    3.54840    0.06930    0.00000    0.00000   12.09500    0.10400    1.00000    0.66600    0.13220    0.19440
 3282.40000    2.47470    2.45180    2.48960    2.47640    8.50000    8.66370    0.05100   83.62540  135.33630   46.53960 -999.25000    0.21090    6.04500    2.65210    2.67050    2.52920    2.47990    2.35500   29.96800    2.35510    2.52920    2.35510    0.08170    0.00000    0.00000    4.38070    0.09730    0.00000    0.84040    0.10490    0.23740
 3282.90000    2.48230    2.46510    2.45150    2.45100    8.50000    8.66370    0.07340   77.36450  123.37360   39.07190 -999.25000    0.12590    5.87870    2.28390    2.19490    2.57090    2.45300    3.22860   29.93580    3.22800    2.57070    3.22800    0.07540    0.00000    0.00000   18.65030    0.12780    1.00000    0.59020    0.04680    0.19460
 3283.40000    2.38860    2.32000    2.31340    2.31200    8.50000    8.66370    0.03230   81.66530  133.07290   51.69840 -999.25000    0.21000    5.45730    1.61300    1.92170    1.59130    2.32300    1.28870   29.95990    1.28860    1.59130    1.28860    0.12420    0.00000    0.00000   17.63150    0.20610    1.00000    0.60260    0.00000    0.26700
 3283.90000    2.37300    2.33260    2.30040    2.33010    8.50000    8.61300    0.05660   88.25020  143.89040   32.28730 -999.25000    0.21170    5.45870    1.46860    1.70680    1.80040    2.32240    2.17230   29.95560    2.17170    1.80020    2.17170    0.09820    0.00000    0.00000  178.55180    0.20690    1.00000    0.47450    0.00000    0.15590
 3284.40000    2.27910    2.29390    2.26990    2.24790    8.50000    8.66370    0.04050   89.79420  142.64740   39.40600 -999.25000    0.21740    5.57020    1.48720    1.61500    1.66270    2.26940    1.72890   29.92330    1.72890    1.66270    1.72890    0.11110    0.00000    0.00000  112.41380    0.22750    1.00000    0.48850    0.00000    0.19660
 3284.90000    2.27390    2.26570    2.26500    2.26870    8.50000    8.66370    0.03940   89.50330  141.29010   56.04390 -999.25000    0.21610    5.62500    1.51180    1.53070    1.50360    2.26520    1.49980   29.94820    1.49970    1.50350    1.49970    0.11990    0.00000    0.00000   16.01040    0.22840    1.00000    0.52520    0.00000    0.29140
