~Version ---------------------------------------------------
VERS.   2.0 : CWLS log ASCII Standard -VERSION 2.0
WRAP.    NO : One line per depth step
DLM . SPACE : Column Data Section Delimiter
~Well ------------------------------------------------------
STRT.ft  239.87760 : START DEPTH
STOP.ft 4186.87760 : STOP DEPTH
STEP.ft    0.50000 : STEP
NULL.      -999.25 : NULL VALUE
COMP. STATOILHYDRO : COMPANY
WELL.    15/9-F-12 : WELL
FLD .        VOLVE : FIELD
LOC .      UNKNOWN : LOCATION
PROV.              : PROVINCE
CNTY.      UNKNOWN : COUNTY
STAT.      UNKNOWN : STATE
CTRY.       Norway : COUNTRY
SRVC.      UNKNOWN : SERVICE COMPANY
DATE.      UNKNOWN : DATE
UWI . NO 15/9-F-12 : UNIQUE WELL ID
API .              : API NUMBER
~Curve Information -----------------------------------------
DEPT     .ft           : 
CARB_FLAG.UNKNOWN      : 
COAL_FLAG.UNKNOWN      : 
DT       .us/ft        : 
GR       .API          : 
NPHI     .v/v_decimal  : 
RD       .UNKNOWN      : 
RHOB     .g/cm3        : 
ROP5_RM  .UNKNOWN      : 
RS       .UNKNOWN      : 
RT       .ohm.m        : 
SAND_FLAG.UNKNOWN      : 
BVW      .v/v_decimal  : 
KLOGH    .mD           : 
PHIF     .v/v_decimal  : 
SW       .v/v_decimal  : 
VSH      .v/v_decimal  : 
~Params ----------------------------------------------------
~Other -----------------------------------------------------
~ASCII -----------------------------------------------------
# ...
 1959.87760 -999.25000 -999.25000  135.81735  131.81871    0.42487    0.66041    2.08429   49.02890    0.99972    0.61308 -999.25000 -999.25000 -999.25000 -999.25000 -999.25000 -999.25000
 1960.37760 -999.25000 -999.25000  135.94402  131.09508    0.50148    0.65682    2.00571   49.41140    0.78586    0.60003 -999.25000 -999.25000 -999.25000 -999.25000 -999.25000 -999.25000
 1960.87760 -999.25000 -999.25000  136.78302  130.18199    0.36578    0.65831    2.05731   49.81492    0.74842    0.60832 -999.25000 -999.25000 -999.25000 -999.25000 -999.25000 -999.25000
 1961.37760 -999.25000 -999.25000  137.40689  137.28588    0.41075    0.66112    1.92892   49.18746    0.72877    0.61578 -999.25000 -999.25000 -999.25000 -999.25000 -999.25000 -999.25000
 1961.87760 -999.25000 -999.25000  136.05325  130.52520    0.50991    0.65731    1.92725   49.42595    0.74424    0.62112 -999.25000 -999.25000 -999.25000 -999.25000 -999.25000 -999.25000
 1962.37760 -999.25000 -999.25000  137.56636  135.52176    0.44230    0.66024    2.03687   49.06434    0.80518    0.62439 -999.25000 -999.25000 -999.25000 -999.25000 -999.25000 -999.25000
 1962.87760 -999.25000 -999.25000  134.78036  134.81996    0.45711    0.68148    1.94773   49.43109    0.78237    0.63176 -999.25000 -999.25000 -999.25000 -999.25000 -999.25000 -999.25000
 1963.37760 -999.25000 -999.25000  139.89416  126.77819    0.57680    0.67137    1.92963   49.00384    0.92812    0.60714 -999.25000 -999.25000 -999.25000 -999.25000 -999.25000 -999.25000
 1963.87760 -999.25000 -999.25000  135.41111  131.80864    0.43452    0.66143    1.96271   47.71041    0.86255    0.62375 -999.25000 -999.25000 -999.25000 -999.25000 -999.25000 -999.25000
 1964.37760 -999.25000 -999.25000  138.31463  131.83888    0.42259    0.64908    2.04310   38.93665    0.91823    0.61843 -999.25000 -999.25000 -999.25000 -999.25000 -999.25000 -999.25000
 1964.87760 -999.25000 -999.25000  132.60586  137.28195    0.39557    0.65816    2.15678   39.17967    0.83606    0.62650 -999.25000 -999.25000 -999.25000 -999.25000 -999.25000 -999.25000
 1965.37760 -999.25000 -999.25000  130.25269  137.82058    0.36366    0.64141    2.17769   40.11658    1.00919    0.61699 -999.25000 -999.25000 -999.25000 -999.25000 -999.25000 -999.25000
 1965.87760 -999.25000 -999.25000  134.57204  133.21272    0.35359    0.65090    2.17311   49.39233    0.93318    0.55698 -999.25000 -999.25000 -999.25000 -999.25000 -999.25000 -999.25000
 1966.37760 -999.25000 -999.25000  140.83027  133.38850    0.32054    0.66818    2.14850   49.43310    0.93128    0.57937 -999.25000 -999.25000 -999.25000 -999.25000 -999.25000 -999.25000
 1966.87760 -999.25000 -999.25000  138.60245  132.55022    0.33940    0.67732    2.16354   49.25587    0.82414    0.64154 -999.25000 -999.25000 -999.25000 -999.25000 -999.25000 -999.25000
 1967.37760 -999.25000 -999.25000  129.91155  132.08404    0.38275    0.66468    2.16510   49.42691    0.91329    0.64705 -999.25000 -999.25000 -999.25000 -999.25000 -999.25000 -999.25000
 1967.87760 -999.25000 -999.25000  122.88972  135.50212    0.33573    0.71801    2.05071   48.98060    0.88304    0.67858 -999.25000 -999.25000 -999.25000 -999.25000 -999.25000 -999.25000
 1968.37760 -999.25000 -999.25000  125.63614  136.16169    0.36809    0.76898    2.20141   49.42718    1.28940    0.72202 -999.25000 -999.25000 -999.25000 -999.25000 -999.25000 -999.25000
 1968.87760 -999.25000 -999.25000  133.09508  108.28827    0.20898    0.79937    2.59354   48.98456    3.10521    1.27805 -999.25000 -999.25000 -999.25000 -999.25000 -999.25000 -999.25000
 1969.37760 -999.25000 -999.25000  132.59086  127.33079    0.27727    0.70789    2.35490   44.54903    1.02211    0.65900 -999.25000 -999.25000 -999.25000 -999.25000 -999.25000 -999.25000
 1969.87760 -999.25000 -999.25000  130.87611  128.68159    0.34042    0.69045    2.16397   35.69074    1.01309    0.61072 -999.25000 -999.25000 -999.25000 -999.25000 -999.25000 -999.25000
 1970.37760 -999.25000 -999.25000  127.65768  137.42311    0.32748    0.67101    2.17817   35.85651    0.86901    0.64016 -999.25000 -999.25000 -999.25000 -999.25000 -999.25000 -999.25000
 1970.87760 -999.25000 -999.25000  129.07255  141.87372    0.33702    0.69624    2.13425   38.41770    1.23316    0.67785 -999.25000 -999.25000 -999.25000 -999.25000 -999.25000 -999.25000
 1971.37760 -999.25000 -999.25000  130.56832  131.61641    0.40725    0.69000    2.13511   49.26286    1.05000    0.57663 -999.25000 -999.25000 -999.25000 -999.25000 -999.25000 -999.25000
 1971.87760 -999.25000 -999.25000  130.51874  135.75018    0.34685    0.70222    2.06723   49.41324    0.84415    0.61591 -999.25000 -999.25000 -999.25000 -999.25000 -999.25000 -999.25000
 1972.37760 -999.25000 -999.25000  130.84436  129.33068    0.28960    0.67363    2.01106   49.77456    1.01914    0.66551 -999.25000 -999.25000 -999.25000 -999.25000 -999.25000 -999.25000
 1972.87760 -999.25000 -999.25000  129.79549  131.00513    0.32693    0.67041    2.05854   49.08572    0.92309    0.66971 -999.25000 -999.25000 -999.25000 -999.25000 -999.25000 -999.25000
 1973.37760 -999.25000 -999.25000  129.67491  133.44369    0.44069    0.66423    2.06684   49.18993    0.89740    0.63690 -999.25000 -999.25000 -999.25000 -999.25000 -999.25000 -999.25000
 1973.87760 -999.25000 -999.25000  131.53473  133.53108    0.33519    0.65306    2.13089   49.00451    0.99692    0.58482 -999.25000 -999.25000 -999.25000 -999.25000 -999.25000 -999.25000
 1974.37760 -999.25000 -999.25000  128.65164  137.91862    0.45270    0.69060    2.04596   49.38026    0.95996    0.55634 -999.25000 -999.25000 -999.25000 -999.25000 -999.25000 -999.25000
 1974.87760 -999.25000 -999.25000  130.44130  136.62840    0.36101    0.67308    2.09503   49.17456    0.76823    0.62733 -999.25000 -999.25000 -999.25000 -999.25000 -999.25000 -999.25000
 1975.37760 -999.25000 -999.25000  133.31886  129.51003    0.27841    0.66952    2.11286   49.43024    0.78490    0.65265 -999.25000 -999.25000 -999.25000 -999.25000 -999.25000 -999.25000
 1975.87760 -999.25000 -999.25000  141.12473  128.66474    0.42149    0.64388    1.92489   49.00164    0.74125    0.63529 -999.25000 -999.25000 -999.25000 -999.25000 -999.25000 -999.25000
 1976.37760 -999.25000 -999.25000  132.62197  128.51771    0.38891    0.64189    1.97340   49.41372    0.72333    0.60958 -999.25000 -999.25000 -999.25000 -999.25000 -999.25000 -999.25000
 1976.87760 -999.25000 -999.25000  130.14152  135.65982    0.36217    0.66315    2.00490   49.12028    0.81280    0.66147 -999.25000 -999.25000 -999.25000 -999.25000 -999.25000 -999.25000
 1977.37760 -999.25000 -999.25000  133.70477  133.82017    0.37220    0.66252    2.03656   49.43225    0.86666    0.65349 -999.25000 -999.25000 -999.25000 -999.25000 -999.25000 -999.25000
 1977.87760 -999.25000 -999.25000  131.00672  131.94877    0.38299    0.66350    1.93411   49.32347    0.84721    0.61051 -999.25000 -999.25000 -999.25000 -999.25000 -999.25000 -999.25000
 1978.37760 -999.25000 -999.25000  133.17749  124.78310    0.39864    0.68935    2.07014   49.28114    0.84424    0.63028 -999.25000 -999.25000 -999.25000 -999.25000 -999.25000 -999.25000
 1978.87760 -999.25000 -999.25000  133.71026  133.11556    0.45654    0.70635    1.91598   49.14607    0.92885    0.59170 -999.25000 -999.25000 -999.25000 -999.25000 -999.25000 -999.25000
 1979.37760 -999.25000 -999.25000  132.59832  130.54085    0.34445    0.66563    2.00970   49.08478    0.80371    0.61099 -999.25000 -999.25000 -999.25000 -999.25000 -999.25000 -999.25000
 1979.87760 -999.25000 -999.25000  126.92094  128.12049    0.47333    0.68826    1.94793   49.33794    0.79092    0.60829 -999.25000 -999.25000 -999.25000 -999.25000 -999.25000 -999.25000
 1980.37760 -999.25000 -999.25000  134.12758  128.62873    0.42234    0.64660    1.88419   48.98060    0.75137    0.66078 -999.25000 -999.25000 -999.25000 -999.25000 -999.25000 -999.25000
 1980.87760 -999.25000 -999.25000  134.28079  127.53694    0.41281    0.65331    1.87301   49.43310    0.83416    0.61038 -999.25000 -999.25000 -999.25000 -999.25000 -999.25000 -999.25000
