~Version ---------------------------------------------------
VERS.   2.0 : CWLS log ASCII Standard -VERSION 2.0
WRAP.    NO : One line per depth step
DLM . SPACE : Column Data Section Delimiter
~Well ------------------------------------------------------
STRT.ft          188.50000 : START DEPTH
STOP.ft         3762.00000 : STOP DEPTH
STEP.ft            0.50000 : STEP
NULL.              -999.25 : NULL VALUE
COMP. Statoil Petroleum AS : COMPANY
WELL.          15/9-F-11 A : WELL
FLD .                VOLVE : FIELD
LOC .      Maersk Inspirer : LOCATION
PROV.                      : PROVINCE
CNTY.                      : COUNTY
STAT.                      : STATE
CTRY.                      : COUNTRY
SRVC.                      : SERVICE COMPANY
DATE.                      : DATE
UWI .                      : UNIQUE WELL ID
API .                      : API NUMBER
~Curve Information -----------------------------------------
DEPT     .ft       : 
ABDCQF01 .g/cm3    : 
ABDCQF02 .g/cm3    : 
ABDCQF03 .g/cm3    : 
ABDCQF04 .g/cm3    : 
BS       .inches   : 
CALI     .inches   : 
DRHO     .g/cm3    : 
DT       .us/ft    : 
DTS      .us/ft    : 
GR       .API      : 
NPHI     .v/v      : 
PEF      .b/elec   : 
RACEHM   .ohm.m    : 
RACELM   .ohm.m    : 
RD       .ohm.m    : 
RHOB     .g/cm3    : 
RM       .ohm.m    : 
ROP      .m/hr     : 
RPCEHM   .ohm.m    : 
RPCELM   .ohm.m    : 
RT       .ohm.m    : 
BVW      .v/v      : 
CARB_FLAG.UNKNOWN  : 
COAL_FLAG.UNKNOWN  : 
KLOGH    .mD       : 
PHIF     .v/v      : 
SAND_FLAG.UNKNOWN  : 
SW       .v/v      : 
VSH      .v/v      : 
~Params ----------------------------------------------------
~Other -----------------------------------------------------
PETROPHYSICAL_INTERPRETATION: INPUT

# --- LOG MNEMONICS AND UNITS ---
#Depth     ABDCQF01   ABDCQF02   ABDCQF03   ABDCQF04   BS         CALI       DRHO       DT         DTS        GR         NPHI       PEF        RACEHM     RACELM     RD         RHOB       RM         ROP        RPCEHM     RPCELM     RT
#M         g/cm3      g/cm3      g/cm3      g/cm3      inches     inches     g/cm3      us/ft      us/ft      API        v/v        b/elec     ohm.m      ohm.m      ohm.m      g/cm3      ohm.m      m/hr       ohm.m      ohm.m      ohm.m
~ASCII -----------------------------------------------------
# ...
 3188.50000    2.51300    2.54000    2.54700    2.51700    8.50000    8.75000    0.06400   70.05800  130.65200   10.76300    0.12100    8.29400    2.16200    2.18100    2.36100    2.53300    2.80900   12.76600    2.80900    2.36100    2.80900 -999.25000 -999.25000 -999.25000 -999.25000 -999.25000 -999.25000 -999.25000 -999.25000
 3189.00000    2.53400    2.50900    2.51500    2.52800    8.50000    8.70300    0.06500   69.55800  129.23900   10.56100    0.12800    8.12500    2.08200    2.12500    2.28600    2.51700    2.68900   16.56200    2.68900    2.28600    2.68900 -999.25000 -999.25000 -999.25000 -999.25000 -999.25000 -999.25000 -999.25000 -999.25000
 3189.50000    2.47800    2.50900    2.50800    2.49600    8.50000    8.70300    0.06100   69.95200  131.24100    8.51900    0.12900    8.01300    2.02400    2.08100    2.17900    2.49800    2.44900   16.08400    2.44900    2.17900    2.44900 -999.25000 -999.25000 -999.25000 -999.25000 -999.25000 -999.25000 -999.25000 -999.25000
 3190.00000    2.47300    2.49100    2.50300    2.50600    8.50000    8.70300    0.05500   70.63800  132.76400   10.20400    0.14700    7.90500    1.92500    2.01000    2.06000    2.49400    2.24000   13.39900    2.24000    2.06000    2.24000 -999.25000 -999.25000 -999.25000 -999.25000 -999.25000 -999.25000 -999.25000 -999.25000
 3190.50000    2.47800    2.49900    2.46800    2.47600    8.50000    8.68700    0.05800   71.84500  132.55600   10.33400    0.14300    7.89900    1.88200    1.96800    1.99500    2.47700    2.12900   11.08800    2.12900    1.99500    2.12900 -999.25000 -999.25000 -999.25000 -999.25000 -999.25000 -999.25000 -999.25000 -999.25000
 3191.00000    2.52100    2.48100    2.49800    2.48900    8.50000    8.67200    0.06800   71.09500  132.96400    9.29000    0.14700    8.10700    1.85300    1.93100    1.93300    2.49100    2.00000   11.11100    2.00000    1.93300    2.00000 -999.25000 -999.25000 -999.25000 -999.25000 -999.25000 -999.25000 -999.25000 -999.25000
 3191.50000    2.46400    2.47400    2.47300    2.46800    8.50000    8.67200    0.05900   71.10800  133.42500    9.11700    0.14900    8.03900    1.82800    1.88300    1.88600    2.47000    1.94600   13.58800    1.94600    1.88600    1.94600 -999.25000 -999.25000 -999.25000 -999.25000 -999.25000 -999.25000 -999.25000 -999.25000
 3192.00000    2.46400    2.46900    2.49300    2.48400    8.50000    8.67200    0.06100   71.52000  133.17400    8.59000    0.15300    7.93600    1.78800    1.83500    1.85700    2.47900    1.95600   18.10400    1.95600    1.85700    1.95600 -999.25000 -999.25000 -999.25000 -999.25000 -999.25000 -999.25000 -999.25000 -999.25000
 3192.50000    2.46400    2.47800    2.50800    2.46600    8.50000    8.67200    0.05700   72.68500  134.01300    9.61300    0.14800    8.11900    1.73700    1.78900    1.84900    2.48100    2.02600   19.89100    2.02700    1.84900    2.02600 -999.25000 -999.25000 -999.25000 -999.25000 -999.25000 -999.25000 -999.25000 -999.25000
 3193.00000    2.46900    2.49800    2.51600    2.47200    8.50000    8.67200    0.05100   72.66600  135.47100   10.78300    0.14700    8.10200    1.69000    1.75900    1.85600    2.49000    2.13600   22.56100    2.13600    1.85600    2.13600 -999.25000 -999.25000 -999.25000 -999.25000 -999.25000 -999.25000 -999.25000 -999.25000
 3193.50000    2.49000    2.50500    2.51100    2.49200    8.50000    8.67200    0.05400   72.47900  135.20900   13.24000    0.15100    8.04200    1.67100    1.75700    1.87100    2.49900    2.19500   23.88700    2.19500    1.87100    2.19500 -999.25000 -999.25000 -999.25000 -999.25000 -999.25000 -999.25000 -999.25000 -999.25000
 3194.00000    2.51800    2.50300    2.50200    2.50900    8.50000    8.70300    0.06700   73.18700  136.07400   14.45200    0.15300    8.28200    1.68600    1.77600    1.88400    2.50500    2.16200   24.86700    2.16200    1.88400    2.16200 -999.25000 -999.25000 -999.25000 -999.25000 -999.25000 -999.25000 -999.25000 -999.25000
 3194.50000    2.47500    2.49400    2.46300    2.48600    8.50000    8.70300    0.06500   73.10200  136.33400   11.63600    0.15400    8.17000    1.73800    1.81200    1.89300    2.47500    2.08400   25.76000    2.08400    1.89300    2.08400 -999.25000 -999.25000 -999.25000 -999.25000 -999.25000 -999.25000 -999.25000 -999.25000
 3195.00000    2.50300    2.48500    2.46500    2.48700    8.50000    8.75000    0.06300   72.19200  134.46100   11.32800    0.14000    8.15400    1.74300    1.84200    1.88500    2.48300    2.02000   26.58800    2.02000    1.88500    2.02000 -999.25000 -999.25000 -999.25000 -999.25000 -999.25000 -999.25000 -999.25000 -999.25000
 3195.50000    2.51200    2.50800    2.47700    2.51000    8.50000    8.70300    0.05500   71.49500  132.18400   11.53300    0.13500    8.11500    1.83100    1.88300    1.97500    2.49700    2.23700   26.11200    2.23800    1.97500    2.23700 -999.25000 -999.25000 -999.25000 -999.25000 -999.25000 -999.25000 -999.25000 -999.25000
 3196.00000    2.50300    2.51800    2.53600    2.52000    8.50000    8.70300    0.06400   71.47500  132.53000   11.68300    0.13400    8.38300    1.89000    1.90900    2.07000    2.51800    2.44400   25.12600    2.44400    2.07000    2.44400 -999.25000 -999.25000 -999.25000 -999.25000 -999.25000 -999.25000 -999.25000 -999.25000
 3196.50000    2.51000    2.52400    2.52200    2.50500    8.50000    8.70300    0.06000   70.96900  134.23500   12.42200    0.13300    8.16200    1.96300    1.93300    2.13800    2.51600    2.58300   20.47100    2.58300    2.13800    2.58300 -999.25000 -999.25000 -999.25000 -999.25000 -999.25000 -999.25000 -999.25000 -999.25000
 3197.00000    2.49700    2.52800    2.53200    2.51000    8.50000    8.70300    0.06200   70.55900  134.35800   11.78800    0.13100    8.25800    1.97200    1.94500    2.14300    2.51800    2.54000   12.70900    2.54000    2.14300    2.54000 -999.25000 -999.25000 -999.25000 -999.25000 -999.25000 -999.25000 -999.25000 -999.25000
 3197.50000    2.50600    2.51700    2.51500    2.50100    8.50000    8.70300    0.05900   70.49200  133.77500   12.64100    0.13300    8.07700    1.94700    1.92400    2.10400    2.51000    2.46300    8.87100    2.46300    2.10400    2.46300 -999.25000 -999.25000 -999.25000 -999.25000 -999.25000 -999.25000 -999.25000 -999.25000
 3198.00000    2.50400    2.50600    2.48500    2.50600    8.50000    8.70300    0.06200   70.75100  131.70600   10.68300    0.14000    8.13900    1.87700    1.89200    2.04900    2.49500    2.37000    8.35600    2.37000    2.04900    2.37000 -999.25000 -999.25000 -999.25000 -999.25000 -999.25000 -999.25000 -999.25000 -999.25000
 3198.50000    2.52300    2.49300    2.48900    2.48700    8.50000    8.67200    0.06100   70.83000  132.77700   10.31600    0.13900    8.06200    1.82500    1.86600    1.96100    2.49200    2.19000   11.62900    2.19000    1.96100    2.19000 -999.25000 -999.25000 -999.25000 -999.25000 -999.25000 -999.25000 -999.25000 -999.25000
 3199.00000    2.46700    2.48400    2.48600    2.48600    8.50000    8.70300    0.05900   71.15600  135.13500    8.98500    0.14500    8.24500    1.78500    1.85100    1.90400    2.48000    2.05800    7.95500    2.05700    1.90400    2.05800 -999.25000 -999.25000 -999.25000 -999.25000 -999.25000 -999.25000 -999.25000 -999.25000
 3199.50000    2.48500    2.48600    2.48400    2.49200    8.50000    8.70300    0.06200   72.23000  134.39900   10.93600    0.15400    8.06300    1.75500    1.83500    1.87900    2.48600    2.00200   12.15200    2.00200    1.87900    2.00200 -999.25000 -999.25000 -999.25000 -999.25000 -999.25000 -999.25000 -999.25000 -999.25000
 3200.00000    2.49100    2.48200    2.46500    2.48700    8.50000    8.70300    0.06700   72.65600  135.35000    8.62800    0.15300    8.20500    1.74800    1.83000    1.82900    2.47700    1.88300   17.77800    1.88300    1.82900    1.88300 -999.25000 -999.25000 -999.25000 -999.25000 -999.25000 -999.25000 -999.25000 -999.25000
 3200.50000    2.45300    2.46600    2.47700    2.46300    8.50000    8.70300    0.06200   71.87500  133.34500    8.89600    0.15100    8.07600    1.74500    1.81700    1.81200    2.46500    1.86900   20.61900    1.86900    1.81200    1.86900 -999.25000 -999.25000 -999.25000 -999.25000 -999.25000 -999.25000 -999.25000 -999.25000
