~Version ---------------------------------------------------
VERS.   2.0 : CWLS log ASCII Standard -VERSION 2.0
WRAP.    NO : One line per depth step
DLM . SPACE : Column Data Section Delimiter
~Well ------------------------------------------------------
STRT.ft          188.50000 : START DEPTH
STOP.ft         4770.50000 : STOP DEPTH
STEP.ft            0.50000 : STEP
NULL.              -999.25 : NULL VALUE
COMP. Statoil Petroleum AS : COMPANY
WELL.          15/9-F-11 B : WELL
FLD .                VOLVE : FIELD
LOC .      Maersk Inspirer : LOCATION
PROV.                      : PROVINCE
CNTY.                      : COUNTY
STAT.                      : STATE
CTRY.                      : COUNTRY
SRVC.                      : SERVICE COMPANY
DATE.                      : DATE
UWI .                      : UNIQUE WELL ID
API .                      : API NUMBER
~Curve Information -----------------------------------------
DEPT     .ft        : 
ABDCQF01 .g/cm3     : 
ABDCQF02 .g/cm3     : 
ABDCQF03 .g/cm3     : 
ABDCQF04 .g/cm3     : 
BS       .inches    : 
CALI     .inches    : 
DRHO     .g/cm3     : 
GR       .API       : 
NPHI     .v/v       : 
PEF      .b/elec    : 
RACEHM   .ohm.m     : 
RACELM   .ohm.m     : 
RD       .ohm.m     : 
RHOB     .g/cm3     : 
RM       .ohm.m     : 
ROP      .m/hr      : 
RPCEHM   .ohm.m     : 
RPCELM   .ohm.m     : 
RT       .ohm.m     : 
BVW      .v/v       : 
CARB_FLAG.unitless  : 
COAL_FLAG.unitless  : 
KLOGH    .mD        : 
PHIF     .v/v       : 
SAND_FLAG.UNKNOWN   : 
SW       .v/v       : 
VSH      .v/v       : 
~Params ----------------------------------------------------
~Other -----------------------------------------------------
PETROPHYSICAL_INTERPRETATION: INPUT

# --- LOG MNEMONICS AND UNITS ---
#Depth     ABDCQF01   ABDCQF02   ABDCQF03   ABDCQF04   BS         CALI       DRHO       GR         NPHI       PEF        RACEHM     RACELM     RD         RHOB       RM         ROP        RPCEHM     RPCELM     RT
#M         g/cm3      g/cm3      g/cm3      g/cm3      inches     inches     g/cm3      API        v/v        b/elec     ohm.m      ohm.m      ohm.m      g/cm3      ohm.m      m/hr       ohm.m      ohm.m      ohm.m
~ASCII -----------------------------------------------------
# ...
 3204.50000 -999.25000 -999.25000 -999.25000 -999.25000    8.50000    8.55200    0.05900    5.78700    0.07900    7.04900    7.64700    7.25600    7.97000    2.60300    8.09700   17.63900    8.09700    7.97000    8.09700 -999.25000 -999.25000 -999.25000 -999.25000 -999.25000 -999.25000 -999.25000 -999.25000
 3205.00000 -999.25000 -999.25000 -999.25000 -999.25000    8.50000    8.54700    0.05500   18.75700    0.10300    6.93600    7.92800    7.52900    6.48700    2.57800    5.62400   17.38100    5.62400    6.48700    5.62400 -999.25000 -999.25000 -999.25000 -999.25000 -999.25000 -999.25000 -999.25000 -999.25000
 3205.50000 -999.25000 -999.25000 -999.25000 -999.25000    8.50000    8.54700    0.05600   19.75700    0.08100    7.23900    7.61700    7.26700    6.56700    2.60400    5.78500   17.37600    5.78500    6.56700    5.78500 -999.25000 -999.25000 -999.25000 -999.25000 -999.25000 -999.25000 -999.25000 -999.25000
 3206.00000 -999.25000 -999.25000 -999.25000 -999.25000    8.50000    8.55500    0.04900    9.15600    0.06400    7.12600    7.04600    7.07800    7.17200    2.59800    7.01500   18.17200    7.01500    7.17200    7.01500 -999.25000 -999.25000 -999.25000 -999.25000 -999.25000 -999.25000 -999.25000 -999.25000
 3206.50000 -999.25000 -999.25000 -999.25000 -999.25000    8.50000    8.54700    0.06000   14.46400    0.07500    7.29200    6.75000    6.86000    7.24700    2.60100    7.64600   17.41800    7.64600    7.24700    7.64600 -999.25000 -999.25000 -999.25000 -999.25000 -999.25000 -999.25000 -999.25000 -999.25000
 3207.00000 -999.25000 -999.25000 -999.25000 -999.25000    8.50000    8.54700    0.05400   17.80500    0.08200    7.08800    6.77300    6.79900    7.22100    2.59200    7.57800   16.58800    7.57800    7.22200    7.57800 -999.25000 -999.25000 -999.25000 -999.25000 -999.25000 -999.25000 -999.25000 -999.25000
 3207.50000 -999.25000 -999.25000 -999.25000 -999.25000    8.50000    8.54700    0.05800   22.64800    0.10000    7.08200    6.56500    6.63500    7.09700    2.57200    7.85000   17.31000    7.85000    7.09700    7.85000 -999.25000 -999.25000 -999.25000 -999.25000 -999.25000 -999.25000 -999.25000 -999.25000
 3208.00000 -999.25000 -999.25000 -999.25000 -999.25000    8.50000    8.54700    0.05400   12.92400    0.08100    7.32500    6.50000    6.64600    6.57200    2.57500    6.85500   17.39200    6.85500    6.57200    6.85500 -999.25000 -999.25000 -999.25000 -999.25000 -999.25000 -999.25000 -999.25000 -999.25000
 3208.50000 -999.25000 -999.25000 -999.25000 -999.25000    8.50000    8.54700    0.05000    9.51800    0.07700    7.18800    6.25900    6.57400    6.61900    2.57200    6.82000   17.88700    6.82000    6.61900    6.82000 -999.25000 -999.25000 -999.25000 -999.25000 -999.25000 -999.25000 -999.25000 -999.25000
 3209.00000 -999.25000 -999.25000 -999.25000 -999.25000    8.50000    8.54700    0.04800   15.41500    0.09600    6.89400    6.34900    6.62100    6.36800    2.57000    6.48600   13.05300    6.48600    6.36700    6.48600 -999.25000 -999.25000 -999.25000 -999.25000 -999.25000 -999.25000 -999.25000 -999.25000
 3209.50000 -999.25000 -999.25000 -999.25000 -999.25000    8.50000    8.57800    0.05400   34.37600    0.11800    6.77200    6.74200    6.79500    5.55500    2.57200    4.80300   14.59300    4.80300    5.55500    4.80300 -999.25000 -999.25000 -999.25000 -999.25000 -999.25000 -999.25000 -999.25000 -999.25000
 3210.00000 -999.25000 -999.25000 -999.25000 -999.25000    8.50000    8.53500    0.05000   15.06900    0.06300    6.85100    6.86100    6.79100    7.20900    2.59400    7.81000   18.97800    7.81000    7.20900    7.81000 -999.25000 -999.25000 -999.25000 -999.25000 -999.25000 -999.25000 -999.25000 -999.25000
 3210.50000 -999.25000 -999.25000 -999.25000 -999.25000    8.50000    8.54700    0.05400   13.07100    0.07800    6.98100    6.79600    6.72600    7.32500    2.58300    8.09600   13.57500    8.09600    7.32400    8.09600 -999.25000 -999.25000 -999.25000 -999.25000 -999.25000 -999.25000 -999.25000 -999.25000
 3211.00000 -999.25000 -999.25000 -999.25000 -999.25000    8.50000    8.54700    0.05600   19.41900    0.08000    7.17200    6.53200    6.59300    7.00300    2.59800    7.61200    7.73200    7.61200    7.00300    7.61200 -999.25000 -999.25000 -999.25000 -999.25000 -999.25000 -999.25000 -999.25000 -999.25000
 3211.50000 -999.25000 -999.25000 -999.25000 -999.25000    8.50000    8.54700    0.04600   12.82800    0.07600    6.98800    6.72600    6.75500    6.99800    2.58600    7.31000   11.87800    7.31000    6.99800    7.31000 -999.25000 -999.25000 -999.25000 -999.25000 -999.25000 -999.25000 -999.25000 -999.25000
 3212.00000 -999.25000 -999.25000 -999.25000 -999.25000    8.50000    8.54700    0.05000   17.29800    0.09100    6.89400    7.00800    6.83100    6.78800    2.57600    6.64000   16.45300    6.64000    6.78800    6.64000 -999.25000 -999.25000 -999.25000 -999.25000 -999.25000 -999.25000 -999.25000 -999.25000
 3212.50000 -999.25000 -999.25000 -999.25000 -999.25000    8.50000    8.54700    0.04700   20.45000    0.09600    7.18300    7.21600    6.81200    6.22500    2.57200    5.59200   20.48500    5.59200    6.22500    5.59200 -999.25000 -999.25000 -999.25000 -999.25000 -999.25000 -999.25000 -999.25000 -999.25000
 3213.00000 -999.25000 -999.25000 -999.25000 -999.25000    8.50000    8.54700    0.04900   10.84400    0.06600    7.42000    7.04000    6.80300    7.40700    2.59700    7.81200   21.66900    7.81200    7.40700    7.81200 -999.25000 -999.25000 -999.25000 -999.25000 -999.25000 -999.25000 -999.25000 -999.25000
 3213.50000 -999.25000 -999.25000 -999.25000 -999.25000    8.50000    8.54700    0.04800    7.75000    0.06600    7.20000    6.81600    6.88900    7.32000    2.59400    7.68000   18.28300    7.68000    7.32000    7.68000 -999.25000 -999.25000 -999.25000 -999.25000 -999.25000 -999.25000 -999.25000 -999.25000
 3214.00000 -999.25000 -999.25000 -999.25000 -999.25000    8.50000    8.57800    0.05100   15.20300    0.08300    7.07000    6.99200    6.76200    7.35600    2.59000    7.70300   15.59700    7.70300    7.35600    7.70300 -999.25000 -999.25000 -999.25000 -999.25000 -999.25000 -999.25000 -999.25000 -999.25000
 3214.50000 -999.25000 -999.25000 -999.25000 -999.25000    8.50000    8.54700    0.04600   16.94300    0.07800    7.35800    7.06600    6.71100    6.60400    2.60000    6.59400   15.57700    6.59300    6.60400    6.59400 -999.25000 -999.25000 -999.25000 -999.25000 -999.25000 -999.25000 -999.25000 -999.25000
 3215.00000 -999.25000 -999.25000 -999.25000 -999.25000    8.50000    8.54700    0.05400   14.33000    0.07400    7.22800    6.55300    6.62800    6.98400    2.60400    7.24400   21.17800    7.24400    6.98400    7.24400 -999.25000 -999.25000 -999.25000 -999.25000 -999.25000 -999.25000 -999.25000 -999.25000
 3215.50000 -999.25000 -999.25000 -999.25000 -999.25000    8.50000    8.54700    0.05000   12.82200    0.07500    7.49600    6.44600    6.53300    6.66300    2.60200    6.77400   24.38900    6.77400    6.66300    6.77400 -999.25000 -999.25000 -999.25000 -999.25000 -999.25000 -999.25000 -999.25000 -999.25000
 3216.00000 -999.25000 -999.25000 -999.25000 -999.25000    8.50000    8.56200    0.04800    5.71200    0.06400    7.67000    6.23800    6.39600    6.35700    2.59900    6.42000   23.51800    6.42000    6.35700    6.42000 -999.25000 -999.25000 -999.25000 -999.25000 -999.25000 -999.25000 -999.25000 -999.25000
 3216.50000 -999.25000 -999.25000 -999.25000 -999.25000    8.50000    8.54700    0.05400    3.09000    0.06900    7.45900    6.34800    6.26800    6.16200    2.59200    6.07100   21.58800    6.07000    6.16200    6.07100 -999.25000 -999.25000 -999.25000 -999.25000 -999.25000 -999.25000 -999.25000 -999.25000
 3217.00000 -999.25000 -999.25000 -999.25000 -999.25000    8.50000    8.54700    0.04900    2.99400    0.07200    7.75300    6.28800    6.10800    5.88900    2.57800    5.60900    8.20700    5.60900    5.88900    5.60900 -999.25000 -999.25000 -999.25000 -999.25000 -999.25000 -999.25000 -999.25000 -999.25000
