~Version ---------------------------------------------------
VERS.   2.0 : CWLS log ASCII Standard -VERSION 2.0
WRAP.    NO : One line per depth step
DLM . SPACE : Column Data Section Delimiter
~Well ------------------------------------------------------
STRT.ft          145.90000 : START DEPTH
STOP.ft         3681.90000 : STOP DEPTH
STEP.ft            0.50000 : STEP
NULL.              -999.25 : NULL VALUE
COMP. Statoil Petroleum AS : COMPANY
WELL.           15/9-F-1 A : WELL
FLD .                VOLVE : FIELD
LOC .      Maersk Inspirer : LOCATION
PROV.                      : PROVINCE
CNTY.               Unused : COUNTY
STAT.                      : STATE
CTRY.                      : COUNTRY
SRVC.                      : SERVICE COMPANY
DATE.                      : DATE
UWI .                      : UNIQUE WELL ID
API .                      : API NUMBER
~Curve Information -----------------------------------------
DEPT     .ft        : 
ABDCQF01 .g/cm3     : 
ABDCQF02 .g/cm3     : 
ABDCQF03 .g/cm3     : 
ABDCQF04 .g/cm3     : 
BS       .inches    : 
CALI     .inches    : 
DRHO     .g/cm3     : 
DT       .us/ft     : 
DTS      .us/ft     : 
GR       .API       : 
NPHI     .v/v       : 
PEF      .b/elec    : 
RACEHM   .UNKNOWN   : 
RACELM   .UNKNOWN   : 
RHOB     .g/cm3     : 
ROP      .m/hr      : 
RPCEHM   .UNKNOWN   : 
RPCELM   .UNKNOWN   : 
RT       .ohm.m     : 
BVW      .V/V       : 
COAL_FLAG.unitless  : 
KLOGH    .mD        : 
PHIF     .V/V       : 
SAND_FLAG.unitless  : 
SW       .V/V       : 
VCARB    .V/V       : 
VSH      .V/V       : 
~Params ----------------------------------------------------
~Other -----------------------------------------------------
PETROPHYSICAL INTERPRETATION: INPUT

# --- LOG MNEMONICS AND UNITS ---
#Depth          ABDCQF01        ABDCQF02        ABDCQF03        ABDCQF04        BS              CALI            DRHO            DT              DTS             GR              NPHI            PEF             RACEHM          RACELM          RHOB            ROP             RPCEHM          RPCELM          RT
#M              g/cm3           g/cm3           g/cm3           g/cm3           inches          inches          g/cm3           us/ft           us/ft           API             v/v             b/elec          UNKNOWN         UNKNOWN         g/cm3           m/hr            UNKNOWN         UNKNOWN         ohm.m
~ASCII -----------------------------------------------------
# ...
 2745.90000    2.19940    2.20790    2.19540    2.21100    8.50000    8.54690    0.04930   88.99540  178.87550   27.50730    0.25710    4.58940    0.32460    0.39990    2.20000   42.43740    0.32560    0.32700    0.32560 -999.25000 -999.25000 -999.25000 -999.25000 -999.25000 -999.25000 -999.25000 -999.25000
 2746.40000    2.20990    2.20160    2.19730    2.20870    8.50000    8.54690    0.05270   86.37390  181.41000   27.50730    0.26780    4.72330    0.33390    0.35910    2.20210   42.53600    0.33830    0.32950    0.33830 -999.25000 -999.25000 -999.25000 -999.25000 -999.25000 -999.25000 -999.25000 -999.25000
 2746.90000    2.20170    2.22030    2.20270    2.19670    8.50000    8.54690    0.05580   90.79830  184.36400   27.88180    0.25520    4.72470    0.32910    0.35140    2.20260   42.48000    0.33740    0.32310    0.33740 -999.25000 -999.25000 -999.25000 -999.25000 -999.25000 -999.25000 -999.25000 -999.25000
 2747.40000    2.18970    2.19710    2.18870    2.19790    8.50000    8.54690    0.04820   97.30590  187.70860   29.56540    0.26330    4.63360    0.34150    0.37060    2.18930   42.39740    0.34690    0.33140    0.34690 -999.25000 -999.25000 -999.25000 -999.25000 -999.25000 -999.25000 -999.25000 -999.25000
 2747.90000    2.18690    2.18650    2.17790    2.18190    8.50000    8.54690    0.04700  100.59790  193.17730   33.79600    0.27500    4.69210    0.37330    0.44680    2.17950   42.46030    0.33520    0.35340    0.33520 -999.25000 -999.25000 -999.25000 -999.25000 -999.25000 -999.25000 -999.25000 -999.25000
 2748.40000    2.20090    2.22330    2.29200    2.26980    8.50000    8.54690    0.01960  101.88380  202.90660   71.15240    0.35730    5.60270    0.64970    0.60460    2.26230   42.43630    0.78250    0.64370    0.78250 -999.25000 -999.25000 -999.25000 -999.25000 -999.25000 -999.25000 -999.25000 -999.25000
 2748.90000    2.40920    2.43240    2.45160    2.45120    8.50000    8.54700    0.05130  100.54980  206.96750   67.21940    0.28970    6.61280    0.95060    0.84730    2.44190   42.40780    0.91520    0.91910    0.91520 -999.25000 -999.25000 -999.25000 -999.25000 -999.25000 -999.25000 -999.25000 -999.25000
 2749.40000    2.48240    2.49520    2.50490    2.49310    8.50000    8.57810    0.06130   98.35100  200.86590   50.57550    0.26730    7.18050    1.12950    1.01460    2.49670   42.51630    1.20690    1.16780    1.20690 -999.25000 -999.25000 -999.25000 -999.25000 -999.25000 -999.25000 -999.25000 -999.25000
 2749.90000    2.47830    2.49110    2.48030    2.50250    8.50000    8.57810    0.05560   95.48700  187.08640   50.01200    0.29940    7.07650    1.24430    1.06190    2.48530   42.45710    1.15740    1.17240    1.15740 -999.25000 -999.25000 -999.25000 -999.25000 -999.25000 -999.25000 -999.25000 -999.25000
 2750.40000    2.47290    2.48780    2.49760    2.48240    8.50000    8.57810    0.07110   87.31740  171.81020   61.45470    0.17090    6.90210    1.00230    0.85060    2.48590   42.37000    0.88760    0.93290    0.88760 -999.25000 -999.25000 -999.25000 -999.25000 -999.25000 -999.25000 -999.25000 -999.25000
 2750.90000    2.43740    2.47220    2.53700    2.52240    8.50000    8.57800    0.09500   81.48070  165.01880   39.91770    0.24680    6.12130    0.67470    0.56530    2.48210   35.73590    1.98950    0.96210    1.98950 -999.25000 -999.25000 -999.25000 -999.25000 -999.25000 -999.25000 -999.25000 -999.25000
 2751.40000    2.18920    2.19950    2.20840    2.20550    8.50000    8.54690    0.06440   89.55470  169.79780   31.24550    0.26630    5.11690    0.34850    0.38630    2.19370   34.94820    0.30840    0.33860    0.30840 -999.25000 -999.25000 -999.25000 -999.25000 -999.25000 -999.25000 -999.25000 -999.25000
 2751.90000    2.16690    2.18480    2.19050    2.16950    8.50000    8.54690    0.05320   96.88200  178.53860   29.58200    0.27020    5.00910    0.30990    0.31790    2.17230   36.99820    0.30790    0.30140    0.30790 -999.25000 -999.25000 -999.25000 -999.25000 -999.25000 -999.25000 -999.25000 -999.25000
 2752.40000    2.17230    2.17010    2.19060    2.16870    8.50000    8.54690    0.05190   99.14510  183.92650   32.31110    0.25290    4.82650    0.29720    0.30320    2.17390   40.26410    0.29520    0.29770    0.29520 -999.25000 -999.25000 -999.25000 -999.25000 -999.25000 -999.25000 -999.25000 -999.25000
 2752.90000    2.18680    2.18830    2.17570    2.17650    8.50000    8.54690    0.04920   96.76650  185.01740   31.12030    0.26090    4.80700    0.30060    0.30660    2.17760   42.41090    0.30180    0.30350    0.30180 -999.25000 -999.25000 -999.25000 -999.25000 -999.25000 -999.25000 -999.25000 -999.25000
 2753.40000    2.18720    2.19140    2.18330    2.18220    8.50000    8.54690    0.04730   94.67090  183.80400   26.46140    0.25760    4.89780    0.30320    0.31080    2.18320   42.43440    0.30960    0.30860    0.30960 -999.25000 -999.25000 -999.25000 -999.25000 -999.25000 -999.25000 -999.25000 -999.25000
 2753.90000    2.19120    2.19260    2.19910    2.18940    8.50000    8.54690    0.04850   94.37250  182.56770   30.94080    0.25250    5.17450    0.31060    0.31770    2.19170   42.44800    0.31890    0.31830    0.31890 -999.25000 -999.25000 -999.25000 -999.25000 -999.25000 -999.25000 -999.25000 -999.25000
 2754.40000    2.20620    2.20170    2.19480    2.19400    8.50000    8.54690    0.05600   95.18280  181.21300   32.54160    0.26240    4.90320    0.32050    0.32580    2.19530   42.46680    0.33110    0.32780    0.33110 -999.25000 -999.25000 -999.25000 -999.25000 -999.25000 -999.25000 -999.25000 -999.25000
 2754.90000    2.18390    2.21370    2.18550    2.19600    8.50000    8.54690    0.05600   96.44160  180.69550   30.65670    0.25430    5.29740    0.32000    0.32800    2.19120   42.45940    0.32660    0.32750    0.32660 -999.25000 -999.25000 -999.25000 -999.25000 -999.25000 -999.25000 -999.25000 -999.25000
 2755.40000    2.20100    2.20100    2.18990    2.18550    8.50000    8.54690    0.05380   96.01980  181.13760   31.43890    0.24780    5.05480    0.32190    0.33080    2.19070   42.25380    0.32750    0.32840    0.32750 -999.25000 -999.25000 -999.25000 -999.25000 -999.25000 -999.25000 -999.25000 -999.25000
 2755.90000    2.21140    2.20940    2.21120    2.21690    8.50000    8.54690    0.05430   92.05270  180.98340   32.08830    0.24190    4.99880    0.32160    0.33150    2.21060   42.43350    0.31850    0.32650    0.31850 -999.25000 -999.25000 -999.25000 -999.25000 -999.25000 -999.25000 -999.25000 -999.25000
 2756.40000    2.21820    2.22610    2.24850    2.22930    8.50000    8.54690    0.06260   89.39180  178.71050   31.44730    0.23360    5.12680    0.32250    0.33510    2.22960   42.40490    0.32570    0.33020    0.32570 -999.25000 -999.25000 -999.25000 -999.25000 -999.25000 -999.25000 -999.25000 -999.25000
 2756.90000    2.23350    2.23790    2.23240    2.22490    8.50000    8.54690    0.06120   88.48610  173.76620   28.58850    0.23030    5.19440    0.34420    0.34240    2.22890   42.42830    0.35730    0.34920    0.35730 -999.25000 -999.25000 -999.25000 -999.25000 -999.25000 -999.25000 -999.25000 -999.25000
 2757.40000    2.21620    2.22570    2.20570    2.21760    8.50000    8.54690    0.05490   89.13850  169.01370   30.82530    0.24300    4.80710    0.34020    0.34880    2.21180   42.47980    0.36140    0.35070    0.36140 -999.25000 -999.25000 -999.25000 -999.25000 -999.25000 -999.25000 -999.25000 -999.25000
 2757.90000    2.22690    2.21630    2.22080    2.20540    8.50000    8.54690    0.06090   89.96380  168.44170   29.04240    0.23840    4.87640    0.34270    0.35280    2.21610   42.44870    0.35590    0.35230    0.35590 -999.25000 -999.25000 -999.25000 -999.25000 -999.25000 -999.25000 -999.25000 -999.25000
 2758.40000    2.21940    2.20790    2.21320    2.20600    8.50000    8.54690    0.05660   90.53470  168.66460   28.24390    0.23950    4.86500    0.35100    0.35960    2.20900   42.39550    0.36180    0.36170    0.36180 -999.25000 -999.25000 -999.25000 -999.25000 -999.25000 -999.25000 -999.25000 -999.25000
