~Version ---------------------------------------------------
VERS.   2.0 : CWLS log ASCII Standard -VERSION 2.0
WRAP.    NO : One line per depth step
DLM . SPACE : Column Data Section Delimiter
~Well ------------------------------------------------------
STRT.ft          188.50000 : START DEPTH
STOP.ft         3762.00000 : STOP DEPTH
STEP.ft            0.50000 : STEP
NULL.              -999.25 : NULL VALUE
COMP. Statoil Petroleum AS : COMPANY
WELL.          15/9-F-11 A : WELL
FLD .                VOLVE : FIELD
LOC .      Maersk Inspirer : LOCATION
PROV.                      : PROVINCE
CNTY.                      : COUNTY
STAT.                      : STATE
CTRY.                      : COUNTRY
SRVC.                      : SERVICE COMPANY
DATE.                      : DATE
UWI .                      : UNIQUE WELL ID
API .                      : API NUMBER
~Curve Information -----------------------------------------
DEPT     .ft       : 
ABDCQF01 .g/cm3    : 
ABDCQF02 .g/cm3    : 
ABDCQF03 .g/cm3    : 
ABDCQF04 .g/cm3    : 
BS       .inches   : 
CALI     .inches   : 
DRHO     .g/cm3    : 
DT       .us/ft    : 
DTS      .us/ft    : 
GR       .API      : 
NPHI     .v/v      : 
PEF      .b/elec   : 
RACEHM   .ohm.m    : 
RACELM   .ohm.m    : 
RD       .ohm.m    : 
RHOB     .g/cm3    : 
RM       .ohm.m    : 
ROP      .m/hr     : 
RPCEHM   .ohm.m    : 
RPCELM   .ohm.m    : 
RT       .ohm.m    : 
BVW      .v/v      : 
CARB_FLAG.UNKNOWN  : 
COAL_FLAG.UNKNOWN  : 
KLOGH    .mD       : 
PHIF     .v/v      : 
SAND_FLAG.UNKNOWN  : 
SW       .v/v      : 
VSH      .v/v      : 
~Params ----------------------------------------------------
~Other -----------------------------------------------------
PETROPHYSICAL_INTERPRETATION: INPUT

# --- LOG MNEMONICS AND UNITS ---
#Depth     ABDCQF01   ABDCQF02   ABDCQF03   ABDCQF04   BS         CALI       DRHO       DT         DTS        GR         NPHI       PEF        RACEHM     RACELM     RD         RHOB       RM         ROP        RPCEHM     RPCELM     RT
#M         g/cm3      g/cm3      g/cm3      g/cm3      inches     inches     g/cm3      us/ft      us/ft      API        v/v        b/elec     ohm.m      ohm.m      ohm.m      g/cm3      ohm.m      m/hr       ohm.m      ohm.m      ohm.m
~ASCII -----------------------------------------------------
# ...
 2888.50000    2.51200    2.51600    2.53700    2.48700    8.50000    8.62500    0.06800   68.65300  125.06500    3.48700    0.12300    8.29100    2.53400    2.80100    2.58400    2.51400    2.58900   15.00600    2.58900    2.58400    2.58900 -999.25000 -999.25000 -999.25000 -999.25000 -999.25000 -999.25000 -999.25000 -999.25000
 2889.00000    2.52800    2.50500    2.51300    2.51600    8.50000    8.62500    0.06700   68.77000  127.61500    3.89100    0.12200    8.43500    2.42000    2.72300    2.48500    2.51600    2.57300   15.00600    2.57300    2.48500    2.57300 -999.25000 -999.25000 -999.25000 -999.25000 -999.25000 -999.25000 -999.25000 -999.25000
 2889.50000    2.51400    2.53900    2.54100    2.52500    8.50000    8.62500    0.05500   67.16600  125.51700    3.91500    0.10200    8.36600    2.39500    2.68800    2.61200    2.52800    2.96700   15.01300    2.96700    2.61200    2.96700 -999.25000 -999.25000 -999.25000 -999.25000 -999.25000 -999.25000 -999.25000 -999.25000
 2890.00000    2.52200    2.54900    2.56900    2.54100    8.50000    8.57800    0.04900   66.05300  122.76000    3.18500    0.09200    8.31000    2.47700    2.71300    2.68600    2.53900    3.01900   16.07600    3.01900    2.68600    3.01900 -999.25000 -999.25000 -999.25000 -999.25000 -999.25000 -999.25000 -999.25000 -999.25000
 2890.50000    2.57500    2.54600    2.54100    2.56300    8.50000    8.62500    0.06200   66.18200  123.86700    3.54800    0.09800    8.23500    2.67600    2.80700    2.82900    2.56000    3.13000   18.03800    3.13000    2.82900    3.13000 -999.25000 -999.25000 -999.25000 -999.25000 -999.25000 -999.25000 -999.25000 -999.25000
 2891.00000    2.53900    2.54000    2.55200    2.54600    8.50000    8.62500    0.05800   66.40900  124.03100    3.47400    0.09600    8.33100    2.87000    2.88500    3.06200    2.54300    3.47600   19.71300    3.47600    3.06200    3.47600 -999.25000 -999.25000 -999.25000 -999.25000 -999.25000 -999.25000 -999.25000 -999.25000
 2891.50000    2.54200    2.55500    2.55500    2.56300    8.50000    8.62500    0.06400   66.80700  124.58000    4.63000    0.10500    8.31600    2.97800    2.94000    3.14800    2.55300    3.55200   20.03300    3.55200    3.14800    3.55200 -999.25000 -999.25000 -999.25000 -999.25000 -999.25000 -999.25000 -999.25000 -999.25000
 2892.00000    2.50900    2.53400    2.52400    2.51600    8.50000    8.62500    0.05500   66.88700  123.73200    4.79200    0.10800    8.36800    2.95900    2.93800    3.05500    2.51900    3.33100   20.01500    3.33100    3.05500    3.33100 -999.25000 -999.25000 -999.25000 -999.25000 -999.25000 -999.25000 -999.25000 -999.25000
 2892.50000    2.53200    2.53900    2.55500    2.53500    8.50000    8.62500    0.05500   66.33000  123.99700    3.43200    0.09700    8.25800    2.91800    2.92600    3.06700    2.54400    3.39600   20.00100    3.39600    3.06700    3.39600 -999.25000 -999.25000 -999.25000 -999.25000 -999.25000 -999.25000 -999.25000 -999.25000
 2893.00000    2.55000    2.56800    2.55600    2.56600    8.50000    8.62500    0.06200   65.93100  124.41300    4.42500    0.09900    8.35200    2.74000    2.85200    2.98900    2.55900    3.36400   19.98900    3.36400    2.98900    3.36400 -999.25000 -999.25000 -999.25000 -999.25000 -999.25000 -999.25000 -999.25000 -999.25000
 2893.50000    2.53200    2.52800    2.53200    2.54700    8.50000    8.67200    0.05800   66.39100  124.77000    4.28400    0.10500    8.36100    2.61000    2.77900    2.83700    2.53300    3.13300   19.99500    3.13300    2.83700    3.13300 -999.25000 -999.25000 -999.25000 -999.25000 -999.25000 -999.25000 -999.25000 -999.25000
 2894.00000    2.51600    2.52200    2.50700    2.53100    8.50000    8.62500    0.05800   66.94700  125.37900    3.02600    0.11700    8.33700    2.61300    2.77400    2.71800    2.51400    2.84900   20.02500    2.84900    2.71800    2.84900 -999.25000 -999.25000 -999.25000 -999.25000 -999.25000 -999.25000 -999.25000 -999.25000
 2894.50000    2.49500    2.52000    2.52400    2.49400    8.50000    8.67200    0.05600   67.35900  125.47500    3.45700    0.11400    8.28900    2.70200    2.79200    2.71100    2.50800    2.77500   20.03400    2.77500    2.71100    2.77500 -999.25000 -999.25000 -999.25000 -999.25000 -999.25000 -999.25000 -999.25000 -999.25000
 2895.00000    2.51700    2.52800    2.52800    2.50900    8.50000    8.62500    0.05700   67.05800  124.84400    3.45900    0.11000    8.30900    2.77300    2.80700    2.83800    2.52100    3.01900   20.03700    3.01900    2.83800    3.01900 -999.25000 -999.25000 -999.25000 -999.25000 -999.25000 -999.25000 -999.25000 -999.25000
 2895.50000    2.53400    2.56300    2.57000    2.53200    8.50000    8.67200    0.06300   66.28800  124.24700    3.60900    0.09600    8.39500    2.77500    2.79700    2.99900    2.55200    3.45900   20.01700    3.45900    2.99900    3.45900 -999.25000 -999.25000 -999.25000 -999.25000 -999.25000 -999.25000 -999.25000 -999.25000
 2896.00000    2.53700    2.55600    2.58400    2.54200    8.50000    8.62500    0.06400   66.21600  123.62700    4.41000    0.09700    8.41700    2.85600    2.83000    3.10600    2.55700    3.67000   20.00400    3.67000    3.10600    3.67000 -999.25000 -999.25000 -999.25000 -999.25000 -999.25000 -999.25000 -999.25000 -999.25000
 2896.50000    2.54100    2.57900    2.59100    2.57300    8.50000    8.62500    0.05900   64.80100  122.40200    4.89700    0.08300    8.27800    2.95600    2.89600    3.28000    2.57300    4.03300   20.00900    4.03300    3.28000    4.03300 -999.25000 -999.25000 -999.25000 -999.25000 -999.25000 -999.25000 -999.25000 -999.25000
 2897.00000    2.57600    2.56700    2.55800    2.57500    8.50000    8.62500    0.06400   64.91400  121.33400    3.39300    0.09200    8.22200    3.03500    3.00200    3.32600    2.56200    3.98700   20.04100    3.98600    3.32600    3.98700 -999.25000 -999.25000 -999.25000 -999.25000 -999.25000 -999.25000 -999.25000 -999.25000
 2897.50000    2.53000    2.53600    2.54600    2.54500    8.50000    8.62500    0.05900   66.42000  124.21500    3.23200    0.10100    8.33800    3.30600    3.20900    3.38500    2.53700    3.69700   20.01300    3.69700    3.38500    3.69700 -999.25000 -999.25000 -999.25000 -999.25000 -999.25000 -999.25000 -999.25000 -999.25000
 2898.00000    2.53500    2.56800    2.55300    2.53800    8.50000    8.62500    0.06400   66.72100  124.49000    2.48100    0.09900    8.42200    3.29700    3.35500    3.44000    2.54700    3.71700   20.04400    3.71700    3.44000    3.71700 -999.25000 -999.25000 -999.25000 -999.25000 -999.25000 -999.25000 -999.25000 -999.25000
 2898.50000    2.54100    2.54000    2.56000    2.54900    8.50000    8.62500    0.05000   65.64900  122.13600    3.26300    0.07800    8.36900    3.49200    3.42700    3.74800    2.54400    4.36600   16.62800    4.36700    3.74800    4.36600 -999.25000 -999.25000 -999.25000 -999.25000 -999.25000 -999.25000 -999.25000 -999.25000
 2899.00000    2.58100    2.57600    2.57100    2.58900    8.50000    8.62500    0.06700   65.00400  120.32100    3.31800    0.09400    8.42300    3.46200    3.37200    3.54800    2.57600    3.94200   16.36000    3.94200    3.54800    3.94200 -999.25000 -999.25000 -999.25000 -999.25000 -999.25000 -999.25000 -999.25000 -999.25000
 2899.50000    2.52300    2.54200    2.55700    2.54000    8.50000    8.62500    0.05800   65.39300  121.69700    3.65800    0.09900    8.31600    3.09200    3.21600    3.26600    2.53500    3.65900   18.62100    3.65900    3.26600    3.65900 -999.25000 -999.25000 -999.25000 -999.25000 -999.25000 -999.25000 -999.25000 -999.25000
 2900.00000    2.53700    2.56000    2.55400    2.54200    8.50000    8.62500    0.06000   65.85200  121.21200    4.21600    0.09300    8.51100    2.98900    3.18700    3.20500    2.55000    3.56000   22.18400    3.56000    3.20500    3.56000 -999.25000 -999.25000 -999.25000 -999.25000 -999.25000 -999.25000 -999.25000 -999.25000
 2900.50000    2.55200    2.54800    2.55900    2.56000    8.50000    8.62500    0.06400   66.08900  120.92800    3.22800    0.09700    8.36600    3.12300    3.31600    3.31200    2.55200    3.64100   22.98200    3.64100    3.31200    3.64100 -999.25000 -999.25000 -999.25000 -999.25000 -999.25000 -999.25000 -999.25000 -999.25000
