~Version ---------------------------------------------------
VERS.   2.0 : CWLS log ASCII Standard -VERSION 2.0
WRAP.    NO : One line per depth step
DLM . SPACE : Column Data Section Delimiter
~Well ------------------------------------------------------
STRT.ft  239.87760 : START DEPTH
STOP.ft 4186.87760 : STOP DEPTH
STEP.ft    0.50000 : STEP
NULL.      -999.25 : NULL VALUE
COMP. STATOILHYDRO : COMPANY
WELL.    15/9-F-12 : WELL
FLD .        VOLVE : FIELD
LOC .      UNKNOWN : LOCATION
PROV.              : PROVINCE
CNTY.      UNKNOWN : COUNTY
STAT.      UNKNOWN : STATE
CTRY.       Norway : COUNTRY
SRVC.      UNKNOWN : SERVICE COMPANY
DATE.      UNKNOWN : DATE
UWI . NO 15/9-F-12 : UNIQUE WELL ID
API .              : API NUMBER
~Curve Information -----------------------------------------
DEPT     .ft           : 
CARB_FLAG.UNKNOWN      : 
COAL_FLAG.UNKNOWN      : 
DT       .us/ft        : 
GR       .API          : 
NPHI     .v/v_decimal  : 
RD       .UNKNOWN      : 
RHOB     .g/cm3        : 
ROP5_RM  .UNKNOWN      : 
RS       .UNKNOWN      : 
RT       .ohm.m        : 
SAND_FLAG.UNKNOWN      : 
BVW      .v/v_decimal  : 
KLOGH    .mD           : 
PHIF     .v/v_decimal  : 
SW       .v/v_decimal  : 
VSH      .v/v_decimal  : 
~Params ----------------------------------------------------
~Other -----------------------------------------------------
~ASCII -----------------------------------------------------
# ...
 2411.37760 -999.25000 -999.25000  119.38115  127.24112    0.22137    0.59707    1.82203    5.20408    0.92924    0.56618 -999.25000 -999.25000 -999.25000 -999.25000 -999.25000 -999.25000
 2411.87760 -999.25000 -999.25000  125.41384  146.30692    0.21472    0.62828    1.82165    5.48453    0.81441    0.55452 -999.25000 -999.25000 -999.25000 -999.25000 -999.25000 -999.25000
 2412.37760 -999.25000 -999.25000  120.49450  137.56286    0.24131    0.55984    1.78404    6.42051    0.66943    0.48261 -999.25000 -999.25000 -999.25000 -999.25000 -999.25000 -999.25000
 2412.87760 -999.25000 -999.25000  122.62073  122.70823    0.20792    0.57850    1.80692    7.54868    0.85378    0.52003 -999.25000 -999.25000 -999.25000 -999.25000 -999.25000 -999.25000
 2413.37760 -999.25000 -999.25000  119.46914  121.20930    0.22296    0.57112    1.81003    8.70891    0.94410    0.50934 -999.25000 -999.25000 -999.25000 -999.25000 -999.25000 -999.25000
 2413.87760 -999.25000 -999.25000  121.60867  116.63798    0.20267    0.60487    1.81143    9.23375    0.93819    0.53690 -999.25000 -999.25000 -999.25000 -999.25000 -999.25000 -999.25000
 2414.37760 -999.25000 -999.25000  118.36703  125.38772    0.20945    0.61734    1.81896    7.74680    0.76383    0.55310 -999.25000 -999.25000 -999.25000 -999.25000 -999.25000 -999.25000
 2414.87760 -999.25000 -999.25000  119.40785  121.08653    0.20467    0.65216    1.82374    6.91856    0.81958    0.60102 -999.25000 -999.25000 -999.25000 -999.25000 -999.25000 -999.25000
 2415.37760 -999.25000 -999.25000  121.23421  123.62745    0.23398    0.62658    1.79930    6.08400    0.70547    0.55473 -999.25000 -999.25000 -999.25000 -999.25000 -999.25000 -999.25000
 2415.87760 -999.25000 -999.25000  122.69579  116.90927    0.22789    0.58833    1.79770    6.07896    0.70518    0.51808 -999.25000 -999.25000 -999.25000 -999.25000 -999.25000 -999.25000
 2416.37760 -999.25000 -999.25000  123.40056  118.31481    0.22513    0.59205    1.82776    6.56870    0.68200    0.50237 -999.25000 -999.25000 -999.25000 -999.25000 -999.25000 -999.25000
 2416.87760 -999.25000 -999.25000  121.84235  132.17262    0.22551    0.58273    1.82335    7.07972    0.68162    0.49898 -999.25000 -999.25000 -999.25000 -999.25000 -999.25000 -999.25000
 2417.37760 -999.25000 -999.25000  117.96506  127.46388    0.24145    0.57222    1.78066    7.49502    0.73211    0.50933 -999.25000 -999.25000 -999.25000 -999.25000 -999.25000 -999.25000
 2417.87760 -999.25000 -999.25000  123.26151  128.36064    0.23653    0.58167    1.81571    7.42025    0.68497    0.49305 -999.25000 -999.25000 -999.25000 -999.25000 -999.25000 -999.25000
 2418.37760 -999.25000 -999.25000  121.94803  134.38363    0.21789    0.57387    1.86470    7.65634    0.74736    0.46356 -999.25000 -999.25000 -999.25000 -999.25000 -999.25000 -999.25000
 2418.87760 -999.25000 -999.25000  123.36473  119.20192    0.24460    0.56580    1.86055    7.25715    0.77300    0.47029 -999.25000 -999.25000 -999.25000 -999.25000 -999.25000 -999.25000
 2419.37760 -999.25000 -999.25000  123.21366  127.47449    0.25138    0.56212    1.85128    7.10179    0.66119    0.46188 -999.25000 -999.25000 -999.25000 -999.25000 -999.25000 -999.25000
 2419.87760 -999.25000 -999.25000  119.52740  124.44407    0.21471    0.58401    1.82626    6.84672    0.68676    0.52956 -999.25000 -999.25000 -999.25000 -999.25000 -999.25000 -999.25000
 2420.37760 -999.25000 -999.25000  118.46397  117.58314    0.20436    0.58601    1.83342    6.67710    0.76606    0.50672 -999.25000 -999.25000 -999.25000 -999.25000 -999.25000 -999.25000
 2420.87760 -999.25000 -999.25000  119.89585  120.70683    0.19443    0.61013    1.87555    6.02844    0.76310    0.55165 -999.25000 -999.25000 -999.25000 -999.25000 -999.25000 -999.25000
 2421.37760 -999.25000 -999.25000  121.01188  111.23089    0.21055    0.62662    1.84378    5.97000    0.82262    0.54798 -999.25000 -999.25000 -999.25000 -999.25000 -999.25000 -999.25000
 2421.87760 -999.25000 -999.25000  119.61368  109.95868    0.20485    0.63754    1.83060    5.15200    0.80782    0.54627 -999.25000 -999.25000 -999.25000 -999.25000 -999.25000 -999.25000
 2422.37760 -999.25000 -999.25000  118.76229  110.74327    0.20407    0.60960    1.81687    6.80171    0.85722    0.54678 -999.25000 -999.25000 -999.25000 -999.25000 -999.25000 -999.25000
 2422.87760 -999.25000 -999.25000  122.01521  107.78854    0.21508    0.62226    1.81731    7.32694    0.84904    0.51608 -999.25000 -999.25000 -999.25000 -999.25000 -999.25000 -999.25000
 2423.37760 -999.25000 -999.25000  122.56846  112.11576    0.21295    0.54320    1.81850    9.58112    0.84075    0.50561 -999.25000 -999.25000 -999.25000 -999.25000 -999.25000 -999.25000
 2423.87760 -999.25000 -999.25000  120.86284  117.58335    0.20452    0.59169    1.81111    9.00839    0.97559    0.51475 -999.25000 -999.25000 -999.25000 -999.25000 -999.25000 -999.25000
 2424.37760 -999.25000 -999.25000  120.87141  122.85492    0.20414    0.60899    1.81103    8.96515    0.99780    0.55914 -999.25000 -999.25000 -999.25000 -999.25000 -999.25000 -999.25000
 2424.87760 -999.25000 -999.25000  122.54198  125.54742    0.22590    0.59074    1.81373    9.21845    0.98800    0.53308 -999.25000 -999.25000 -999.25000 -999.25000 -999.25000 -999.25000
 2425.37760 -999.25000 -999.25000  122.93604  126.41924    0.21303    0.56464    1.78753    9.96862    0.94691    0.46756 -999.25000 -999.25000 -999.25000 -999.25000 -999.25000 -999.25000
 2425.87760 -999.25000 -999.25000  119.88976  122.99637    0.21728    0.58830    1.80073   11.17606    1.00490    0.51526 -999.25000 -999.25000 -999.25000 -999.25000 -999.25000 -999.25000
 2426.37760 -999.25000 -999.25000  116.92151  119.27040    0.21438    0.62059    1.79929   11.64986    1.24746    0.56465 -999.25000 -999.25000 -999.25000 -999.25000 -999.25000 -999.25000
 2426.87760 -999.25000 -999.25000  122.37691  118.41489    0.22634    0.64199    1.78206   10.65697    1.01169    0.60429 -999.25000 -999.25000 -999.25000 -999.25000 -999.25000 -999.25000
 2427.37760 -999.25000 -999.25000  119.54512  118.82396    0.22466    0.56767    1.79007    9.50951    0.92222    0.49599 -999.25000 -999.25000 -999.25000 -999.25000 -999.25000 -999.25000
 2427.87760 -999.25000 -999.25000  121.31310  115.04040    0.21728    0.57403    1.79730   10.00510    1.04018    0.51834 -999.25000 -999.25000 -999.25000 -999.25000 -999.25000 -999.25000
 2428.37760 -999.25000 -999.25000  120.15653  118.93710    0.23710    0.53596    1.78720   10.26723    0.93232    0.46537 -999.25000 -999.25000 -999.25000 -999.25000 -999.25000 -999.25000
 2428.87760 -999.25000 -999.25000  120.18228  118.75044    0.23673    0.55131    1.81061   11.36803    0.74006    0.49551 -999.25000 -999.25000 -999.25000 -999.25000 -999.25000 -999.25000
 2429.37760 -999.25000 -999.25000  122.34661  121.81167    0.23644    0.51500    1.75676   11.83155    0.91069    0.47344 -999.25000 -999.25000 -999.25000 -999.25000 -999.25000 -999.25000
 2429.87760 -999.25000 -999.25000  124.74524  118.60134    0.27026    0.55192    1.72998   13.11683    0.72521    0.51597 -999.25000 -999.25000 -999.25000 -999.25000 -999.25000 -999.25000
 2430.37760 -999.25000 -999.25000  119.24376  125.26927    0.23205    0.54481    1.72635   14.69157    0.71708    0.45591 -999.25000 -999.25000 -999.25000 -999.25000 -999.25000 -999.25000
 2430.87760 -999.25000 -999.25000  121.99628  118.32405    0.21307    0.54937    1.71612   17.42568    0.87407    0.52808 -999.25000 -999.25000 -999.25000 -999.25000 -999.25000 -999.25000
 2431.37760 -999.25000 -999.25000  123.66957  120.60019    0.23099    0.53548    1.75591   20.78161    0.81534    0.47373 -999.25000 -999.25000 -999.25000 -999.25000 -999.25000 -999.25000
 2431.87760 -999.25000 -999.25000  122.16855  125.37784    0.21347    0.57058    1.76502   22.52937    0.78702    0.50474 -999.25000 -999.25000 -999.25000 -999.25000 -999.25000 -999.25000
 2432.37760 -999.25000 -999.25000  121.07795  117.81772    0.21682    0.57427    1.79567   23.94540    0.76665    0.50309 -999.25000 -999.25000 -999.25000 -999.25000 -999.25000 -999.25000
