~Version ---------------------------------------------------
VERS.   2.0 : CWLS log ASCII Standard -VERSION 2.0
WRAP.    NO : One line per depth step
DLM . SPACE : Column Data Section Delimiter
~Well ------------------------------------------------------
STRT.ft          188.50000 : START DEPTH
STOP.ft         3762.00000 : STOP DEPTH
STEP.ft            0.50000 : STEP
NULL.              -999.25 : NULL VALUE
COMP. Statoil Petroleum AS : COMPANY
WELL.          15/9-F-11 A : WELL
FLD .                VOLVE : FIELD
LOC .      Maersk Inspirer : LOCATION
PROV.                      : PROVINCE
CNTY.                      : COUNTY
STAT.                      : STATE
CTRY.                      : COUNTRY
SRVC.                      : SERVICE COMPANY
DATE.                      : DATE
UWI .                      : UNIQUE WELL ID
API .                      : API NUMBER
~Curve Information -----------------------------------------
DEPT     .ft       : 
ABDCQF01 .g/cm3    : 
ABDCQF02 .g/cm3    : 
ABDCQF03 .g/cm3    : 
ABDCQF04 .g/cm3    : 
BS       .inches   : 
CALI     .inches   : 
DRHO     .g/cm3    : 
DT       .us/ft    : 
DTS      .us/ft    : 
GR       .API      : 
NPHI     .v/v      : 
PEF      .b/elec   : 
RACEHM   .ohm.m    : 
RACELM   .ohm.m    : 
RD       .ohm.m    : 
RHOB     .g/cm3    : 
RM       .ohm.m    : 
ROP      .m/hr     : 
RPCEHM   .ohm.m    : 
RPCELM   .ohm.m    : 
RT       .ohm.m    : 
BVW      .v/v      : 
CARB_FLAG.UNKNOWN  : 
COAL_FLAG.UNKNOWN  : 
KLOGH    .mD       : 
PHIF     .v/v      : 
SAND_FLAG.UNKNOWN  : 
SW       .v/v      : 
VSH      .v/v      : 
~Params ----------------------------------------------------
~Other -----------------------------------------------------
PETROPHYSICAL_INTERPRETATION: INPUT

# --- LOG MNEMONICS AND UNITS ---
#Depth     ABDCQF01   ABDCQF02   ABDCQF03   ABDCQF04   BS         CALI       DRHO       DT         DTS        GR         NPHI       PEF        RACEHM     RACELM     RD         RHOB       RM         ROP        RPCEHM     RPCELM     RT
#M         g/cm3      g/cm3      g/cm3      g/cm3      inches     inches     g/cm3      us/ft      us/ft      API        v/v        b/elec     ohm.m      ohm.m      ohm.m      g/cm3      ohm.m      m/hr       ohm.m      ohm.m      ohm.m
~ASCII -----------------------------------------------------
# ...
 2651.00000    2.32500    2.33100    2.34500    2.34900    8.50000    8.57800    0.04300  108.29900  255.15700   80.27700    0.39200    6.55300    0.83900    0.84900    0.86000    2.34200    0.78500   35.06600    0.78500    0.86000    0.78500 -999.25000 -999.25000 -999.25000 -999.25000 -999.25000 -999.25000 -999.25000 -999.25000
 2651.50000    2.37500    2.33800    2.36700    2.38000    8.50000    8.54700    0.05500  110.13100  257.47000   63.94700    0.35500    6.35700    0.84300    0.86100    0.88700    2.35900    0.81600   35.07300    0.81600    0.88700    0.81600 -999.25000 -999.25000 -999.25000 -999.25000 -999.25000 -999.25000 -999.25000 -999.25000
 2652.00000    2.36000    2.38000    2.35900    2.35900    8.50000    8.54700    0.04800  107.98500  256.26600   73.36500    0.35900    6.53500    0.86000    0.84700    0.88500    2.36400    0.84500   35.02200    0.84500    0.88500    0.84500 -999.25000 -999.25000 -999.25000 -999.25000 -999.25000 -999.25000 -999.25000 -999.25000
 2652.50000    2.38100    2.37600    2.33000    2.34600    8.50000    8.54700    0.06800  101.94700  254.00000   53.39700    0.27400    5.72800    0.72500    0.77700    0.79100    2.35200    0.71000   35.04900    0.71000    0.79100    0.71000 -999.25000 -999.25000 -999.25000 -999.25000 -999.25000 -999.25000 -999.25000 -999.25000
 2653.00000    2.33900    2.34100    2.34800    2.34400    8.50000    8.57800    0.05500   91.91600  252.11500   69.18300    0.33300    6.20900    0.74200    0.70800    0.75700    2.34200    0.73400   35.03200    0.73400    0.75700    0.73400 -999.25000 -999.25000 -999.25000 -999.25000 -999.25000 -999.25000 -999.25000 -999.25000
 2653.50000    2.30100    2.30200    2.22000    2.24100    8.50000    8.57800    0.05400   96.33700  264.65500   58.76200    0.34800    5.96200    0.64700    0.67000    0.66900    2.24900    0.66900   35.00800    0.66900    0.66900    0.66900 -999.25000 -999.25000 -999.25000 -999.25000 -999.25000 -999.25000 -999.25000 -999.25000
 2654.00000    2.24000    2.32800    2.28800    2.24100    8.50000    8.54700    0.02300  101.20200  264.11500   48.22900    0.25600    5.98900    0.64400    0.67400    0.62700    2.27300    0.61600   35.01500    0.61600    0.62700    0.61600 -999.25000 -999.25000 -999.25000 -999.25000 -999.25000 -999.25000 -999.25000 -999.25000
 2654.50000    2.38500    2.36000    2.41300    2.41700    8.50000    8.54700    0.07700   91.16500  263.60200   51.34300    0.35300    6.36100    0.77700    0.67700    0.67400    2.39300    0.61800   35.02200    0.61800    0.67400    0.61800 -999.25000 -999.25000 -999.25000 -999.25000 -999.25000 -999.25000 -999.25000 -999.25000
 2655.00000    2.27100    2.27900    2.28200    2.25400    8.50000    8.57800    0.05300   97.51200  277.18000   66.89400    0.49200    6.85300    0.59100    0.62500    0.62000    2.27300    0.55200   34.95400    0.55200    0.62000    0.55200 -999.25000 -999.25000 -999.25000 -999.25000 -999.25000 -999.25000 -999.25000 -999.25000
 2655.50000    2.23800    2.23200    2.25000    2.22500    8.50000    8.54700    0.04300   92.22400  288.07200   56.72700    0.40300    6.11500    0.61200    0.57800    0.59400    2.23600    0.51600   35.00100    0.51600    0.59400    0.51600 -999.25000 -999.25000 -999.25000 -999.25000 -999.25000 -999.25000 -999.25000 -999.25000
 2656.00000    2.23400    2.23100    2.25200    2.25400    8.50000    8.57800    0.05700   99.28600  291.25900   66.67200    0.40600    6.68300    0.56600    0.53400    0.51000    2.24200    0.45300   35.04400    0.45300    0.51000    0.45300 -999.25000 -999.25000 -999.25000 -999.25000 -999.25000 -999.25000 -999.25000 -999.25000
 2656.50000    2.18500    2.19200    2.20200    2.19300    8.50000    8.57800    0.05800   82.10300  283.15500   37.56300    0.27700    5.29400    0.44800    0.48800    0.44100    2.19400    0.38000   28.07700    0.38000    0.44100    0.38000 -999.25000 -999.25000 -999.25000 -999.25000 -999.25000 -999.25000 -999.25000 -999.25000
 2657.00000    2.16200    2.20600    2.19700    2.20100    8.50000    8.57800    0.03600   78.71900  289.05600   45.04200    0.35400    5.67300    0.51100    0.48600    0.46000    2.19300    0.43400   23.34700    0.43400    0.46000    0.43400 -999.25000 -999.25000 -999.25000 -999.25000 -999.25000 -999.25000 -999.25000 -999.25000
 2657.50000    2.27300    2.24200    2.25600    2.25700    8.50000    8.57800    0.05200   93.92000  280.38700   54.63800    0.36100    6.37800    0.52500    0.49200    0.50500    2.25400    0.47300   29.11500    0.47300    0.50500    0.47300 -999.25000 -999.25000 -999.25000 -999.25000 -999.25000 -999.25000 -999.25000 -999.25000
 2658.00000    2.23100    2.19500    2.19200    2.23400    8.50000    8.57800    0.04600  100.42100  285.69000   46.87400    0.32900    5.64800    0.45700    0.49800    0.45600    2.20900    0.40200   33.34800    0.40200    0.45600    0.40200 -999.25000 -999.25000 -999.25000 -999.25000 -999.25000 -999.25000 -999.25000 -999.25000
 2658.50000    2.26300    2.23400    2.28600    2.30600    8.50000    8.57800    0.05400  102.23000  267.96900   62.61600    0.37100    6.06200    0.49900    0.49900    0.58100    2.27500    0.58000   34.16300    0.58000    0.58100    0.58000 -999.25000 -999.25000 -999.25000 -999.25000 -999.25000 -999.25000 -999.25000 -999.25000
 2659.00000    2.25100    2.21700    2.23900    2.23400    8.50000    8.57800    0.05600   97.28100  286.20100   54.47500    0.34300    5.77800    0.49900    0.45800    0.48800    2.23300    0.45700   34.69700    0.45700    0.48800    0.45700 -999.25000 -999.25000 -999.25000 -999.25000 -999.25000 -999.25000 -999.25000 -999.25000
 2659.50000    2.20900    2.19400    2.21200    2.20100    8.50000    8.54700    0.05100   88.92100  284.63400   34.29700    0.24700    5.02200    0.46600    0.43000    0.41000    2.20200    0.35000   34.70600    0.35000    0.41000    0.35000 -999.25000 -999.25000 -999.25000 -999.25000 -999.25000 -999.25000 -999.25000 -999.25000
 2660.00000    2.23100    2.21800    2.21400    2.23100    8.50000    8.54700    0.05300   87.72200  260.86600   34.67800    0.24300    4.90500    0.44300    0.41900    0.40900    2.22000    0.37100   34.47900    0.37100    0.40900    0.37100 -999.25000 -999.25000 -999.25000 -999.25000 -999.25000 -999.25000 -999.25000 -999.25000
 2660.50000    2.26400    2.24400    2.23500    2.20400    8.50000    8.54700    0.04300   91.36700  250.54700   43.08300    0.26000    5.17600    0.42100    0.43800    0.44900    2.23100    0.41100   34.20100    0.41100    0.44900    0.41100 -999.25000 -999.25000 -999.25000 -999.25000 -999.25000 -999.25000 -999.25000 -999.25000
 2661.00000    2.24400    2.26300    2.26200    2.22600    8.50000    8.57800    0.05000   97.89800  261.49600   45.66700    0.29000    5.58200    0.50400    0.48500    0.52500    2.24500    0.48300   34.20200    0.48300    0.52500    0.48300 -999.25000 -999.25000 -999.25000 -999.25000 -999.25000 -999.25000 -999.25000 -999.25000
 2661.50000    2.26500    2.25800    2.25300    2.25300    8.50000    8.57800    0.05500   98.93700  257.02900   61.97600    0.35500    5.95700    0.51100    0.49900    0.52700    2.25400    0.50900   34.49900    0.50900    0.52700    0.50900 -999.25000 -999.25000 -999.25000 -999.25000 -999.25000 -999.25000 -999.25000 -999.25000
 2662.00000    2.22000    2.19700    2.22500    2.22400    8.50000    8.57800    0.04300  108.17800  269.00800   53.75400    0.35300    5.54300    0.48200    0.50100    0.47200    2.21600    0.40200   34.69700    0.40300    0.47200    0.40200 -999.25000 -999.25000 -999.25000 -999.25000 -999.25000 -999.25000 -999.25000 -999.25000
 2662.50000    2.28500    2.26600    2.26800    2.31200    8.50000    8.57800    0.05500  108.54100  268.60600   58.99300    0.35400    5.86400    0.60800    0.53900    0.58400    2.27900    0.55000   34.69100    0.55000    0.58400    0.55000 -999.25000 -999.25000 -999.25000 -999.25000 -999.25000 -999.25000 -999.25000 -999.25000
 2663.00000    2.26200    2.30500    2.26400    2.25900    8.50000    8.57800    0.05400  104.66300  219.26800   54.38400    0.31700    5.91800    0.62700    0.57000    0.62700    2.27100    0.58700   34.40300    0.58700    0.62700    0.58700 -999.25000 -999.25000 -999.25000 -999.25000 -999.25000 -999.25000 -999.25000 -999.25000
