~Version ---------------------------------------------------
VERS.   2.0 : CWLS log ASCII Standard -VERSION 2.0
WRAP.    NO : One line per depth step
DLM . SPACE : Column Data Section Delimiter
~Well ------------------------------------------------------
STRT.ft       145.90000 : START DEPTH
STOP.ft      3464.90000 : STOP DEPTH
STEP.ft         0.50000 : STEP
NULL.           -999.25 : NULL VALUE
COMP. Statoil Petroleum : COMPANY
WELL.        15/9-F-1 B : WELL
FLD .             VOLVE : FIELD
LOC .   Maersk Inspirer : LOCATION
PROV.                   : PROVINCE
CNTY.                   : COUNTY
STAT.                   : STATE
CTRY.                   : COUNTRY
SRVC.                   : SERVICE COMPANY
DATE.                   : DATE
UWI .                   : UNIQUE WELL ID
API .                   : API NUMBER
~Curve Information -----------------------------------------
DEPT     .ft        : 
ABDCQF01 .g/cm3     : 
ABDCQF02 .g/cm3     : 
ABDCQF03 .g/cm3     : 
ABDCQF04 .g/cm3     : 
BS       .inches    : 
CALI     .inches    : 
DRHO     .g/cm3     : 
DT       .us/ft     : 
DTS      .us/ft     : 
GR       .API       : 
NBGRCFM  .API       : 
NPHI     .v/v       : 
PEF      .b/elec    : 
RACEHM   .ohm.m     : 
RACELM   .ohm.m     : 
RD       .ohm.m     : 
RHOB     .g/cm3     : 
RM       .ohm.m     : 
ROP      .m/hr      : 
RPCEHM   .ohm.m     : 
RPCELM   .ohm.m     : 
RT       .ohm.m     : 
BVW      .V/V       : 
CARB_FLAG.V/V       : 
COAL_FLAG.UNITLESS  : 
KLOGH    .mD        : 
PHIF     .V/V       : 
SAND_FLAG.UNITLESS  : 
SW       .V/V       : 
VCARB    .V/V       : 
VSH      .V/V       : 
~Params ----------------------------------------------------
~Other -----------------------------------------------------
PETROPHYSICAL INTERPRETATION: INPUT

# --- LOG MNEMONICS AND UNITS ---
#Depth          ABDCQF01        ABDCQF02        ABDCQF03        ABDCQF04        BS              CALI            DRHO            DT              DTS             GR              NBGRCFM         NPHI            PEF             RACEHM          RACELM          RD              RHOB            RM              ROP             RPCEHM          RPCELM          RT
#M              g/cm3           g/cm3           g/cm3           g/cm3           inches          inches          g/cm3           us/ft           us/ft           API             API             v/v             b/elec          ohm.m           ohm.m           ohm.m           g/cm3           ohm.m           m/hr            ohm.m           ohm.m           ohm.m
~ASCII -----------------------------------------------------
# ...
 3296.90000    2.31670    2.29470    2.29100    2.30840    8.50000    8.61300    0.05070   85.81340  139.55640   47.49290 -999.25000    0.18120    5.34630    3.75130    4.31840    3.88230    2.30010    3.89310   29.99310    3.89300    3.88230    3.89300    0.07830    0.00000    0.00000   27.14900    0.20240    1.00000    0.38690    0.00000    0.24290
 3297.40000    2.28340    2.27370    2.28580    2.28430    8.50000    8.61300    0.04670   87.61730  141.09580   45.23720 -999.25000    0.19570    5.32330    3.61290    4.15090    3.72440    2.28050    3.67090   29.99300    3.67080    3.72440    3.67080    0.08110    0.00000    0.00000   44.72910    0.21500    1.00000    0.37720    0.00000    0.22990
 3297.90000    2.29550    2.30540    2.29910    2.29580    8.50000    8.66370    0.04510   84.89330  138.15420   46.06260 -999.25000    0.20110    5.39720    3.60610    4.20170    3.30690    2.29750    2.78000   30.01310    2.77990    3.30680    2.77990    0.09060    0.00000    0.00000   37.88960    0.21130    1.00000    0.42860    0.00000    0.23470
 3298.40000    2.34270    2.36880    2.35670    2.33230    8.50000    8.61340    0.04530   78.98040  130.36470   42.80590 -999.25000    0.16790    5.66820    3.82010    4.20600    3.88750    2.34740    3.79890   30.03320    3.79900    3.88750    3.79900    0.07670    0.00000    0.00000   31.86710    0.18090    1.00000    0.42390    0.00000    0.21600
 3298.90000    2.37420    2.38580    2.37810    2.34570    8.50000    8.61340    0.04580   77.78330  130.41750   42.24010 -999.25000    0.14720    5.63290    4.55810    4.42460    4.10870    2.36610    3.91330   30.03620    3.91350    4.10880    3.91350    0.07430    0.00000    0.00000   25.97170    0.16620    1.00000    0.44700    0.00000    0.21280
 3299.40000    2.37920    2.34740    2.37080    2.36350    8.50000    8.66330    0.05550   77.91430  131.08830   29.70660 -999.25000    0.13020    5.55440    4.41680    4.37340    5.40870    2.36490    7.04010   30.00930    7.04010    5.40880    7.04010    0.05700    0.00000    0.00000  101.65230    0.15980    1.00000    0.35660    0.00000    0.14120
 3299.90000    2.33010    2.34740    2.36080    2.32970    8.50000    8.61300    0.04100   81.99420  133.97610   26.85460 -999.25000    0.14730    5.51160    4.39810    4.42650    5.09240    2.34310    5.90470   30.00920    5.90430    5.09220    5.90430    0.06220    0.00000    0.00000  186.26080    0.17410    1.00000    0.35740    0.00000    0.12470
 3300.40000    2.31490    2.29100    2.29210    2.34040    8.50000    8.61300    0.05850   85.82700  141.11220   38.04090 -999.25000    0.20120    5.44050    4.41340    4.63830    4.30550    2.30500    4.21230   30.00910    4.21230    4.30540    4.21230    0.07550    0.00000    0.00000   93.44630    0.20870    1.00000    0.36190    0.00000    0.18880
 3300.90000    2.27150    2.28190    2.30150    2.25480    8.50000    8.66370    0.03780   85.47410  138.23450   38.72270 -999.25000    0.17110    5.49900    4.24300    4.55750    4.27060    2.27450    4.18700   30.00910    4.18720    4.27070    4.18720    0.07560    0.00000    0.00000   83.74180    0.20720    1.00000    0.36510    0.00000    0.19270
 3301.40000    2.28850    2.29230    2.27800    2.28550    8.50000    8.61300    0.04830   85.08530  137.65380   32.71420 -999.25000    0.18520    5.65810    4.34610    4.70120    4.62480    2.28200    4.79740   29.98250    4.79750    4.62480    4.79750    0.07130    0.00000    0.00000  180.53190    0.21020    1.00000    0.33920    0.00000    0.15840
 3301.90000    2.26520    2.28400    2.28470    2.26620    8.50000    8.66370    0.04240   84.39120  136.23620   31.39310 -999.25000    0.17920    5.87360    4.65230    4.83100    5.12000    2.27550    5.49840   29.97320    5.49830    5.12000    5.49830    0.06730    0.00000    0.00000  210.85400    0.21010    1.00000    0.32050    0.00000    0.15080
 3302.40000    2.30790    2.31940    2.32970    2.31130    8.50000    8.66370    0.03790   82.01340  134.08630   31.53630 -999.25000    0.18980    5.84910    4.92110    5.06780    5.22210    2.31690    5.46190   29.99370    5.46200    5.22210    5.46200    0.06680    0.00000    0.00000  172.24550    0.20010    1.00000    0.33360    0.00000    0.15170
 3302.90000    2.32860    2.30560    2.32710    2.32660    8.50000    8.63830    0.04350   82.07490  135.42010   29.75370 -999.25000    0.17450    5.90610    5.29860    5.28460    5.62400    2.31740    5.83470   30.02430    5.83470    5.62400    5.83470    0.06440    0.00000    0.00000  189.61320    0.19380    1.00000    0.33210    0.00000    0.14140
 3303.40000    2.31720    2.30110    2.30620    2.31330    8.50000    8.66370    0.03750   81.03360  133.18700   27.41860 -999.25000    0.17830    5.94080    5.64870    5.46460    5.73420    2.30770    5.78150   30.02530    5.78140    5.73430    5.78140    0.06480    0.00000    0.00000  273.36690    0.19870    1.00000    0.32620    0.00000    0.12810
 3303.90000    2.32740    2.34030    2.32890    2.32490    8.50000    8.61340    0.02440   73.29750  121.89680   27.48090 -999.25000    0.11680    6.38260    6.05980    5.58700    6.22930    2.32860    6.44310    4.49820    6.44340    6.22940    6.44340    0.05950    0.00000    0.00000  151.60840    0.16710    1.00000    0.35630    0.00000    0.12840
 3304.40000    2.91330    2.73860    2.73690    2.83560    8.50000    8.66370    0.07220   65.64970  106.68740   30.27040 -999.25000    0.06320    8.07090    6.20570    5.63190    7.10180    2.79110    8.31140   17.11400    8.31150    7.10190    8.31150    0.02000    1.00000    0.00000    0.00200    0.02000    0.00000    1.00000    0.51450    0.17430
 3304.90000    2.72330    2.67800    2.71580    2.71670    8.50000    8.69760    0.07360   61.75180  100.68370   38.63290 -999.25000    0.07340    7.11020    5.96180    5.63640    6.97350    2.69780    8.24210   18.26800    8.24220    6.97360    8.24220    0.02000    1.00000    0.00000    0.00150    0.02000    0.00000    1.00000    0.41300    0.23190
 3305.40000    2.67110    2.67320    2.64730    2.69900    8.50000    8.74790    0.03480   63.75660  103.62640   51.34090 -999.25000    0.13000    7.25760    5.16030    5.46570    6.08020    2.66770    6.40620    8.75870    6.40590    6.08000    6.40590    0.02000    1.00000    0.00000    0.00100    0.02000    0.00000    1.00000    0.27810    0.31940
 3305.90000    2.89410    2.89450    2.87760    2.89200    8.50000    8.66370    0.04610   60.11270  106.46790   47.01210 -999.25000    0.09790    8.58740    5.24260    5.55390    5.41670    2.88570    5.08360   19.10620    5.08400    5.41690    5.08400    0.02000    1.00000    0.00000    0.00110    0.02000    0.00000    1.00000    0.32060    0.29010
 3306.40000    2.87150    2.87450    2.86620    2.83750    8.50000    8.66370    0.06570   59.14770  100.08330   33.15710 -999.25000    0.11460    8.15600    5.68010    5.58750    4.88090    2.85820    4.17190   20.32120    4.17160    4.88080    4.17160    0.02000    1.00000    0.00000    0.00180    0.02000    0.00000    1.00000    0.47900    0.19380
 3306.90000    2.72370    2.71230    2.74020    2.78280    8.50000    8.66370    0.05630   63.81830  101.97210   44.46980 -999.25000    0.08560    7.09370    5.56220    5.13000    6.04310    2.72770    6.61850   20.58080    6.61860    6.04310    6.61860    0.02000    1.00000    0.00000    0.00120    0.02000    0.00000    1.00000    0.34800    0.27220
 3307.40000    2.71360    2.70870    2.71050    2.72950    8.50000    8.66370    0.04650   65.72030  100.67190   33.77620 -999.25000    0.07110    7.13550    5.27110    4.82990    6.14650    2.71200    7.55910   22.27360    7.55980    6.14670    7.55980    0.02000    1.00000    0.00000    0.00170    0.02000    0.00000    1.00000    0.47060    0.19850
 3307.90000    2.68270    2.69330    2.69800    2.71250    8.50000    8.66370    0.05290   63.40990  104.36550   40.37070 -999.25000    0.08800    7.21750    5.29620    4.78840    6.11300    2.69390    7.61300   20.57860    7.61260    6.11280    7.61260    0.02000    1.00000    0.00000    0.00140    0.02000    0.00000    1.00000    0.39320    0.24390
