~Version ---------------------------------------------------
VERS.   2.0 : CWLS log ASCII Standard -VERSION 2.0
WRAP.    NO : One line per depth step
DLM . SPACE : Column Data Section Delimiter
~Well ------------------------------------------------------
STRT.ft       145.90000 : START DEPTH
STOP.ft      3464.90000 : STOP DEPTH
STEP.ft         0.50000 : STEP
NULL.           -999.25 : NULL VALUE
COMP. Statoil Petroleum : COMPANY
WELL.        15/9-F-1 B : WELL
FLD .             VOLVE : FIELD
LOC .   Maersk Inspirer : LOCATION
PROV.                   : PROVINCE
CNTY.                   : COUNTY
STAT.                   : STATE
CTRY.                   : COUNTRY
SRVC.                   : SERVICE COMPANY
DATE.                   : DATE
UWI .                   : UNIQUE WELL ID
API .                   : API NUMBER
~Curve Information -----------------------------------------
DEPT     .ft        : 
ABDCQF01 .g/cm3     : 
ABDCQF02 .g/cm3     : 
ABDCQF03 .g/cm3     : 
ABDCQF04 .g/cm3     : 
BS       .inches    : 
CALI     .inches    : 
DRHO     .g/cm3     : 
DT       .us/ft     : 
DTS      .us/ft     : 
GR       .API       : 
NBGRCFM  .API       : 
NPHI     .v/v       : 
PEF      .b/elec    : 
RACEHM   .ohm.m     : 
RACELM   .ohm.m     : 
RD       .ohm.m     : 
RHOB     .g/cm3     : 
RM       .ohm.m     : 
ROP      .m/hr      : 
RPCEHM   .ohm.m     : 
RPCELM   .ohm.m     : 
RT       .ohm.m     : 
BVW      .V/V       : 
CARB_FLAG.V/V       : 
COAL_FLAG.UNITLESS  : 
KLOGH    .mD        : 
PHIF     .V/V       : 
SAND_FLAG.UNITLESS  : 
SW       .V/V       : 
VCARB    .V/V       : 
VSH      .V/V       : 
~Params ----------------------------------------------------
~Other -----------------------------------------------------
PETROPHYSICAL INTERPRETATION: INPUT

# --- LOG MNEMONICS AND UNITS ---
#Depth          ABDCQF01        ABDCQF02        ABDCQF03        ABDCQF04        BS              CALI            DRHO            DT              DTS             GR              NBGRCFM         NPHI            PEF             RACEHM          RACELM          RD              RHOB            RM              ROP             RPCEHM          RPCELM          RT
#M              g/cm3           g/cm3           g/cm3           g/cm3           inches          inches          g/cm3           us/ft           us/ft           API             API             v/v             b/elec          ohm.m           ohm.m           ohm.m           g/cm3           ohm.m           m/hr            ohm.m           ohm.m           ohm.m
~ASCII -----------------------------------------------------
# ...
 3239.40000    2.61210    2.72910    2.68760    2.57040    8.50000    8.69760    0.05770   72.27830  124.06120   40.90980 -999.25000    0.20290    7.86550    1.11970    1.16080    1.22870    2.65650    1.30420   29.94150    1.30420    1.22870    1.30420    0.02000    0.00000    0.00000    0.37490    0.02000    0.00000    1.00000    0.32480    0.28730
 3239.90000    2.65720    2.64950    2.64960    2.63670    8.50000    8.69730    0.04740   73.32110  126.06120   35.23840 -999.25000    0.16520    7.99980    1.04960    1.07340    1.03930    2.64800    1.12090   29.95040    1.12070    1.03920    1.12070    0.02000    0.00000    0.00000    0.96210    0.02000    0.00000    1.00000    0.39650    0.24190
 3240.40000    2.74940    2.79560    2.76060    2.79680    8.50000    8.69730    0.10810   76.35960  131.36210   31.82690 -999.25000    0.19880    8.77710    0.73410    0.92680    0.89470    2.77690    0.91510   29.96730    0.91490    0.89460    0.91490    0.02000    1.00000    0.00000    1.69840    0.02000    0.00000    1.00000    0.44280    0.21440
 3240.90000    2.48750    2.47370    2.51290    2.52470    8.50000    8.66370    0.02150   75.73150  131.42700   36.15010 -999.25000    0.20580    7.13210    0.77140    0.87460    0.85900    2.48930    0.93370   29.99120    0.93390    0.85910    0.93390    0.10290    0.00000    0.00000    3.79260    0.10290    0.00000    1.00000    0.07220    0.24940
 3241.40000    2.63500    2.63900    2.73570    2.77720    8.50000    8.66370    0.02380   76.09940  131.25800   51.34920 -999.25000    0.27300    9.03330    0.90580    1.00320    0.71000    2.69030    0.51420   29.96440    0.51440    0.71000    0.51440    0.02000    1.00000    0.00000    0.06680    0.02000    0.00000    1.00000    0.20970    0.37060
 3241.90000    2.65650    2.69190    2.72460    2.70460    8.50000    8.66220    0.03230   82.07650  139.58590   39.64840 -999.25000    0.36380    8.23410    1.03630    1.02170    1.36220    2.68850    1.94110   29.96310    1.94110    1.36230    1.94110    0.02000    1.00000    0.00000    0.46410    0.02000    0.00000    1.00000    0.34050    0.27700
 3242.40000    2.91860    2.88450    2.86670    2.93510    8.50000    8.66380    0.06340   81.07370  144.88740   48.72490 -999.25000    0.33960   10.35680    1.16910    1.09970    1.13880    2.89150    1.15670   29.98710    1.15670    1.13880    1.15670    0.02000    1.00000    0.00000    0.10200    0.02000    0.00000    1.00000    0.23610    0.35010
 3242.90000    3.03720    3.03940    3.05050    3.08660    8.50000    8.69760    0.04730   81.64730  148.14180   47.90600 -999.25000    0.39620   10.78720    0.90420    1.07460    1.06530    3.05170    1.32240   29.95470    1.32190    1.06510    1.32190    0.02000    1.00000    0.00000    0.11770    0.02000    0.00000    1.00000    0.24520    0.34320
 3243.40000    2.84330    2.82550    2.85360    2.82810    8.50000    8.69730    0.00220   81.48380  150.58770   42.50690 -999.25000    0.27020   10.15740    1.03520    1.11230    0.96670    2.83340    0.91900   29.92270    0.91910    0.96680    0.91910    0.02000    1.00000    0.00000    0.28780    0.02000    0.00000    1.00000    0.30590    0.30010
 3243.90000    2.99990    2.91860    2.82260    2.89850    8.50000    8.69760    0.14930   77.00120  140.04990   38.56580 -999.25000    0.30280    8.07020    1.04860    1.15780    1.36670    2.87470    1.78930   29.97450    1.78890    1.36660    1.78890    0.02000    1.00000    0.00000    0.55870    0.02000    0.00000    1.00000    0.35440    0.26810
 3244.40000    2.59800    2.59440    2.65270    2.65690    8.50000    8.66370    0.02730   82.47760  138.92220   69.19780 -999.25000    0.31030    8.46260    1.07720    1.35670    1.10600    2.63950    1.06990   29.94220    1.06970    1.10590    1.06970    0.02000    0.00000    0.00000    0.00350    0.02000    0.00000    1.00000    0.06050    0.51360
 3244.90000    2.79580    2.63580    2.58720    2.62720    8.50000    8.66400    0.06970   85.24420  135.95320   72.01710 -999.25000    0.25490    7.68740    1.41610    1.65270    1.32950    2.63160    1.30250   29.93820    1.30270    1.32960    1.30270    0.02000    0.00000    0.00000    0.00220    0.02000    0.00000    1.00000    0.04260    0.53610
 3245.40000    2.58650    2.52270    2.50500    2.55110    8.50000    8.66370    0.06680   82.70070  132.84600   28.34890 -999.25000    0.16640    7.13960    2.17780    2.32010    1.62150    2.52710    1.20770   29.71920    1.20810    1.62180    1.20810    0.07000    0.00000    0.00000   22.80540    0.07000    0.00000    1.00000    0.35810    0.13360
 3245.90000    2.24590    2.22150    2.19700    2.22390    8.50000    8.66370    0.05240   86.68520  138.68590   21.14210 -999.25000    0.19200    5.32510    3.32280    2.89850    4.13160    2.21180    6.17230   29.02140    6.17280    4.13210    6.17280    0.06570    0.00000    0.00000 1163.09960    0.23700    1.00000    0.27720    0.00000    0.09220
 3246.40000    2.19040    2.19080    2.20130    2.20230    8.50000    8.66370    0.03820   90.59060  143.15160   24.43550 -999.25000    0.18810    5.19420    5.22720    4.06200    6.05200    2.19550    7.55450   28.55460    7.55490    6.05240    7.55490    0.06090    0.00000    0.00000  848.73540    0.24110    1.00000    0.25280    0.00000    0.11110
 3246.90000    2.21380    2.20740    2.21660    2.21750    8.50000    8.66370    0.03660   89.59270  139.76080   22.99480 -999.25000    0.18020    5.17020    7.58640    5.60840    7.94230    2.21030    8.70900   28.56470    8.70930    7.94280    8.70930    0.05690    0.00000    0.00000  865.45200    0.23280    1.00000    0.24450    0.00000    0.10280
 3247.40000    2.22380    2.20430    2.20250    2.19120    8.50000    8.66370    0.04160   88.53900  138.22660   21.64300 -999.25000    0.17870    5.31520    9.05600    6.91500   10.18670    2.20090   10.84510   28.95480   10.84600   10.18730   10.84600    0.05210    0.00000    0.00000 1065.54500    0.23550    1.00000    0.22140    0.00000    0.09510
 3247.90000    2.19060    2.18170    2.18440    2.19570    8.50000    8.57940    0.02940   88.14460  138.49680   20.34160 -999.25000    0.18470    4.85140    9.88880    7.96990   11.90300    2.18470   14.02140   29.59690   14.02140   11.90310   14.02140    0.04720    0.00000    0.00000 1439.21300    0.24340    1.00000    0.19410    0.00000    0.08770
 3248.40000    2.20520    2.20710    2.21420    2.22830    8.50000    8.61320    0.03360   87.30130  137.96140   20.61930 -999.25000    0.17590    5.05890    8.95320    7.52200   10.72410    2.21150   12.51440   30.04150   12.51380   10.72370   12.51380    0.04890    0.00000    0.00000 1102.81900    0.23070    1.00000    0.21180    0.00000    0.08920
 3248.90000    2.22910    2.22180    2.21670    2.23200    8.50000    8.66370    0.03330   85.32420  134.54430   19.08390 -999.25000    0.17410    5.09540    7.10820    6.60330    8.67100    2.22310    9.53700   30.01470    9.53630    8.67030    9.53630    0.05420    0.00000    0.00000 1213.34550    0.22600    1.00000    0.23990    0.00000    0.08050
 3249.40000    2.31810    2.33350    2.36550    2.36220    8.50000    8.66370    0.02770   80.30670  127.06560   25.51640 -999.25000    0.15620    5.65680    5.44990    5.44700    5.93790    2.35000    5.97470   29.88670    5.97410    5.93750    5.97410    0.06220    0.00000    0.00000  223.09340    0.17540    1.00000    0.35440    0.00000    0.11720
 3249.90000    2.46830    2.44600    2.42250    2.47820    8.50000    8.66370    0.04400   74.80870  123.01790   23.80450 -999.25000    0.14010    6.14990    4.26700    4.61960    4.51850    2.44650    4.41400   29.84920    4.41370    4.51820    4.41370    0.06600    0.00000    0.00000  131.73560    0.13580    1.00000    0.48610    0.12080    0.10750
 3250.40000    2.43950    2.42380    2.45950    2.44220    8.50000    8.66370    0.05200   76.44540  125.99780   24.80420 -999.25000    0.15750    6.06220    3.54840    3.65840    3.66460    2.43740    3.72630   29.97670    3.72610    3.66440    3.72610    0.07210    0.00000    0.00000  140.87490    0.14590    1.00000    0.49420    0.07490    0.11310
