~Version ---------------------------------------------------
VERS.   2.0 : CWLS log ASCII Standard -VERSION 2.0
WRAP.    NO : One line per depth step
DLM . SPACE : Column Data Section Delimiter
~Well ------------------------------------------------------
STRT.ft          188.50000 : START DEPTH
STOP.ft         3762.00000 : STOP DEPTH
STEP.ft            0.50000 : STEP
NULL.              -999.25 : NULL VALUE
COMP. Statoil Petroleum AS : COMPANY
WELL.          15/9-F-11 A : WELL
FLD .                VOLVE : FIELD
LOC .      Maersk Inspirer : LOCATION
PROV.                      : PROVINCE
CNTY.                      : COUNTY
STAT.                      : STATE
CTRY.                      : COUNTRY
SRVC.                      : SERVICE COMPANY
DATE.                      : DATE
UWI .                      : UNIQUE WELL ID
API .                      : API NUMBER
~Curve Information -----------------------------------------
DEPT     .ft       : 
ABDCQF01 .g/cm3    : 
ABDCQF02 .g/cm3    : 
ABDCQF03 .g/cm3    : 
ABDCQF04 .g/cm3    : 
BS       .inches   : 
CALI     .inches   : 
DRHO     .g/cm3    : 
DT       .us/ft    : 
DTS      .us/ft    : 
GR       .API      : 
NPHI     .v/v      : 
PEF      .b/elec   : 
RACEHM   .ohm.m    : 
RACELM   .ohm.m    : 
RD       .ohm.m    : 
RHOB     .g/cm3    : 
RM       .ohm.m    : 
ROP      .m/hr     : 
RPCEHM   .ohm.m    : 
RPCELM   .ohm.m    : 
RT       .ohm.m    : 
BVW      .v/v      : 
CARB_FLAG.UNKNOWN  : 
COAL_FLAG.UNKNOWN  : 
KLOGH    .mD       : 
PHIF     .v/v      : 
SAND_FLAG.UNKNOWN  : 
SW       .v/v      : 
VSH      .v/v      : 
~Params ----------------------------------------------------
~Other -----------------------------------------------------
PETROPHYSICAL_INTERPRETATION: INPUT

# --- LOG MNEMONICS AND UNITS ---
#Depth     ABDCQF01   ABDCQF02   ABDCQF03   ABDCQF04   BS         CALI       DRHO       DT         DTS        GR         NPHI       PEF        RACEHM     RACELM     RD         RHOB       RM         ROP        RPCEHM     RPCELM     RT
#M         g/cm3      g/cm3      g/cm3      g/cm3      inches     inches     g/cm3      us/ft      us/ft      API        v/v        b/elec     ohm.m      ohm.m      ohm.m      g/cm3      ohm.m      m/hr       ohm.m      ohm.m      ohm.m
~ASCII -----------------------------------------------------
# ...
 3501.00000    2.51100    2.53500    2.54800    2.52800    8.50000    8.70300    0.07000   79.69100  136.80800   57.80600    0.16400    7.02000    1.86100    1.94200    1.97600    2.52700    2.19900   14.96800    2.19900    1.97600    2.19900 -999.25000 -999.25000 -999.25000 -999.25000 -999.25000 -999.25000 -999.25000 -999.25000
 3501.50000    2.54100    2.51900    2.49800    2.52700    8.50000    8.68800    0.06300   82.38400  143.49700   54.26200    0.17800    7.02300    1.89700    1.95900    1.96700    2.51600    2.09700   14.99000    2.09700    1.96700    2.09700 -999.25000 -999.25000 -999.25000 -999.25000 -999.25000 -999.25000 -999.25000 -999.25000
 3502.00000    2.51700    2.51600    2.52100    2.52500    8.50000    8.74200    0.06600   83.71000  147.02600   49.87800    0.18100    7.19500    1.90500    1.98300    2.01000    2.51800    2.13200   14.97200    2.13200    2.01000    2.13200 -999.25000 -999.25000 -999.25000 -999.25000 -999.25000 -999.25000 -999.25000 -999.25000
 3502.50000    2.52200    2.51300    2.49100    2.49400    8.50000    8.70300    0.06000   83.49300  148.40400   57.40000    0.18800    6.63800    1.96400    1.97700    2.03000    2.49700    2.11100   14.95300    2.11100    2.03000    2.11100 -999.25000 -999.25000 -999.25000 -999.25000 -999.25000 -999.25000 -999.25000 -999.25000
 3503.00000    2.48800    2.51100    2.52000    2.50600    8.50000    8.72700    0.06400   82.31300  142.73100   60.71600    0.16800    7.06500    2.01900    1.94300    2.05500    2.50800    2.13700   14.96800    2.13700    2.05500    2.13700 -999.25000 -999.25000 -999.25000 -999.25000 -999.25000 -999.25000 -999.25000 -999.25000
 3503.50000    2.51400    2.53300    2.53700    2.52700    8.50000    8.67200    0.06200   79.42600  144.88600   55.56000    0.15900    7.10200    1.98500    1.84800    2.10800    2.52700    2.43400   11.02400    2.43500    2.10800    2.43400 -999.25000 -999.25000 -999.25000 -999.25000 -999.25000 -999.25000 -999.25000 -999.25000
 3504.00000    2.52400    2.54300    2.54900    2.53500    8.50000    8.67200    0.06300   79.23600  144.68300   53.08800    0.15800    6.77300    1.94100    1.72800    2.11500    2.53900    2.80700   10.73100    2.80700    2.11500    2.80700 -999.25000 -999.25000 -999.25000 -999.25000 -999.25000 -999.25000 -999.25000 -999.25000
 3504.50000    2.54000    2.53900    2.53300    2.54400    8.50000    8.67200    0.06500   91.89600  160.57900   58.86200    0.24200    7.30900    1.64300    1.60000    1.85900    2.53600    2.36400   13.07500    2.36400    1.85900    2.36400 -999.25000 -999.25000 -999.25000 -999.25000 -999.25000 -999.25000 -999.25000 -999.25000
 3505.00000    2.50000    2.52300    2.53600    2.52200    8.50000    8.67200    0.05300   98.73100  156.37600   76.06400    0.32300    8.43600    1.76800    1.59600    1.20600    2.52200    0.88500   14.28800    0.88500    1.20600    0.88500 -999.25000 -999.25000 -999.25000 -999.25000 -999.25000 -999.25000 -999.25000 -999.25000
 3505.50000    2.53700    2.55400    2.54000    2.54500    8.50000    8.67200    0.06200   92.62600  129.20500   87.84300    0.30900    8.17900    1.25800    1.42000    1.34900    2.54200    1.41800   17.37600    1.41800    1.34900    1.41800 -999.25000 -999.25000 -999.25000 -999.25000 -999.25000 -999.25000 -999.25000 -999.25000
 3506.00000    2.51100    2.54100    2.56400    2.54600    8.50000    8.67200    0.05200   87.32700  120.53800   81.14200    0.23400    8.23500    1.46100    1.42000    1.22200    2.54400    1.14200   19.55000    1.14300    1.22200    1.14200 -999.25000 -999.25000 -999.25000 -999.25000 -999.25000 -999.25000 -999.25000 -999.25000
 3506.50000    2.56000    2.56100    2.59700    2.57200    8.50000    8.67200    0.05400   84.62400  121.68500   55.47300    0.22100    8.29100    1.48000    1.36800    1.53900    2.57600    1.97200   19.72100    1.97200    1.53900    1.97200 -999.25000 -999.25000 -999.25000 -999.25000 -999.25000 -999.25000 -999.25000 -999.25000
 3507.00000    2.59400    2.59100    2.59900    2.60100    8.50000    8.67200    0.05800   88.70500  124.40400   54.25900    0.26500    8.60500    1.40100    1.39400    1.63000    2.59500    2.05900   19.69800    2.05800    1.63000    2.05900 -999.25000 -999.25000 -999.25000 -999.25000 -999.25000 -999.25000 -999.25000 -999.25000
 3507.50000    2.59000    2.58000    2.57100    2.56500    8.50000    8.67200    0.06500   89.42000  127.81700   72.41200    0.33500    8.92800    1.57600    1.47800    1.31600    2.57500    1.09400   19.69600    1.09400    1.31600    1.09400 -999.25000 -999.25000 -999.25000 -999.25000 -999.25000 -999.25000 -999.25000 -999.25000
 3508.00000    2.56500    2.57000    2.57400    2.56600    8.50000    8.67200    0.05300   81.30300  132.43000   61.32900    0.19100    8.72500    1.50000    1.50200    1.31400    2.56600    1.16400   19.74800    1.16400    1.31400    1.16400 -999.25000 -999.25000 -999.25000 -999.25000 -999.25000 -999.25000 -999.25000 -999.25000
 3508.50000    2.56400    2.58200    2.59000    2.57200    8.50000    8.67200    0.05600   74.79300  140.91800   24.32600    0.15600    8.49200    1.35600    1.44700    1.47700    2.57500    1.58600   19.74800    1.58600    1.47700    1.58600 -999.25000 -999.25000 -999.25000 -999.25000 -999.25000 -999.25000 -999.25000 -999.25000
 3509.00000    2.57100    2.56400    2.57200    2.56400    8.50000    8.67200    0.05600   78.92300  140.07000   39.73900    0.19100    8.26200    1.49600    1.47300    1.61400    2.56300    1.87500   19.73600    1.87500    1.61400    1.87500 -999.25000 -999.25000 -999.25000 -999.25000 -999.25000 -999.25000 -999.25000 -999.25000
 3509.50000    2.57000    2.56700    2.55500    2.57900    8.50000    8.67200    0.06100   80.00400  142.58800   43.49300    0.18200    8.50700    1.50700    1.52200    1.65400    2.56600    1.83900   19.71000    1.83900    1.65400    1.83900 -999.25000 -999.25000 -999.25000 -999.25000 -999.25000 -999.25000 -999.25000 -999.25000
 3510.00000    2.53200    2.55400    2.56300    2.55800    8.50000    8.67200    0.05000   80.92200  141.00600   36.15800    0.19400    8.40600    1.59500    1.57200    1.57100    2.55200    1.54900   19.68700    1.54900    1.57100    1.54900 -999.25000 -999.25000 -999.25000 -999.25000 -999.25000 -999.25000 -999.25000 -999.25000
 3510.50000    2.56400    2.57600    2.57300    2.58100    8.50000    8.67200    0.05800   83.10900  146.11800   41.82900    0.20600    8.34300    1.54900    1.58000    1.61200    2.57200    1.68500   19.73600    1.68500    1.61200    1.68500 -999.25000 -999.25000 -999.25000 -999.25000 -999.25000 -999.25000 -999.25000 -999.25000
 3511.00000    2.55900    2.58500    2.57200    2.55700    8.50000    8.67200    0.05500   83.48600  148.40100   44.49700    0.20400    8.30700    1.54400    1.58700    1.62600    2.56800    1.70300   19.73600    1.70300    1.62600    1.70300 -999.25000 -999.25000 -999.25000 -999.25000 -999.25000 -999.25000 -999.25000 -999.25000
 3511.50000    2.55600    2.54700    2.53700    2.56600    8.50000    8.67200    0.05000   83.61300  142.14200   40.77400    0.19400    8.26800    1.54700    1.59400    1.61700    2.54500    1.69000   19.73000    1.68900    1.61700    1.69000 -999.25000 -999.25000 -999.25000 -999.25000 -999.25000 -999.25000 -999.25000 -999.25000
 3512.00000    2.56000    2.57800    2.56300    2.55600    8.50000    8.67200    0.05300   83.25500  137.35600   40.20300    0.21100    8.26800    1.59600    1.60300    1.58300    2.56300    1.57100   19.72400    1.57100    1.58300    1.57100 -999.25000 -999.25000 -999.25000 -999.25000 -999.25000 -999.25000 -999.25000 -999.25000
 3512.50000    2.58000    2.57600    2.56400    2.58400    8.50000    8.67200    0.05500   80.86200  143.34900   47.84800    0.18300    8.16800    1.54200    1.58500    1.66200    2.57100    1.82800   19.67600    1.82800    1.66200    1.82800 -999.25000 -999.25000 -999.25000 -999.25000 -999.25000 -999.25000 -999.25000 -999.25000
 3513.00000    2.55900    2.53900    2.56800    2.55000    8.50000    8.67200    0.05200   78.04600  145.25000   29.84400    0.17000    8.32600    1.54900    1.59600    1.60700    2.55300    1.67000   19.62700    1.66900    1.60700    1.67000 -999.25000 -999.25000 -999.25000 -999.25000 -999.25000 -999.25000 -999.25000 -999.25000
