~Version ---------------------------------------------------
VERS.   2.0 : CWLS log ASCII Standard -VERSION 2.0
WRAP.    NO : One line per depth step
DLM . SPACE : Column Data Section Delimiter
~Well ------------------------------------------------------
STRT.ft          188.50000 : START DEPTH
STOP.ft         4770.50000 : STOP DEPTH
STEP.ft            0.50000 : STEP
NULL.              -999.25 : NULL VALUE
COMP. Statoil Petroleum AS : COMPANY
WELL.          15/9-F-11 B : WELL
FLD .                VOLVE : FIELD
LOC .      Maersk Inspirer : LOCATION
PROV.                      : PROVINCE
CNTY.                      : COUNTY
STAT.                      : STATE
CTRY.                      : COUNTRY
SRVC.                      : SERVICE COMPANY
DATE.                      : DATE
UWI .                      : UNIQUE WELL ID
API .                      : API NUMBER
~Curve Information -----------------------------------------
DEPT     .ft        : 
ABDCQF01 .g/cm3     : 
ABDCQF02 .g/cm3     : 
ABDCQF03 .g/cm3     : 
ABDCQF04 .g/cm3     : 
BS       .inches    : 
CALI     .inches    : 
DRHO     .g/cm3     : 
GR       .API       : 
NPHI     .v/v       : 
PEF      .b/elec    : 
RACEHM   .ohm.m     : 
RACELM   .ohm.m     : 
RD       .ohm.m     : 
RHOB     .g/cm3     : 
RM       .ohm.m     : 
ROP      .m/hr      : 
RPCEHM   .ohm.m     : 
RPCELM   .ohm.m     : 
RT       .ohm.m     : 
BVW      .v/v       : 
CARB_FLAG.unitless  : 
COAL_FLAG.unitless  : 
KLOGH    .mD        : 
PHIF     .v/v       : 
SAND_FLAG.UNKNOWN   : 
SW       .v/v       : 
VSH      .v/v       : 
~Params ----------------------------------------------------
~Other -----------------------------------------------------
PETROPHYSICAL_INTERPRETATION: INPUT

# --- LOG MNEMONICS AND UNITS ---
#Depth     ABDCQF01   ABDCQF02   ABDCQF03   ABDCQF04   BS         CALI       DRHO       GR         NPHI       PEF        RACEHM     RACELM     RD         RHOB       RM         ROP        RPCEHM     RPCELM     RT
#M         g/cm3      g/cm3      g/cm3      g/cm3      inches     inches     g/cm3      API        v/v        b/elec     ohm.m      ohm.m      ohm.m      g/cm3      ohm.m      m/hr       ohm.m      ohm.m      ohm.m
~ASCII -----------------------------------------------------
# ...
 3516.50000    2.15900    2.15100    2.15200    2.16500    8.50000    8.57800    0.04200   28.63500    0.20000    4.61700   22.43400   24.24600   32.14100    2.15400   39.47400   29.15200   39.47400   32.14100   39.47400    0.03200    0.00000    0.00000  216.58500    0.26000    1.00000    0.12500    0.19400
 3517.00000    2.16800    2.15300    2.16100    2.16500    8.50000    8.57800    0.04400   29.57100    0.19700    4.70700   22.03400   29.30900   31.90900    2.16000   37.04000   29.79200   37.04000   31.90900   37.04000    0.03300    0.00000    0.00000  174.85200    0.25700    1.00000    0.12900    0.20100
 3517.50000    2.17100    2.15400    2.16600    2.18000    8.50000    8.57800    0.04500   27.69100    0.19200    4.65000   21.50700   24.75100   30.48900    2.16600   37.12800   29.95600   37.12800   30.48800   37.12800    0.03300    0.00000    0.00000  223.20900    0.25300    1.00000    0.13000    0.18600
 3518.00000    2.19600    2.14900    2.15000    2.22400    8.50000    8.57800    0.04600   30.72000    0.19400    4.65200   22.10200   25.17000   31.91000    2.17800   38.83000   29.80200   38.83000   31.91000   38.83000    0.03200    0.00000    0.00000  125.30100    0.24900    1.00000    0.13000    0.21100
 3518.50000    2.28000    2.16500    2.17400    2.32900    8.50000    8.57800    0.04100   35.59800    0.18300    4.84200   23.16000   26.39400   35.15600    2.24200   44.48000   29.99400   44.48000   35.15600   44.48000    0.03000    0.00000    0.00000   33.70400    0.22300    1.00000    0.13500    0.25100
 3519.00000    2.35800    2.23900    2.23500    2.36200    8.50000    8.57800    0.04200   43.40800    0.18800    5.09100   26.85600   24.48700   37.77800    2.30100   52.83600   30.04200   52.84200   37.77800   52.83600    0.02800    0.00000    0.00000    6.39500    0.20500    1.00000    0.13600    0.31500
 3519.50000    2.33900    2.30900    2.38000    2.35300    8.50000    8.57800    0.05500   46.70200    0.19300    5.17100   29.26900   27.22700   32.83900    2.34500   35.80800   30.02600   35.81000   32.84100   35.80800    0.03200    0.00000    0.00000    2.88200    0.19200    1.00000    0.16900    0.34200
 3520.00000    2.32900    2.34800    2.47300    2.33600    8.50000    8.57800    0.06200   46.96000    0.19000    5.35200   29.23300   25.25400   28.50000    2.36500   28.37600   29.99900   28.37800   28.50200   28.37600    0.03500    0.00000    0.00000    2.36000    0.18400    1.00000    0.19300    0.34400
 3520.50000    2.35100    2.30200    2.48500    2.35600    8.50000    8.60900    0.04900   51.19000    0.18500    5.27100   28.93900   27.54400   22.68700    2.35800   21.23100   29.97200   21.23100   22.68600   21.23100    0.04000    0.00000    0.00000    1.16600    0.18400    1.00000    0.21800    0.37900
 3521.00000    2.33800    2.38000    2.41400    2.45700    8.50000    8.62500    0.03500   48.42400    0.20400    5.93200   34.21000   33.74900   17.94400    2.38600   13.24500   29.97200   13.24500   17.94300   13.24500    0.04800    0.00000    0.00000    1.78800    0.18200    1.00000    0.26500    0.35600
 3521.50000    2.53800    2.42100    2.26100    2.44000    8.50000    8.62500    0.05900   49.43300    0.19600    5.50100   30.91400   19.18800   42.82600    2.37800  103.78300   29.97800  103.81700   42.83200  103.78300    0.02100    0.00000    0.00000    1.50000    0.18200    1.00000    0.11500    0.36400
 3522.00000    2.27500    2.38600    2.17600    2.39700    8.50000    8.60900    0.02200   46.33500    0.20100    5.33100  100.50900   18.25000   65.82400    2.29000 62290.77000   29.67600 62290.77000   65.80400 62290.77000    0.01700    0.00000    0.00000    4.56700    0.21400    1.00000    0.07900    0.33900
 3522.50000    2.55100    2.33400    2.13500    2.36100    8.50000    8.60900    0.04200   44.36900    0.18800    5.17900 6367.45300   18.96500   84.59400    2.31200 62290.77000   29.84100 62290.77000   84.59200 62290.77000    0.01600    0.00000    0.00000    5.07200    0.20100    1.00000    0.08000    0.32300
 3523.00000    2.63900    2.27400    2.12200    2.25700    8.50000    8.57800    0.05700   41.12000    0.19300    4.85000 6381.09900   19.02100  102.35800    2.26200 62290.77000   30.01600 62290.77000  102.35100 62290.77000    0.01600    0.00000    0.00000   12.50100    0.22000    1.00000    0.07200    0.29600
 3523.50000    2.39000    2.20100    2.12900    2.19300    8.50000    8.57800    0.05200   33.07300    0.19500    4.64800   91.24900   17.17500   69.41200    2.19300 62290.77000   30.00400 62290.77000   69.41000 62290.77000    0.01600    0.00000    0.00000   76.69400    0.24400    1.00000    0.06600    0.23000
 3524.00000    2.29800    2.15000    2.12800    2.13400    8.50000    8.57800    0.05200   31.16600    0.19700    4.60600   33.16300   14.91600   51.45700    2.16400  186.82200   30.00400  186.83400   51.46000  186.82200    0.01700    0.00000    0.00000  130.00300    0.25500    1.00000    0.06700    0.21400
 3524.50000    2.23200    2.13500    2.15900    2.13800    8.50000    8.60900    0.05500   33.20200    0.19200    4.68400   24.53900   14.73800   40.25600    2.16500  132.99700   30.00400  133.00300   40.25600  132.99700    0.02000    0.00000    0.00000   87.97000    0.25300    1.00000    0.07800    0.23100
 3525.00000    2.18000    2.13300    2.15100    2.14300    8.50000    8.57800    0.04800   31.46500    0.20200    4.63500   20.20200   13.71300   31.90800    2.15000   73.85100   30.00400   73.85200   31.90800   73.85100    0.02500    0.00000    0.00000  139.84400    0.26200    1.00000    0.09600    0.21700
 3525.50000    2.14600    2.13200    2.13000    2.12700    8.50000    8.57800    0.04200   30.31200    0.21500    4.66700   18.06100   12.79500   27.87000    2.13100   57.99900   29.97800   58.00000   27.87000   57.99900    0.02800    0.00000    0.00000  211.48700    0.27400    1.00000    0.10200    0.20700
 3526.00000    2.12300    2.13300    2.13400    2.11800    8.50000    8.57800    0.03900   28.10700    0.20300    4.52000   15.31500   11.86500   24.31700    2.12600   46.30200   29.95300   46.30300   24.31700   46.30200    0.03100    0.00000    0.00000  288.76200    0.27100    1.00000    0.11300    0.18900
 3526.50000    2.13000    2.13100    2.12900    2.12700    8.50000    8.57800    0.03600   28.60900    0.20400    4.43400   13.62700   10.88700   21.17500    2.12800   42.86200   29.95700   42.86400   21.17600   42.86200    0.03200    0.00000    0.00000  264.76200    0.27100    1.00000    0.11700    0.19300
 3527.00000    2.13900    2.15000    2.16500    2.13800    8.50000    8.57800    0.04500   27.22800    0.20800    4.65300   10.46700    9.57000   16.07300    2.14900   27.87500   30.00500   27.87600   16.07300   27.87500    0.03700    0.00000    0.00000  301.73800    0.26500    1.00000    0.14100    0.18200
 3527.50000    2.17600    2.19400    2.19500    2.15500    8.50000    8.57800    0.04600   28.99600    0.21200    4.67800    8.20800    8.11300   11.03100    2.17900   15.17100   30.02000   15.17400   11.03200   15.17100    0.04800    0.00000    0.00000  190.12200    0.25600    1.00000    0.18600    0.19700
 3528.00000    2.23100    2.19100    2.19300    2.19400    8.50000    8.57800    0.05300   29.14900    0.22700    4.67500    6.02800    7.47800    5.28600    2.19700    4.56400   30.02000    4.56400    5.28600    4.56400    0.07800    0.00000    0.00000  186.16700    0.25600    1.00000    0.30400    0.19800
 3528.50000    2.19400    2.19600    2.19800    2.18200    8.50000    8.57800    0.05500   29.07300    0.22700    4.66900    4.19400    6.13400    3.88800    2.18900    3.31800   29.99400    3.31800    3.88800    3.31800    0.08900    0.00000    0.00000  196.99900    0.25900    1.00000    0.34400    0.19700
 3529.00000    2.18400    2.19400    2.18200    2.18900    8.50000    8.57800    0.05200   26.84100    0.23100    4.57200    3.25800    5.18500    3.09000    2.18500    2.56400   29.96700    2.56400    3.09000    2.56400    0.09900    0.00000    0.00000  304.01900    0.26200    1.00000    0.37700    0.17900
