~Version ---------------------------------------------------
VERS.   2.0 : CWLS log ASCII Standard -VERSION 2.0
WRAP.    NO : One line per depth step
DLM . SPACE : Column Data Section Delimiter
~Well ------------------------------------------------------
STRT.ft       145.90000 : START DEPTH
STOP.ft      4093.90000 : STOP DEPTH
STEP.ft         0.50000 : STEP
NULL.           -999.25 : NULL VALUE
COMP. Statoil Petroleum : COMPANY
WELL.        15/9-F-1 C : WELL
FLD .             VOLVE : FIELD
LOC .   Maersk Inspirer : LOCATION
PROV.                   : PROVINCE
CNTY.                   : COUNTY
STAT.                   : STATE
CTRY.                   : COUNTRY
SRVC.                   : SERVICE COMPANY
DATE.                   : DATE
UWI .                   : UNIQUE WELL ID
API .                   : API NUMBER
~Curve Information -----------------------------------------
DEPT        .ft        : 
ABDCQF01    .g/cm3     : 
ABDCQF02    .g/cm3     : 
ABDCQF03    .g/cm3     : 
ABDCQF04    .g/cm3     : 
BS          .inches    : 
CALI        .inches    : 
DRHO        .g/cm3     : 
GR          .API       : 
NBGRCFM     .API       : 
NPHI        .v/v       : 
PEF         .b/elec    : 
RACEHM      .ohm.m     : 
RACELM      .ohm.m     : 
RD          .ohm.m     : 
RHOB        .g/cm3     : 
RM          .ohm.m     : 
ROP         .m/hr      : 
RPCEHM      .ohm.m     : 
RPCELM      .ohm.m     : 
RT          .ohm.m     : 
BADDATA_FLAG.unitless  : 
BVW         .v/v       : 
COAL_FLAG   .unitless  : 
KLOGH       .mD        : 
PHIF        .v/v       : 
SAND_FLAG   .unitless  : 
SW          .v/v       : 
VCARB       .v/v       : 
VSH         .v/v       : 
~Params ----------------------------------------------------
~Other -----------------------------------------------------
PETROPHYSICAL INTERPRETATION: INPUT

# --- LOG MNEMONICS AND UNITS ---
#Depth          ABDCQF01        ABDCQF02        ABDCQF03        ABDCQF04        BS              CALI            DRHO            GR              NBGRCFM         NPHI            PEF             RACEHM          RACELM          RD              RHOB            RM              ROP             RPCEHM          RPCELM          RT
#M              g/cm3           g/cm3           g/cm3           g/cm3           inches          inches          g/cm3           API             API             v/v             b/elec          ohm.m           ohm.m           ohm.m           g/cm3           ohm.m           m/hr            ohm.m           ohm.m           ohm.m
~ASCII -----------------------------------------------------
# ...
 3458.40000    2.31090    2.32540    2.38130    2.37090    8.50000    8.52430    0.03710   47.35820   46.27520    0.22560    5.81090    0.83280    1.20580    0.81490    2.34540    0.68510   29.88830    0.68510    0.81490    0.68510    0.00000    0.16420    0.00000    2.64720    0.20160    1.00000    0.81450    0.00000    0.35720
 3458.90000    2.35940    2.35300    2.42030    2.36880    8.50000    8.52430    0.04140   38.87050   43.82300    0.22100    5.84650    1.13260    1.28270    1.18680    2.37290    1.06830   29.89750    1.06820    1.18680    1.06830    0.00000    0.13450    0.00000    5.34990    0.19250    1.00000    0.69860    0.00000    0.28200
 3459.40000    2.34960    2.39060    2.43640    2.40670    8.50000    8.52430    0.03680   38.86970   37.89950    0.19600    6.14100    1.50370    1.39630    1.41740    2.39440    1.35610   29.82270    1.35610    1.41730    1.35610    0.00000    0.11890    0.00000    7.41580    0.17600    1.00000    0.67540    0.00000    0.28200
 3459.90000    2.44180    2.44680    2.44360    2.44590    8.50000    8.52430    0.04460   35.77820   38.17900    0.17220    6.21170    2.06980    1.59270    1.93740    2.44250    1.95360   29.83170    1.95350    1.93740    1.95360    0.00000    0.09830    0.00000    8.09250    0.15000    1.00000    0.65520    0.00000    0.25470
 3460.40000    2.49430    2.50230    2.46100    2.46850    8.50000    8.52430    0.04610   34.82790   39.41330    0.15090    6.39480    2.64490    1.76440    2.34270    2.47540    2.46350   29.78000    2.46330    2.34260    2.46350    0.00000    0.08650    0.00000    6.69020    0.13020    1.00000    0.66430    0.00000    0.24630
 3460.90000    2.55490    2.54390    2.53830    2.56280    8.50000    8.55690    0.04540   34.29360   33.72930    0.13480    6.49430    3.37700    1.93280    3.31390    2.55180    4.22410   29.92860    4.22390    3.31370    4.22410    0.00000    0.05610    0.00000    1.88410    0.05610    0.00000    1.00000    0.25080    0.24150
 3461.40000    2.55420    2.57170    2.60290    2.60010    8.50000    8.55690    0.05480   30.22960   31.84980    0.12230    6.72210    3.50420    2.01120    4.01540    2.57950    6.28020   30.13630    6.28010    4.01530    6.28020    0.00000    0.04030    0.00000    2.96630    0.04030    0.00000    1.00000    0.36970    0.20560
 3461.90000    2.59430    2.61060    2.64900    2.58580    8.50000    8.55690    0.06080   29.27710   32.52950    0.11450    6.84980    3.70070    2.10800    4.59770    2.60860    7.98140   30.08690    7.98140    4.59770    7.98140    0.00000    0.02370    0.00000    2.59920    0.02370    0.00000    1.00000    0.45660    0.19720
 3462.40000    2.59590    2.62650    2.64280    2.65710    8.50000    8.55690    0.05550   27.71770   32.40520    0.10860    7.01670    3.61080    2.16500    4.44710    2.62650    6.90510   29.92220    6.90500    4.44710    6.90510    0.00000    0.02000    0.00000    3.23570    0.02000    0.00000    1.00000    0.49790    0.18330
 3462.90000    2.59790    2.59980    2.54730    2.61390    8.50000    8.55690    0.05690   27.54800   29.82440    0.14310    6.53790    4.06450    2.31370    4.36150    2.58210    5.28040   29.61500    5.28060    4.36160    5.28040    0.00000    0.03870    0.00000    4.71660    0.03870    0.00000    1.00000    0.41590    0.18180
 3463.40000    2.56250    2.45450    2.36850    2.42970    8.50000    8.52430    0.06510   33.56530   36.40240    0.21540    5.87790    4.51220    2.31760    4.90140    2.44310    5.09250   27.72000    5.09250    4.90120    5.09250    0.00000    0.06280    0.00000    6.75430    0.11820    1.00000    0.53100    0.03650    0.23510
 3463.90000    2.36590    2.34620    2.30990    2.33190    8.50000    8.52430    0.04120   43.49110   48.31490    0.24290    5.58460   12.04210    2.45140   11.17930    2.33380   14.02260   28.91900   14.02400   11.18060   14.02260    0.00000    0.04720    0.00000    3.46230    0.19170    1.00000    0.24600    0.00000    0.32290
 3464.40000    2.37070    2.33930    2.32760    2.32620    8.50000    8.52430    0.04130   47.99280   51.17420    0.23300    5.66620    3.63720    2.04200    3.48400    2.33810    3.41800   29.92150    3.41800    3.48400    3.41800    0.00000    0.08560    0.00000    2.60730    0.20490    1.00000    0.41750    0.00000    0.36280
 3464.90000    2.32810    2.34860    2.32420    2.33060    8.50000    8.52430    0.03970   48.36590   48.37000    0.24710    5.62810    1.86190    1.62830    1.65990    2.33140    1.58480   29.77250    1.58490    1.65990    1.58480    0.00000    0.11390    0.00000    1.44980    0.17850    1.00000    0.63820    0.00000    0.36610
 3465.40000    2.36880    2.38110    2.35260    2.36590    8.50000    8.52430    0.04950   44.30740   49.20270    0.22680    5.80140    1.24810    1.39840    1.05750    2.36300    0.81250   29.92740    0.81250    1.05750    0.81250    0.00000    0.14590    0.00000    2.19260    0.16400    1.00000    0.88980    0.00000    0.33010
 3465.90000    2.38110    2.38280    2.35960    2.37150    8.50000    8.55690    0.04140   44.40960   48.06500    0.21770    5.85950    1.02490    1.30500    0.88910    2.36990    0.69090   29.89550    0.69090    0.88920    0.69090    0.00000    0.15450    0.00000    3.68010    0.16200    1.00000    0.95420    0.00000    0.33100
 3466.40000    2.41740    2.38710    2.36350    2.39740    8.50000    8.52430    0.04440   54.47340   55.15040    0.21130    5.96400    0.97300    1.27690    0.87190    2.38670    0.68680   29.95170    0.68680    0.87190    0.68680    0.00000    0.14710    0.00000    0.26470    0.14710    1.00000    1.00000    0.00000    0.42010
 3466.90000    2.54720    2.54030    2.51170    2.47200    8.50000    8.60580    0.05570   49.05050   54.31920    0.15830    6.77970    0.98320    1.29970    0.93670    2.51290    0.80280   29.95460    0.80280    0.93670    0.80280    0.00000    0.07840    0.00000    0.19000    0.07840    0.00000    1.00000    0.02740    0.37210
 3467.40000    2.61340    2.50770    2.56290    2.53240    8.50000    8.63830    0.05350   51.43840   51.14900    0.14440    6.72650    1.46960    1.50050    1.39150    2.54600    1.64830   30.03830    1.64820    1.39150    1.64830    0.00000    0.05940    0.00000    0.08620    0.05940    0.00000    1.00000    0.06180    0.39330
 3467.90000    2.40550    2.52380    2.55070    2.47540    8.50000    8.63830    0.07560   52.05690   57.08920    0.21590    6.29910    1.81780    1.82580    2.03230    2.48750    2.92680   29.99700    2.92680    2.03230    2.92680    0.00000    0.07850    0.00000    0.14250    0.09280    0.00000    0.84540    0.00000    0.39870
 3468.40000    2.44280    2.46650    2.43130    2.49360    8.50000    8.63820    0.03730   65.79950   66.51980    0.17380    6.03670    1.83540    2.06790    2.35160    2.45460    3.86270   29.98350    3.86260    2.35160    3.86270    0.00000    0.07540    0.00000    0.01620    0.11170    0.00000    0.67450    0.00000    0.52030
 3468.90000    2.57690    2.56620    2.55830    2.55450    8.50000    8.55690    0.04920   76.84090   77.23450    0.15800    6.00310    1.45120    2.27280    1.94420    2.56130    1.92400   29.99700    1.92420    1.94430    1.92400    0.00000    0.05070    0.00000    0.00100    0.05070    0.00000    1.00000    0.00000    0.61800
 3469.40000    2.60100    2.57100    2.59500    2.56610    8.50000    8.60570    0.06900   72.78870   78.92870    0.15980    5.93280    2.31330    2.38030    2.42720    2.57900    2.95710   29.95690    2.95710    2.42710    2.95710    0.00000    0.04060    0.00000    0.00120    0.04060    0.00000    1.00000    0.00000    0.58220
 3469.90000    2.54010    2.54670    2.60840    2.58680    8.50000    8.58140    0.05680   81.30660   78.50990    0.16210    5.95770    2.92150    2.54430    3.02940    2.57490    3.77410   29.94330    3.77410    3.02930    3.77410    0.00000    0.04290    0.00000    0.00100    0.04290    0.00000    1.00000    0.00000    0.65760
 3470.40000    2.53430    2.59110    2.61290    2.59340    8.50000    8.55690    0.06230   72.63530   83.11620    0.14550    5.96210    2.93830    2.61880    3.10490    2.58600    3.77650   29.95810    3.77650    3.10490    3.77650    0.00000    0.03660    0.00000    0.00120    0.03660    0.00000    1.00000    0.00000    0.58090
