~Version ---------------------------------------------------
VERS.   2.0 : CWLS log ASCII Standard -VERSION 2.0
WRAP.    NO : One line per depth step
DLM . SPACE : Column Data Section Delimiter
~Well ------------------------------------------------------
STRT.ft          188.50000 : START DEPTH
STOP.ft         4770.50000 : STOP DEPTH
STEP.ft            0.50000 : STEP
NULL.              -999.25 : NULL VALUE
COMP. Statoil Petroleum AS : COMPANY
WELL.          15/9-F-11 B : WELL
FLD .                VOLVE : FIELD
LOC .      Maersk Inspirer : LOCATION
PROV.                      : PROVINCE
CNTY.                      : COUNTY
STAT.                      : STATE
CTRY.                      : COUNTRY
SRVC.                      : SERVICE COMPANY
DATE.                      : DATE
UWI .                      : UNIQUE WELL ID
API .                      : API NUMBER
~Curve Information -----------------------------------------
DEPT     .ft        : 
ABDCQF01 .g/cm3     : 
ABDCQF02 .g/cm3     : 
ABDCQF03 .g/cm3     : 
ABDCQF04 .g/cm3     : 
BS       .inches    : 
CALI     .inches    : 
DRHO     .g/cm3     : 
GR       .API       : 
NPHI     .v/v       : 
PEF      .b/elec    : 
RACEHM   .ohm.m     : 
RACELM   .ohm.m     : 
RD       .ohm.m     : 
RHOB     .g/cm3     : 
RM       .ohm.m     : 
ROP      .m/hr      : 
RPCEHM   .ohm.m     : 
RPCELM   .ohm.m     : 
RT       .ohm.m     : 
BVW      .v/v       : 
CARB_FLAG.unitless  : 
COAL_FLAG.unitless  : 
KLOGH    .mD        : 
PHIF     .v/v       : 
SAND_FLAG.UNKNOWN   : 
SW       .v/v       : 
VSH      .v/v       : 
~Params ----------------------------------------------------
~Other -----------------------------------------------------
PETROPHYSICAL_INTERPRETATION: INPUT

# --- LOG MNEMONICS AND UNITS ---
#Depth     ABDCQF01   ABDCQF02   ABDCQF03   ABDCQF04   BS         CALI       DRHO       GR         NPHI       PEF        RACEHM     RACELM     RD         RHOB       RM         ROP        RPCEHM     RPCELM     RT
#M         g/cm3      g/cm3      g/cm3      g/cm3      inches     inches     g/cm3      API        v/v        b/elec     ohm.m      ohm.m      ohm.m      g/cm3      ohm.m      m/hr       ohm.m      ohm.m      ohm.m
~ASCII -----------------------------------------------------
# ...
 3919.50000    2.19100    2.19700    2.19300    2.17000    8.50000    8.62500    0.04200   16.35400    0.16800    4.18900   66.13000   31.31200   64.02800    2.18200   71.14400   14.27200   71.14400   64.02800   71.14400    0.02400    0.00000    0.00000 1161.83100    0.23800    1.00000    0.10300    0.09300
 3920.00000    2.16900    2.18600    2.18000    2.17500    8.50000    8.62500    0.04800   15.94500    0.17000    4.34300   64.26500   28.93200   62.39600    2.17500   68.59600   14.33600   68.59700   62.39600   68.59600    0.02500    0.00000    0.00000 1312.94000    0.24100    1.00000    0.10300    0.09000
 3920.50000    2.15900    2.19300    2.22800    2.18000    8.50000    8.64400    0.04800   15.90200    0.17000    4.35300   60.26600   29.21100   58.30300    2.19200   63.64300   14.61800   63.64400   58.30400   63.64300    0.02500    0.00000    0.00000 1191.36500    0.23500    1.00000    0.10800    0.08900
 3921.00000    2.18500    2.21300    2.22800    2.20400    8.50000    8.62500    0.04900   14.44000    0.17100    4.45400   59.66300   27.79400   54.08400    2.21100   58.13700   14.87900   58.13700   54.08400   58.13700    0.02600    0.00000    0.00000 1360.49000    0.22900    1.00000    0.11500    0.07700
 3921.50000    2.26200    2.21900    2.19100    2.20100    8.50000    8.67200    0.04900   19.21700    0.18400    4.47900   52.28600   25.39500   48.10300    2.21000   50.22500   15.00900   50.22600   48.10300   50.22500    0.02800    0.00000    0.00000  674.55200    0.23500    1.00000    0.12000    0.11600
 3922.00000    2.20600    2.21600    2.22200    2.19000    8.50000    8.64400    0.04300   16.15700    0.17800    4.38300   52.28000   22.82900   58.65500    2.20800   69.43900   14.99500   69.44100   58.65600   69.43900    0.02500    0.00000    0.00000 1092.56600    0.23300    1.00000    0.10500    0.09100
 3922.50000    2.25000    2.22100    2.16100    2.20200    8.50000    8.62500    0.04700   14.72300    0.17300    4.36200   48.88600   21.69500   47.64600    2.19400   50.36800   14.98200   50.36600   47.64400   50.36800    0.02800    0.00000    0.00000 1464.83200    0.23500    1.00000    0.11900    0.08000
 3923.00000    2.19300    2.18100    2.17100    2.16700    8.50000    8.62500    0.04200   16.14400    0.17300    4.25300   47.64800   20.06700   51.89000    2.17000   57.77600   14.98200   57.77700   51.89000   57.77600    0.02700    0.00000    0.00000 1340.23500    0.24400    1.00000    0.11000    0.09100
 3923.50000    2.15600    2.16900    2.16300    2.16800    8.50000    8.65300    0.04200   14.80900    0.17700    4.36500   46.95100   19.57500   49.60800    2.16200   56.33900   14.99200   56.33900   49.60800   56.33900    0.02700    0.00000    0.00000 1828.70900    0.24800    1.00000    0.10900    0.08000
 3924.00000    2.16800    2.16800    2.17900    2.18700    8.50000    8.62500    0.04100   15.74800    0.17800    4.27800   48.39300   18.91600   49.22400    2.17400   54.55800   15.01400   54.55800   49.22400   54.55800    0.02700    0.00000    0.00000 1449.61100    0.24400    1.00000    0.11200    0.08800
 3924.50000    2.16300    2.16400    2.19800    2.18600    8.50000    8.62500    0.04300   15.92300    0.16600    4.25100   46.97900   17.42900   48.59700    2.17900   53.95900   15.01300   53.95900   48.59600   53.95900    0.02700    0.00000    0.00000 1254.14000    0.23800    1.00000    0.11500    0.09000
 3925.00000    2.16500    2.20500    2.21500    2.19300    8.50000    8.62500    0.04000   14.74600    0.17600    4.40000   47.20700   17.08300   48.60600    2.19400   54.44000   15.00000   54.44000   48.60500   54.44000    0.02700    0.00000    0.00000 1499.29400    0.23700    1.00000    0.11500    0.08000
 3925.50000    2.18400    2.22000    2.19800    2.19500    8.50000    8.60200    0.04600   16.62100    0.17200    4.31000   47.54600   16.54700   46.33800    2.19500   51.08000   14.98600   51.08100   46.33800   51.08000    0.02800    0.00000    0.00000 1054.45900    0.23500    1.00000    0.11900    0.09500
 3926.00000    2.18600    2.19300    2.17600    2.18000    8.50000    8.62500    0.04700   14.74200    0.16500    4.27400   45.92600   15.86700   47.26700    2.17900   52.30200   14.98600   52.30100   47.26700   52.30200    0.02800    0.00000    0.00000 1514.27000    0.23700    1.00000    0.11600    0.08000
 3926.50000    2.19400    2.18700    2.18500    2.18400    8.50000    8.62500    0.04300   13.95500    0.16200    4.28100   46.30500   15.71700   48.96900    2.18500   55.29400   14.99600   55.29400   48.97000   55.29400    0.02700    0.00000    0.00000 1641.53500    0.23400    1.00000    0.11500    0.07300
 3927.00000    2.19400    2.20300    2.21200    2.21000    8.50000    8.62500    0.05400   14.56000    0.16400    4.34600   47.03100   15.27500   49.73700    2.20400   58.91800   15.01800   58.91800   49.73700   58.91800    0.02600    0.00000    0.00000 1326.95300    0.22900    1.00000    0.11400    0.07800
 3927.50000    2.19100    2.20400    2.19400    2.19300    8.50000    8.62500    0.04600   14.32300    0.17100    4.33800   47.15700   14.72900   46.94300    2.19500   56.04800   15.01700   56.04800   46.94200   56.04800    0.02700    0.00000    0.00000 1541.22200    0.23400    1.00000    0.11400    0.07600
 3928.00000    2.20200    2.19600    2.19800    2.20100    8.50000    8.62500    0.04800   15.27700    0.16300    4.30800   46.11500   13.87800   48.10400    2.19600   58.60800   15.00400   58.60900   48.10500   58.60800    0.02600    0.00000    0.00000 1222.29300    0.23100    1.00000    0.11400    0.08400
 3928.50000    2.21200    2.19200    2.18600    2.18900    8.50000    8.62500    0.04400   15.07000    0.16900    4.35900   46.49000   13.23600   46.30700    2.19100   56.17100   14.99000   56.17100   46.30700   56.17100    0.02700    0.00000    0.00000 1370.21100    0.23500    1.00000    0.11400    0.08300
 3929.00000    2.20400    2.17800    2.19100    2.17900    8.50000    8.67200    0.04800   15.78200    0.17200    4.38400   45.49300   13.02100   46.57400    2.18300   57.43000   14.99000   57.42900   46.57300   57.43000    0.02700    0.00000    0.00000 1305.47700    0.23900    1.00000    0.11200    0.08800
 3929.50000    2.20600    2.18200    2.18500    2.17500    8.50000    8.67200    0.04700   14.49400    0.16800    4.41400   48.98000   12.88900   46.68400    2.18400   58.00400   14.97200   58.00500   46.68400   58.00400    0.02600    0.00000    0.00000 1570.12000    0.23700    1.00000    0.11200    0.07800
 3930.00000    2.18300    2.19100    2.18800    2.17500    8.50000    8.64900    0.04800   13.38200    0.16800    4.40200   48.62200   11.80400   47.15000    2.18300   61.35200   14.99300   61.35100   47.15000   61.35200    0.02600    0.00000    0.00000 1907.01000    0.23700    1.00000    0.10900    0.06900
 3930.50000    2.17900    2.19900    2.19200    2.17800    8.50000    8.62500    0.04800   13.65400    0.17100    4.43200   50.91500   11.36600   46.91700    2.18600   64.71900   14.99000   64.71900   46.91600   64.71900    0.02500    0.00000    0.00000 1818.68100    0.23700    1.00000    0.10700    0.07100
 3931.00000    2.21800    2.20100    2.20000    2.18300    8.50000    8.67200    0.04700   15.81200    0.17300    4.37100   54.45300   10.80700   48.47300    2.19500   69.82300   14.99800   69.82400   48.47300   69.82300    0.02500    0.00000    0.00000 1206.33200    0.23500    1.00000    0.10500    0.08900
 3931.50000    2.21500    2.19100    2.19400    2.18800    8.50000    8.62500    0.04500   14.08100    0.16600    4.29900   59.07400   10.43500   51.71600    2.19300   76.91300   14.99800   76.90900   51.71600   76.91300    0.02500    0.00000    0.00000 1564.66200    0.23300    1.00000    0.10800    0.07400
 3932.00000    2.20000    2.18000    2.17900    2.19300    8.50000    8.62500    0.04700   14.36700    0.17500    4.28000  143.82900    9.72800   61.69600    2.18500  121.48200   14.99800  121.47600   61.69600  121.48200    0.02600    0.00000    0.00000 1674.54500    0.23900    1.00000    0.10800    0.07700
