~Version ---------------------------------------------------
VERS.   2.0 : CWLS log ASCII Standard -VERSION 2.0
WRAP.    NO : One line per depth step
DLM . SPACE : Column Data Section Delimiter
~Well ------------------------------------------------------
STRT.ft          145.90000 : START DEPTH
STOP.ft         3681.90000 : STOP DEPTH
STEP.ft            0.50000 : STEP
NULL.              -999.25 : NULL VALUE
COMP. Statoil Petroleum AS : COMPANY
WELL.           15/9-F-1 A : WELL
FLD .                VOLVE : FIELD
LOC .      Maersk Inspirer : LOCATION
PROV.                      : PROVINCE
CNTY.               Unused : COUNTY
STAT.                      : STATE
CTRY.                      : COUNTRY
SRVC.                      : SERVICE COMPANY
DATE.                      : DATE
UWI .                      : UNIQUE WELL ID
API .                      : API NUMBER
~Curve Information -----------------------------------------
DEPT     .ft        : 
ABDCQF01 .g/cm3     : 
ABDCQF02 .g/cm3     : 
ABDCQF03 .g/cm3     : 
ABDCQF04 .g/cm3     : 
BS       .inches    : 
CALI     .inches    : 
DRHO     .g/cm3     : 
DT       .us/ft     : 
DTS      .us/ft     : 
GR       .API       : 
NPHI     .v/v       : 
PEF      .b/elec    : 
RACEHM   .UNKNOWN   : 
RACELM   .UNKNOWN   : 
RHOB     .g/cm3     : 
ROP      .m/hr      : 
RPCEHM   .UNKNOWN   : 
RPCELM   .UNKNOWN   : 
RT       .ohm.m     : 
BVW      .V/V       : 
COAL_FLAG.unitless  : 
KLOGH    .mD        : 
PHIF     .V/V       : 
SAND_FLAG.unitless  : 
SW       .V/V       : 
VCARB    .V/V       : 
VSH      .V/V       : 
~Params ----------------------------------------------------
~Other -----------------------------------------------------
PETROPHYSICAL INTERPRETATION: INPUT

# --- LOG MNEMONICS AND UNITS ---
#Depth          ABDCQF01        ABDCQF02        ABDCQF03        ABDCQF04        BS              CALI            DRHO            DT              DTS             GR              NPHI            PEF             RACEHM          RACELM          RHOB            ROP             RPCEHM          RPCELM          RT
#M              g/cm3           g/cm3           g/cm3           g/cm3           inches          inches          g/cm3           us/ft           us/ft           API             v/v             b/elec          UNKNOWN         UNKNOWN         g/cm3           m/hr            UNKNOWN         UNKNOWN         ohm.m
~ASCII -----------------------------------------------------
# ...
 2602.90000 -999.25000 -999.25000 -999.25000 -999.25000   12.25000    8.24590   -0.01540 -999.25000 -999.25000   56.00250 -999.25000 -999.25000    0.77550    0.81900 -999.25000 -999.25000    0.84470    0.85400    0.84470 -999.25000 -999.25000 -999.25000 -999.25000 -999.25000 -999.25000 -999.25000 -999.25000
 2603.40000 -999.25000 -999.25000 -999.25000 -999.25000   12.25000    8.42250    0.06970 -999.25000 -999.25000   52.81000 -999.25000 -999.25000    0.92340    0.90290 -999.25000 -999.25000    1.15870    1.03400    1.15870 -999.25000 -999.25000 -999.25000 -999.25000 -999.25000 -999.25000 -999.25000 -999.25000
 2603.90000 -999.25000 -999.25000 -999.25000 -999.25000   12.25000    9.25110    0.09980 -999.25000 -999.25000   58.25100 -999.25000 -999.25000    1.06670    0.92980 -999.25000 -999.25000    0.79740    0.86780    0.79740 -999.25000 -999.25000 -999.25000 -999.25000 -999.25000 -999.25000 -999.25000 -999.25000
 2604.40000 -999.25000 -999.25000 -999.25000 -999.25000   12.25000    9.33430    0.11700 -999.25000 -999.25000   51.08710 -999.25000 -999.25000    1.27880    1.01480 -999.25000 -999.25000    0.91190    1.00590    0.91190 -999.25000 -999.25000 -999.25000 -999.25000 -999.25000 -999.25000 -999.25000 -999.25000
 2604.90000 -999.25000 -999.25000 -999.25000 -999.25000   12.23910    8.98370    0.05170 -999.25000 -999.25000   32.45520 -999.25000 -999.25000    1.34130    1.03970 -999.25000 -999.25000    1.26610    1.12240    1.26610 -999.25000 -999.25000 -999.25000 -999.25000 -999.25000 -999.25000 -999.25000 -999.25000
 2605.40000 -999.25000 -999.25000 -999.25000 -999.25000    8.50000    8.47920    0.06230 -999.25000 -999.25000   53.15550    0.17640    5.07940    1.15710    1.00680    2.34840    8.50200    0.99120    1.01730    0.99120 -999.25000 -999.25000 -999.25000 -999.25000 -999.25000 -999.25000 -999.25000 -999.25000
 2605.90000 -999.25000 -999.25000 -999.25000 -999.25000    8.50000    8.51560    0.05270 -999.25000 -999.25000   72.45840    0.37750    6.59650    0.93080    0.96000    2.36420    1.37190    0.71800    0.79470    0.71800 -999.25000 -999.25000 -999.25000 -999.25000 -999.25000 -999.25000 -999.25000 -999.25000
 2606.40000 -999.25000 -999.25000 -999.25000 -999.25000    8.50000    8.50000    0.05520 -999.25000 -999.25000   56.42120    0.31040    5.86950    0.83770    0.90490    2.35260    7.72070    0.81150    0.86950    0.81150 -999.25000 -999.25000 -999.25000 -999.25000 -999.25000 -999.25000 -999.25000 -999.25000
 2606.90000 -999.25000 -999.25000 -999.25000 -999.25000    8.50000    8.50000    0.04800 -999.25000 -999.25000   36.01930    0.21330    5.35150    1.40870    0.93060    2.34590   12.20940    2.99960    1.48150    2.99960 -999.25000 -999.25000 -999.25000 -999.25000 -999.25000 -999.25000 -999.25000 -999.25000
 2607.40000 -999.25000 -999.25000 -999.25000 -999.25000    8.50000    8.57810    0.05580 -999.25000 -999.25000   41.23550    0.15180    6.43160    1.10730    0.93900    2.39130    9.41320    2.75980    1.49540    2.75980 -999.25000 -999.25000 -999.25000 -999.25000 -999.25000 -999.25000 -999.25000 -999.25000
 2607.90000 -999.25000 -999.25000 -999.25000 -999.25000    8.50000    8.56250    0.06690 -999.25000 -999.25000   72.46040    0.24610    6.49190    1.15250    0.95590    2.42920    6.57260    0.84850    0.91220    0.84850 -999.25000 -999.25000 -999.25000 -999.25000 -999.25000 -999.25000 -999.25000 -999.25000
 2608.40000 -999.25000 -999.25000 -999.25000 -999.25000    8.50000    8.54680    0.06130 -999.25000 -999.25000   90.19840    0.46120    7.10260    1.01470    0.92320    2.42300   10.99150    0.60440    0.74400    0.60440 -999.25000 -999.25000 -999.25000 -999.25000 -999.25000 -999.25000 -999.25000 -999.25000
 2608.90000 -999.25000 -999.25000 -999.25000 -999.25000    8.50000    8.54680    0.05560 -999.25000 -999.25000   69.83160    0.39210    6.90150    0.93660    0.86720    2.36960   14.31980    2.24170    1.30390    2.24170 -999.25000 -999.25000 -999.25000 -999.25000 -999.25000 -999.25000 -999.25000 -999.25000
 2609.40000 -999.25000 -999.25000 -999.25000 -999.25000    8.50000    8.54680    0.08170 -999.25000 -999.25000   73.05470    0.38390    6.63860    0.91950    0.87200    2.44690   13.55990    0.75740    0.84480    0.75740 -999.25000 -999.25000 -999.25000 -999.25000 -999.25000 -999.25000 -999.25000 -999.25000
 2609.90000    2.23060    2.25180    2.36950    2.28370    8.50000    8.50000    0.03760 -999.25000 -999.25000   66.01300    0.36030    6.41690    0.91350    0.85090    2.38000   13.60700    1.06470    0.95590    1.06470 -999.25000 -999.25000 -999.25000 -999.25000 -999.25000 -999.25000 -999.25000 -999.25000
 2610.40000    2.30620    2.32670    2.33670    2.27950    8.50000    8.50010    0.06490 -999.25000 -999.25000   78.21980    0.38440    5.94600    0.76330    0.80670    2.39340   13.71250    0.75970    0.79580    0.75970 -999.25000 -999.25000 -999.25000 -999.25000 -999.25000 -999.25000 -999.25000 -999.25000
 2610.90000    2.32600    2.31540    2.35840    2.35010    8.50000    8.50000    0.05380 -999.25000 -999.25000   83.55570    0.42810    6.48750    0.80370    0.77060    2.35200   14.47790    0.64060    0.68350    0.64060 -999.25000 -999.25000 -999.25000 -999.25000 -999.25000 -999.25000 -999.25000 -999.25000
 2611.40000    2.25890    2.26760    2.31370    2.29160    8.50000    8.54690    0.05290 -999.25000 -999.25000   87.44950    0.45270    6.34930    0.78830    0.75070    2.36410   14.75670    0.64250    0.68140    0.64250 -999.25000 -999.25000 -999.25000 -999.25000 -999.25000 -999.25000 -999.25000 -999.25000
 2611.90000    2.21970    2.26740    2.31990    2.28600    8.50000    8.54680    0.04740 -999.25000 -999.25000   73.93340    0.38410    6.25820    0.74750    0.74280    2.35520   14.78080    1.09200    0.89310    1.09200 -999.25000 -999.25000 -999.25000 -999.25000 -999.25000 -999.25000 -999.25000 -999.25000
 2612.40000    2.21760    2.25950    2.30270    2.27480    8.50000    8.52350    0.06030 -999.25000 -999.25000   91.24250    0.41560    6.27640    0.75640    0.76310    2.38020   14.38440    0.66300    0.72310    0.66300 -999.25000 -999.25000 -999.25000 -999.25000 -999.25000 -999.25000 -999.25000 -999.25000
 2612.90000    2.30250    2.31710    2.36730    2.35510    8.50000    8.54690    0.05210 -999.25000 -999.25000   83.87900    0.43950    6.56470    0.80890    0.79560    2.35480   14.38250    0.76550    0.81040    0.76550 -999.25000 -999.25000 -999.25000 -999.25000 -999.25000 -999.25000 -999.25000 -999.25000
 2613.40000    2.24570    2.29850    2.34710    2.33540    8.50000    8.52340    0.06340 -999.25000 -999.25000   49.64590    0.33710    6.18550    0.87860    0.84500    2.33860   14.71960    0.80790    0.87680    0.80790 -999.25000 -999.25000 -999.25000 -999.25000 -999.25000 -999.25000 -999.25000 -999.25000
 2613.90000    2.27840    2.24910    2.32270    2.32630    8.50000    8.50000    0.05090 -999.25000 -999.25000   41.92820    0.26940    5.43050    1.02990    0.87310    2.27190   14.82040    1.01320    0.99970    1.01320 -999.25000 -999.25000 -999.25000 -999.25000 -999.25000 -999.25000 -999.25000 -999.25000
 2614.40000    2.30040    2.27670    2.33450    2.31250    8.50000    8.50000    0.04790 -999.25000 -999.25000   79.78910    0.35580    5.93910    0.86990    0.87200    2.29310   14.94420    0.77950    0.83170    0.77950 -999.25000 -999.25000 -999.25000 -999.25000 -999.25000 -999.25000 -999.25000 -999.25000
 2614.90000    2.29850    2.26770    2.27330    2.25310    8.50000    8.54680    0.04910 -999.25000 -999.25000   72.77960    0.39110    6.36840    0.94850    0.95510    2.33890   14.18160    0.67430    0.83920    0.67430 -999.25000 -999.25000 -999.25000 -999.25000 -999.25000 -999.25000 -999.25000 -999.25000
 2615.40000    2.29760    2.30370    2.35810    2.31690    8.50000    8.50000    0.05520 -999.25000 -999.25000   76.06530    0.42310    6.56630    1.00300    0.95290    2.32250   13.72730    0.91040    0.95550    0.91040 -999.25000 -999.25000 -999.25000 -999.25000 -999.25000 -999.25000 -999.25000 -999.25000
