~Version ---------------------------------------------------
VERS.   2.0 : CWLS log ASCII Standard -VERSION 2.0
WRAP.    NO : One line per depth step
DLM . SPACE : Column Data Section Delimiter
~Well ------------------------------------------------------
STRT.ft          188.50000 : START DEPTH
STOP.ft         4770.50000 : STOP DEPTH
STEP.ft            0.50000 : STEP
NULL.              -999.25 : NULL VALUE
COMP. Statoil Petroleum AS : COMPANY
WELL.          15/9-F-11 B : WELL
FLD .                VOLVE : FIELD
LOC .      Maersk Inspirer : LOCATION
PROV.                      : PROVINCE
CNTY.                      : COUNTY
STAT.                      : STATE
CTRY.                      : COUNTRY
SRVC.                      : SERVICE COMPANY
DATE.                      : DATE
UWI .                      : UNIQUE WELL ID
API .                      : API NUMBER
~Curve Information -----------------------------------------
DEPT     .ft        : 
ABDCQF01 .g/cm3     : 
ABDCQF02 .g/cm3     : 
ABDCQF03 .g/cm3     : 
ABDCQF04 .g/cm3     : 
BS       .inches    : 
CALI     .inches    : 
DRHO     .g/cm3     : 
GR       .API       : 
NPHI     .v/v       : 
PEF      .b/elec    : 
RACEHM   .ohm.m     : 
RACELM   .ohm.m     : 
RD       .ohm.m     : 
RHOB     .g/cm3     : 
RM       .ohm.m     : 
ROP      .m/hr      : 
RPCEHM   .ohm.m     : 
RPCELM   .ohm.m     : 
RT       .ohm.m     : 
BVW      .v/v       : 
CARB_FLAG.unitless  : 
COAL_FLAG.unitless  : 
KLOGH    .mD        : 
PHIF     .v/v       : 
SAND_FLAG.UNKNOWN   : 
SW       .v/v       : 
VSH      .v/v       : 
~Params ----------------------------------------------------
~Other -----------------------------------------------------
PETROPHYSICAL_INTERPRETATION: INPUT

# --- LOG MNEMONICS AND UNITS ---
#Depth     ABDCQF01   ABDCQF02   ABDCQF03   ABDCQF04   BS         CALI       DRHO       GR         NPHI       PEF        RACEHM     RACELM     RD         RHOB       RM         ROP        RPCEHM     RPCELM     RT
#M         g/cm3      g/cm3      g/cm3      g/cm3      inches     inches     g/cm3      API        v/v        b/elec     ohm.m      ohm.m      ohm.m      g/cm3      ohm.m      m/hr       ohm.m      ohm.m      ohm.m
~ASCII -----------------------------------------------------
# ...
 4738.50000    2.52600    2.52300    2.56600    2.51300    8.50000    8.67200    0.08500   74.87000    0.11300    5.22300    3.20800    3.84000    2.91900    2.52800    2.77800    5.63400    2.77800    2.91900    2.77800    0.07900    0.00000    0.00000    0.05100    0.09700    0.00000    0.81700    0.69900
 4739.00000    2.54000    2.59400    2.59800    2.56500    8.50000    8.70300    0.07900   41.60700    0.09600    5.09500    3.35200    3.48700    3.53200    2.57100    4.15300   11.71400    4.15300    3.53200    4.15300    0.06400    0.00000    0.00000    0.04800    0.07500    0.00000    0.84300    0.36600
 4739.50000    2.57500    2.57200    2.58400    2.58200    8.50000    8.72600    0.08300   35.48100    0.10100    4.31900    3.72600    3.10600    3.68800    2.57800    4.64200   18.94200    4.64200    3.68900    4.64200    0.06000    0.00000    0.00000    0.06100    0.07500    0.00000    0.80800    0.30500
 4740.00000    2.56600    2.57300    2.57300    2.57200    8.50000    8.76000    0.07800   31.42300    0.11400    4.61700    3.91900    2.81300    3.40500    2.57100    4.22500   19.78600    4.22400    3.40500    4.22500    0.04500    0.00000    0.00000    0.00800    0.04500    0.00000    1.00000    0.26400
 4740.50000    2.58300    2.57300    2.57300    2.57000    8.50000    8.75000    0.08500   32.32400    0.12700    5.42400    3.43900    2.63500    3.51700    2.57000    5.26400   19.81300    5.26400    3.51700    5.26400    0.04600    0.00000    0.00000    0.00800    0.04600    0.00000    1.00000    0.27300
 4741.00000    2.56400    2.57900    2.56900    2.56900    8.50000    8.78800    0.07300   40.42600    0.11700    4.85000    2.74800    2.40600    3.07500    2.55900    5.39600   19.69400    5.39700    3.07500    5.39600    0.05200    0.00000    0.00000    0.00900    0.05200    0.00000    1.00000    0.35400
 4741.50000    2.48200    2.47300    2.46100    2.52400    8.50000    8.67200    0.07800   26.51600    0.10000    5.75700    2.03900    2.20800    1.84700    2.48700    1.82700   20.11100    1.82700    1.84700    1.82700    0.09200    0.00000    0.00000    0.90100    0.10600    1.00000    0.86800    0.21500
 4742.00000    2.50400    2.55900    2.57400    2.48100    8.50000    8.68400    0.08400   17.66600    0.11600    5.34000    1.66700    2.13200    1.58900    2.52300    1.31000   19.07200    1.31000    1.58900    1.31000    0.10000    0.00000    0.00000    0.86400    0.10000    0.00000    1.00000    0.12700
 4742.50000    2.52600    2.52000    2.51200    2.52800    8.50000    8.78100    0.09300   26.82000    0.11900    4.72700    2.14100    2.16300    1.72000    2.51700    1.51100   19.53300    1.51000    1.72000    1.51100    0.09900    0.00000    0.00000    0.74100    0.10300    1.00000    0.95800    0.21800
 4743.00000    2.53700    2.55500    2.53000    2.53100    8.50000    8.78100    0.07500   35.39000    0.11700    4.72900    1.90900    1.94100    2.09000    2.53700    2.90100   22.06700    2.90100    2.09000    2.90100    0.07600    0.00000    0.00000    0.28200    0.09600    0.00000    0.79000    0.30400
 4743.50000    2.54600    2.48200    2.48000    2.53800    8.50000    8.82800    0.09800   22.00500    0.10700    4.73900    1.88800    1.84000    2.36800    2.51300    4.28900   22.20500    4.28900    2.36800    4.28900    0.06400    0.00000    0.00000    0.72400    0.10000    0.00000    0.64200    0.17000
 4744.00000    2.45800    2.41600    2.38600    2.42300    8.50000    8.67200    0.07400   12.82800    0.10600    4.54700    1.66900    1.77700    1.46700    2.42400    1.31700   17.84100    1.31700    1.46700    1.31700    0.10700    0.00000    0.00000   10.16900    0.13000    1.00000    0.82200    0.07800
 4744.50000    2.44900    2.45100    2.43100    2.44300    8.50000    8.67200    0.07000   20.04700    0.12100    4.16200    1.50700    1.78200    1.36600    2.44100    1.20800   17.54600    1.20800    1.36600    1.20800    0.11100    0.00000    0.00000    7.21600    0.13000    1.00000    0.85600    0.15000
 4745.00000    2.41000    2.47100    2.55100    2.49600    8.50000    8.71900    0.06600   39.58200 -999.25000    4.71400    2.02300    1.81700    1.82500    2.50000    2.12200   22.21800    2.12200    1.82500    2.12200 -999.25000 -999.25000 -999.25000 -999.25000 -999.25000 -999.25000 -999.25000    0.34600
 4745.50000    2.59700    2.57900    2.61700    2.58100    8.50000    8.70300    0.08500   49.62600 -999.25000    4.84900    2.70300    1.97600    2.76000    2.59300    4.33200   14.76700    4.33200    2.76000    4.33200 -999.25000 -999.25000 -999.25000 -999.25000 -999.25000 -999.25000 -999.25000    0.44600
 4746.00000    2.62200    2.62000    2.57400    2.57800    8.50000    8.77200    0.11100   39.42600 -999.25000    5.06700    2.64600    1.95500    2.45700    2.59900    3.18300   24.92800    3.18300    2.45700    3.18300 -999.25000 -999.25000 -999.25000 -999.25000 -999.25000 -999.25000 -999.25000    0.34400
 4746.50000    2.52700    2.52800    2.56800    2.56500    8.50000    8.75000    0.08200   40.30600 -999.25000    5.14300    2.16100    1.89700    2.11700    2.54600    2.36500   30.53000    2.36600    2.11700    2.36500 -999.25000 -999.25000 -999.25000 -999.25000 -999.25000 -999.25000 -999.25000    0.35300
 4747.00000    2.53600    2.52900    2.57100    2.58100    8.50000 -999.25000    0.08100   32.53300 -999.25000    4.99000    1.98200    1.79100    1.99100    2.55700    2.30000   30.21800    2.30000    1.99100    2.30000 -999.25000 -999.25000 -999.25000 -999.25000 -999.25000 -999.25000 -999.25000    0.27500
 4747.50000 -999.25000 -999.25000 -999.25000 -999.25000    8.50000 -999.25000 -999.25000   37.27400 -999.25000 -999.25000    1.81600    1.68400    1.97500 -999.25000    2.56000   29.97500    2.56000    1.97500    2.56000 -999.25000 -999.25000 -999.25000 -999.25000 -999.25000 -999.25000 -999.25000    0.32300
 4748.00000 -999.25000 -999.25000 -999.25000 -999.25000    8.50000 -999.25000 -999.25000   17.38400 -999.25000 -999.25000    1.75400    1.56700    1.48900 -999.25000    1.53000   29.94300    1.53000    1.48900    1.53000 -999.25000 -999.25000 -999.25000 -999.25000 -999.25000 -999.25000 -999.25000    0.12400
 4748.50000 -999.25000 -999.25000 -999.25000 -999.25000    8.50000 -999.25000 -999.25000   21.98800 -999.25000 -999.25000    1.34100    1.43500    1.00000 -999.25000    0.75800   30.28600    0.75800    1.00000    0.75800 -999.25000 -999.25000 -999.25000 -999.25000 -999.25000 -999.25000 -999.25000    0.17000
 4749.00000 -999.25000 -999.25000 -999.25000 -999.25000    8.50000 -999.25000 -999.25000   18.76700 -999.25000 -999.25000    1.21600    1.25200    1.29200 -999.25000    1.58900   31.19200    1.58900    1.29200    1.58900 -999.25000 -999.25000 -999.25000 -999.25000 -999.25000 -999.25000 -999.25000    0.13800
 4749.50000 -999.25000 -999.25000 -999.25000 -999.25000    8.50000 -999.25000 -999.25000   16.39300 -999.25000 -999.25000    1.22000    1.22400    1.15700 -999.25000    1.24200   31.79800    1.24200    1.15700    1.24200 -999.25000 -999.25000 -999.25000 -999.25000 -999.25000 -999.25000 -999.25000    0.11400
 4750.00000 -999.25000 -999.25000 -999.25000 -999.25000    8.50000 -999.25000 -999.25000   20.85800 -999.25000 -999.25000    1.29700    1.35300    1.41300 -999.25000    1.86100   31.77300    1.86200    1.41300    1.86100 -999.25000 -999.25000 -999.25000 -999.25000 -999.25000 -999.25000 -999.25000    0.15900
 4750.50000 -999.25000 -999.25000 -999.25000 -999.25000    8.50000 -999.25000 -999.25000   20.39200 -999.25000 -999.25000    1.90100    1.83600    1.53400 -999.25000    1.43300   31.76200    1.43300    1.53400    1.43300 -999.25000 -999.25000 -999.25000 -999.25000 -999.25000 -999.25000 -999.25000    0.15400
 4751.00000 -999.25000 -999.25000 -999.25000 -999.25000    8.50000 -999.25000 -999.25000   29.97200 -999.25000 -999.25000    2.57100    2.31200    2.69600 -999.25000    3.49800   30.02900    3.49800    2.69600    3.49800 -999.25000 -999.25000 -999.25000 -999.25000 -999.25000 -999.25000 -999.25000    0.25000
