~Version ---------------------------------------------------
VERS.   2.0 : CWLS log ASCII Standard -VERSION 2.0
WRAP.    NO : One line per depth step
DLM . SPACE : Column Data Section Delimiter
~Well ------------------------------------------------------
STRT.ft          145.90000 : START DEPTH
STOP.ft         3681.90000 : STOP DEPTH
STEP.ft            0.50000 : STEP
NULL.              -999.25 : NULL VALUE
COMP. Statoil Petroleum AS : COMPANY
WELL.           15/9-F-1 A : WELL
FLD .                VOLVE : FIELD
LOC .      Maersk Inspirer : LOCATION
PROV.                      : PROVINCE
CNTY.               Unused : COUNTY
STAT.                      : STATE
CTRY.                      : COUNTRY
SRVC.                      : SERVICE COMPANY
DATE.                      : DATE
UWI .                      : UNIQUE WELL ID
API .                      : API NUMBER
~Curve Information -----------------------------------------
DEPT     .ft        : 
ABDCQF01 .g/cm3     : 
ABDCQF02 .g/cm3     : 
ABDCQF03 .g/cm3     : 
ABDCQF04 .g/cm3     : 
BS       .inches    : 
CALI     .inches    : 
DRHO     .g/cm3     : 
DT       .us/ft     : 
DTS      .us/ft     : 
GR       .API       : 
NPHI     .v/v       : 
PEF      .b/elec    : 
RACEHM   .UNKNOWN   : 
RACELM   .UNKNOWN   : 
RHOB     .g/cm3     : 
ROP      .m/hr      : 
RPCEHM   .UNKNOWN   : 
RPCELM   .UNKNOWN   : 
RT       .ohm.m     : 
BVW      .V/V       : 
COAL_FLAG.unitless  : 
KLOGH    .mD        : 
PHIF     .V/V       : 
SAND_FLAG.unitless  : 
SW       .V/V       : 
VCARB    .V/V       : 
VSH      .V/V       : 
~Params ----------------------------------------------------
~Other -----------------------------------------------------
PETROPHYSICAL INTERPRETATION: INPUT

# --- LOG MNEMONICS AND UNITS ---
#Depth          ABDCQF01        ABDCQF02        ABDCQF03        ABDCQF04        BS              CALI            DRHO            DT              DTS             GR              NPHI            PEF             RACEHM          RACELM          RHOB            ROP             RPCEHM          RPCELM          RT
#M              g/cm3           g/cm3           g/cm3           g/cm3           inches          inches          g/cm3           us/ft           us/ft           API             v/v             b/elec          UNKNOWN         UNKNOWN         g/cm3           m/hr            UNKNOWN         UNKNOWN         ohm.m
~ASCII -----------------------------------------------------
# ...
 3096.90000    2.60870    2.60820    2.60320    2.61490    8.50000    8.57810    0.04770   59.99250  105.29430    9.48310    0.04840    7.62200   11.70290   12.80810    2.60600   11.10940   11.19700   11.71130   11.19700 -999.25000 -999.25000 -999.25000 -999.25000 -999.25000 -999.25000 -999.25000 -999.25000
 3097.40000    2.59820    2.61550    2.61760    2.61150    8.50000    8.57810    0.04860   59.83350  104.65900    8.59190    0.04840    7.75050   11.81320   12.87300    2.61160   11.14340   11.37200   11.91810   11.37200 -999.25000 -999.25000 -999.25000 -999.25000 -999.25000 -999.25000 -999.25000 -999.25000
 3097.90000    2.59950    2.61380    2.61770    2.59550    8.50000    8.60170    0.04390   59.94010  104.40520    8.79150    0.04500    7.58640   11.97570   12.72590    2.60730   11.12940   11.67520   12.15070   11.67520 -999.25000 -999.25000 -999.25000 -999.25000 -999.25000 -999.25000 -999.25000 -999.25000
 3098.40000    2.60680    2.60370    2.61240    2.60460    8.50000    8.62500    0.04400   60.12320  104.52480   10.01230    0.04390    7.46560   12.08590   12.84740    2.60470   11.14790   12.19940   12.52810   12.19940 -999.25000 -999.25000 -999.25000 -999.25000 -999.25000 -999.25000 -999.25000 -999.25000
 3098.90000    2.60880    2.61680    2.62710    2.60950    8.50000    8.62490    0.05390   60.33470  104.45590    8.85810    0.04360    7.43150   11.97360   12.50430    2.61690   11.14320   12.38110   12.62110   12.38110 -999.25000 -999.25000 -999.25000 -999.25000 -999.25000 -999.25000 -999.25000 -999.25000
 3099.40000    2.58570    2.60670    2.60880    2.60030    8.50000    8.60940    0.04650   60.52300  104.82310    8.42460    0.04310    7.38660   11.54900   11.76990    2.60010   11.06940   11.15750   11.73700   11.15750 -999.25000 -999.25000 -999.25000 -999.25000 -999.25000 -999.25000 -999.25000 -999.25000
 3099.90000    2.59970    2.60050    2.61640    2.60540    8.50000    8.57810    0.04620   60.62120  105.43510    7.86350    0.04820    7.57020   10.89690   11.08370    2.60590   10.98840   10.32650   10.93990   10.32650 -999.25000 -999.25000 -999.25000 -999.25000 -999.25000 -999.25000 -999.25000 -999.25000
 3100.40000    2.61440    2.60740    2.61870    2.60510    8.50000    8.57810    0.04910   60.78400  105.92530    8.26020    0.04880    7.67770   10.29330   10.24490    2.60910   11.01600    9.85240   10.34830    9.85240 -999.25000 -999.25000 -999.25000 -999.25000 -999.25000 -999.25000 -999.25000 -999.25000
 3100.90000    2.59560    2.58960    2.60400    2.58920    8.50000    8.57810    0.04420   61.10450  106.53160    8.86550    0.05110    7.57600    9.81060    9.43540    2.59280   11.05620    9.71080    9.91830    9.71080 -999.25000 -999.25000 -999.25000 -999.25000 -999.25000 -999.25000 -999.25000 -999.25000
 3101.40000    2.59370    2.60650    2.60560    2.60470    8.50000    8.57810    0.04450   61.19520  107.50170    8.70410    0.05120    7.59770    9.47630    8.62510    2.60150   11.10690   10.21630    9.85500   10.21630 -999.25000 -999.25000 -999.25000 -999.25000 -999.25000 -999.25000 -999.25000 -999.25000
 3101.90000    2.60630    2.60810    2.59970    2.60210    8.50000    8.57810    0.04770   61.28210  108.34230   10.08910    0.05110    7.49470    8.75340    7.63420    2.60130   11.08410    8.78830    8.52570    8.78830 -999.25000 -999.25000 -999.25000 -999.25000 -999.25000 -999.25000 -999.25000 -999.25000
 3102.40000    2.58940    2.59210    2.60220    2.58150    8.50000    8.62500    0.04260   63.32340  114.15910   12.61740    0.05790    7.50650    7.73030    6.75820    2.58940   10.52350    9.33950    8.30350    9.33950 -999.25000 -999.25000 -999.25000 -999.25000 -999.25000 -999.25000 -999.25000 -999.25000
 3102.90000    2.61100    2.61510    2.64170    2.61720    8.50000    8.57810    0.05140   67.27700  125.55260    7.11900    0.04590    7.74270    6.08060    5.72090    2.62380   10.07790    8.43390    7.08070    8.43390 -999.25000 -999.25000 -999.25000 -999.25000 -999.25000 -999.25000 -999.25000 -999.25000
 3103.40000    2.59810    2.62480    2.63480    2.61650    8.50000    8.57810    0.04900   70.47830  134.63210    7.98260    0.04820    7.63630    4.92190    4.88890    2.61910   10.47080    7.28820    5.96550    7.28820 -999.25000 -999.25000 -999.25000 -999.25000 -999.25000 -999.25000 -999.25000 -999.25000
 3103.90000    2.60790    2.62060    2.62830    2.60670    8.50000    8.60170    0.05610   71.30620  136.20100   22.60420    0.08890    7.79480    4.21120    4.45200    2.61500   10.82130    3.07600    3.59380    3.07600 -999.25000 -999.25000 -999.25000 -999.25000 -999.25000 -999.25000 -999.25000 -999.25000
 3104.40000    2.58440    2.57450    2.58670    2.57620    8.50000    8.62500    0.04990   71.17810  135.79600   24.31220    0.09820    7.59560    3.46200    3.83870    2.57650   10.73750    3.16140    3.32020    3.16140 -999.25000 -999.25000 -999.25000 -999.25000 -999.25000 -999.25000 -999.25000 -999.25000
 3104.90000    2.57180    2.58520    2.59660    2.58400    8.50000    8.62500    0.04640   71.35260  135.69190   21.77600    0.09440    7.61170    3.07380    3.42620    2.57770   11.17980    3.42540    3.22210    3.42540 -999.25000 -999.25000 -999.25000 -999.25000 -999.25000 -999.25000 -999.25000 -999.25000
 3105.40000    2.58170    2.59240    2.59300    2.58190    8.50000    8.62500    0.05090   71.75610  136.50190   21.74800    0.09750    7.64130    3.03180    3.21850    2.58710   11.12250    3.14350    2.98780    3.14350 -999.25000 -999.25000 -999.25000 -999.25000 -999.25000 -999.25000 -999.25000 -999.25000
 3105.90000    2.57630    2.58480    2.59010    2.58150    8.50000    8.62500    0.04900   72.45910  138.08060   23.32160    0.09600    7.70030    2.93960    3.14270    2.58200   10.84010    3.39380    3.09280    3.39380 -999.25000 -999.25000 -999.25000 -999.25000 -999.25000 -999.25000 -999.25000 -999.25000
 3106.40000    2.57760    2.58540    2.57590    2.56720    8.50000    8.62500    0.04800   72.94560  136.13410   24.18170    0.11130    7.65470    3.01510    3.17170    2.57450   10.68520    2.99530    2.97530    2.99530 -999.25000 -999.25000 -999.25000 -999.25000 -999.25000 -999.25000 -999.25000 -999.25000
 3106.90000    2.57830    2.58450    2.57790    2.57730    8.50000    8.63680    0.05580   72.05180  132.62520   32.31730    0.10970    7.78450    3.17870    3.28810    2.57710   10.67460    2.95460    3.04660    2.95460 -999.25000 -999.25000 -999.25000 -999.25000 -999.25000 -999.25000 -999.25000 -999.25000
 3107.40000    2.55650    2.57710    2.57680    2.57010    8.50000    8.62500    0.04670   69.83400  128.93080   29.74650    0.10000    7.58790    3.32920    3.34600    2.56990   10.64350    3.31260    3.28470    3.31260 -999.25000 -999.25000 -999.25000 -999.25000 -999.25000 -999.25000 -999.25000 -999.25000
 3107.90000    2.57240    2.57990    2.59810    2.57690    8.50000    8.62500    0.04930   68.26370  127.09610   25.83540    0.09020    7.74480    3.54260    3.44140    2.58280   10.68490    3.93290    3.64000    3.93290 -999.25000 -999.25000 -999.25000 -999.25000 -999.25000 -999.25000 -999.25000 -999.25000
 3108.40000    2.56990    2.58040    2.58360    2.57910    8.50000    8.62500    0.04780   67.28000  127.64450   20.50040    0.08690    7.76030    3.89460    3.71800    2.57790   10.69540    4.72230    4.15770    4.72230 -999.25000 -999.25000 -999.25000 -999.25000 -999.25000 -999.25000 -999.25000 -999.25000
 3108.90000    2.56030    2.58760    2.59580    2.57010    8.50000    8.60940    0.04930   67.20580  131.71590   17.62940    0.08090    7.74410    3.87180    3.81140    2.58120   10.70580    4.61880    4.15890    4.61880 -999.25000 -999.25000 -999.25000 -999.25000 -999.25000 -999.25000 -999.25000 -999.25000
 3109.40000    2.58130    2.59770    2.60280    2.57530    8.50000    8.60940    0.04690   67.88930  129.55090   16.50050    0.07870    7.67920    3.83140    3.92910    2.58870   10.71000    4.27710    4.05990    4.27710 -999.25000 -999.25000 -999.25000 -999.25000 -999.25000 -999.25000 -999.25000 -999.25000
