~Version ---------------------------------------------------
VERS.   2.0 : CWLS log ASCII Standard -VERSION 2.0
WRAP.    NO : One line per depth step
DLM . SPACE : Column Data Section Delimiter
~Well ------------------------------------------------------
STRT.ft          188.50000 : START DEPTH
STOP.ft         4770.50000 : STOP DEPTH
STEP.ft            0.50000 : STEP
NULL.              -999.25 : NULL VALUE
COMP. Statoil Petroleum AS : COMPANY
WELL.          15/9-F-11 B : WELL
FLD .                VOLVE : FIELD
LOC .      Maersk Inspirer : LOCATION
PROV.                      : PROVINCE
CNTY.                      : COUNTY
STAT.                      : STATE
CTRY.                      : COUNTRY
SRVC.                      : SERVICE COMPANY
DATE.                      : DATE
UWI .                      : UNIQUE WELL ID
API .                      : API NUMBER
~Curve Information -----------------------------------------
DEPT     .ft        : 
ABDCQF01 .g/cm3     : 
ABDCQF02 .g/cm3     : 
ABDCQF03 .g/cm3     : 
ABDCQF04 .g/cm3     : 
BS       .inches    : 
CALI     .inches    : 
DRHO     .g/cm3     : 
GR       .API       : 
NPHI     .v/v       : 
PEF      .b/elec    : 
RACEHM   .ohm.m     : 
RACELM   .ohm.m     : 
RD       .ohm.m     : 
RHOB     .g/cm3     : 
RM       .ohm.m     : 
ROP      .m/hr      : 
RPCEHM   .ohm.m     : 
RPCELM   .ohm.m     : 
RT       .ohm.m     : 
BVW      .v/v       : 
CARB_FLAG.unitless  : 
COAL_FLAG.unitless  : 
KLOGH    .mD        : 
PHIF     .v/v       : 
SAND_FLAG.UNKNOWN   : 
SW       .v/v       : 
VSH      .v/v       : 
~Params ----------------------------------------------------
~Other -----------------------------------------------------
PETROPHYSICAL_INTERPRETATION: INPUT

# --- LOG MNEMONICS AND UNITS ---
#Depth     ABDCQF01   ABDCQF02   ABDCQF03   ABDCQF04   BS         CALI       DRHO       GR         NPHI       PEF        RACEHM     RACELM     RD         RHOB       RM         ROP        RPCEHM     RPCELM     RT
#M         g/cm3      g/cm3      g/cm3      g/cm3      inches     inches     g/cm3      API        v/v        b/elec     ohm.m      ohm.m      ohm.m      g/cm3      ohm.m      m/hr       ohm.m      ohm.m      ohm.m
~ASCII -----------------------------------------------------
# ...
 4127.50000    2.23600    2.25300    2.25800    2.23700    8.50000    8.67200    0.03300   11.10200    0.17200    5.53700    2.12700    2.42300    2.19400    2.24000    2.23000   29.98300    2.23000    2.19400    2.23000    0.09700    0.00000    0.00000 2007.39900    0.21900    1.00000    0.44400    0.05000
 4128.00000    2.26400    2.29200    2.24600    2.27500    8.50000    8.67200    0.04100   11.64000    0.16800    5.26900    2.17700    2.38100    2.22400    2.26900    2.36900   29.95600    2.36900    2.22400    2.36900    0.09400    0.00000    0.00000 1491.01200    0.20800    1.00000    0.45100    0.05400
 4128.50000    2.24500    2.28800    2.37300    2.25100    8.50000    8.62500    0.05200   11.29200    0.18600    4.94000    2.29800    2.43700    2.30200    2.30000    2.43700   29.99400    2.43700    2.30200    2.43700    0.09200    0.00000    0.00000 1483.94000    0.20400    1.00000    0.45200    0.05200
 4129.00000    2.20800    2.37600    2.57100    2.26000    8.50000    8.67200    0.02900   11.97000    0.19700    5.65700    2.22000    2.27600    2.34600    2.33800    2.88200   29.83000    2.88300    2.34600    2.88200    0.08500    0.00000    0.00000 1124.24600    0.19600    1.00000    0.43600    0.05700
 4129.50000    2.21500    2.45900    2.51600    2.26500    8.50000    8.67200    0.03300   11.27600    0.20200    5.94800    2.07600    2.34000    2.21700    2.35200    2.45600   30.05300    2.45600    2.21700    2.45600    0.09100    0.00000    0.00000 1207.72300    0.19300    1.00000    0.47000    0.05100
 4130.00000    2.23800    2.46900    2.46000    2.35400    8.50000    8.67200   -0.00800   10.97900    0.21800    6.66400    1.74300    2.19800    1.91300    2.38400    1.93000   30.02600    1.93000    1.91300    1.93000    0.09700    0.00000    0.00000  593.49200    0.17000    1.00000    0.57300    0.04900
 4130.50000    2.25800    2.40000    2.31100    2.38500    8.50000    8.67200    0.07200   11.89000    0.17600    4.86200    2.09100    2.33300    2.07800    2.33800    2.05900   29.99900    2.05900    2.07800    2.05900    0.09700    0.00000    0.00000  973.53400    0.18700    1.00000    0.51800    0.05600
 4131.00000    2.26100    2.28900    2.34500    2.26100    8.50000    8.67200    0.04500   10.70600    0.17800    5.10400    2.41000    2.40700    1.93700    2.27500    1.69300   29.97200    1.69300    1.93700    1.69300    0.10800    0.00000    0.00000 1801.42600    0.21000    1.00000    0.51400    0.04700
 4131.50000    2.26500    2.30700    2.33100    2.26700    8.50000    8.67200    0.05600   12.84400    0.17300    5.19000    2.29400    2.34400    2.17700    2.28400    2.33700   29.97800    2.33700    2.17700    2.33700    0.09400    0.00000    0.00000 1144.13900    0.20500    1.00000    0.46000    0.06400
 4132.00000    2.24800    2.24400    2.26000    2.28100    8.50000    8.67200    0.05000   11.14300    0.17100    4.54900    2.15500    2.31200    1.99900    2.25600    1.93900   29.98600    1.93900    1.99900    1.93900    0.10200    0.00000    0.00000 1798.71100    0.21400    1.00000    0.48000    0.05000
 4132.50000    2.25200    2.26300    2.25900    2.24500    8.50000    8.67200    0.05300   10.20700    0.16800    4.56300    2.18000    2.31600    1.90600    2.25500    1.72600   29.99400    1.72600    1.90600    1.72600    0.10700    0.00000    0.00000 2068.13200    0.21200    1.00000    0.50400    0.04300
 4133.00000    2.23900    2.24200    2.25900    2.24800    8.50000    8.67200    0.04800   10.64200    0.17300    4.51000    2.24400    2.29800    1.93300    2.24600    1.77600   29.97500    1.77600    1.93300    1.77600    0.10700    0.00000    0.00000 2124.27400    0.21800    1.00000    0.48900    0.04600
 4133.50000    2.24600    2.26900    2.25000    2.24700    8.50000    8.67200    0.04100    9.28500    0.16600    5.35300    2.31300    2.28200    2.04800    2.24900    1.98800   29.98400    1.98800    2.04800    1.98800    0.10100    0.00000    0.00000 2483.07100    0.21400    1.00000    0.47300    0.03500
 4134.00000    2.26900    2.25300    2.25700    2.25200    8.50000    8.67200    0.05100    8.73900    0.17100    4.96500    2.30800    2.26500    2.03200    2.25200    1.95200   30.00500    1.95200    2.03200    1.95200    0.10200    0.00000    0.00000 2782.59000    0.21500    1.00000    0.47400    0.03100
 4134.50000    2.25500    2.24300    2.25300    2.23600    8.50000    8.67200    0.04900    8.41300    0.17400    5.01700    2.22700    2.26000    1.87100    2.24400    1.64500   30.02000    1.64500    1.87100    1.64500    0.11000    0.00000    0.00000 3151.34500    0.21900    1.00000    0.50200    0.02800
 4135.00000    2.23600    2.24700    2.24600    2.23900    8.50000    8.67200    0.04600   11.11700    0.17500    5.35500    2.09100    2.25000    1.81300    2.24300    1.58500   29.97400    1.58500    1.81300    1.58500    0.11200    0.00000    0.00000 2020.60200    0.22000    1.00000    0.51000    0.05000
 4135.50000    2.24600    2.23500    2.24600    2.24200    8.50000    8.67200    0.04200    9.39300    0.17200    5.05300    2.01900    2.20600    1.71500    2.23900    1.40800   30.02000    1.40800    1.71500    1.40800    0.11700    0.00000    0.00000 2712.40400    0.22000    1.00000    0.53400    0.03600
 4136.00000    2.26100    2.24600    2.24100    2.24200    8.50000    8.67200    0.03700   10.21700    0.18100    5.37600    2.00000    2.18900    1.76300    2.24300    1.52400   29.99400    1.52400    1.76300    1.52400    0.11400    0.00000    0.00000 2461.83300    0.22200    1.00000    0.51300    0.04300
 4136.50000    2.26100    2.24800    2.24600    2.25400    8.50000    8.67200    0.04500    9.91800    0.16900    4.85100    1.92700    2.19500    1.76200    2.24900    1.57600   29.95400    1.57600    1.76200    1.57600    0.11100    0.00000    0.00000 2288.25500    0.21500    1.00000    0.51800    0.04000
 4137.00000    2.26900    2.24100    2.23600    2.25700    8.50000    8.62500    0.04500    8.42900    0.17600    4.80200    1.91100    2.21800    1.74800    2.24300    1.51700   29.94000    1.51700    1.74800    1.51700    0.11400    0.00000    0.00000 3224.22600    0.22000    1.00000    0.51600    0.02800
 4137.50000    2.26200    2.25400    2.24100    2.25400    8.50000    8.67200    0.05600   10.81300    0.17600    4.80200    2.07400    2.33100    1.78800    2.25100    1.51100   29.94500    1.51100    1.78800    1.51100    0.11400    0.00000    0.00000 2042.43500    0.21700    1.00000    0.52400    0.04800
 4138.00000    2.24100    2.24700    2.24700    2.22700    8.50000    8.67200    0.03900   10.57200    0.18600    5.55700    2.33200    2.41500    1.97700    2.24100    1.74200   29.88400    1.74200    1.97700    1.74200    0.10800    0.00000    0.00000 2424.14000    0.22400    1.00000    0.48200    0.04600
 4138.50000    2.25100    2.25700    2.25500    2.24200    8.50000    8.67200    0.05200    9.31600    0.18000    5.01100    2.79300    2.47600    2.39100    2.25100    2.42200   29.76900    2.42200    2.39100    2.42200    0.09400    0.00000    0.00000 2713.21500    0.21900    1.00000    0.42900    0.03500
 4139.00000    2.25400    2.25700    2.25400    2.22800    8.50000    8.67200    0.05700   11.54900    0.18500    4.50200    2.95600    2.49900    2.80500    2.24700    3.05500   27.60600    3.05500    2.80500    3.05500    0.08600    0.00000    0.00000 1976.81000    0.22200    1.00000    0.38700    0.05400
 4139.50000    2.22300    2.25800    2.26000    2.25200    8.50000    8.67200    0.05300   11.46000    0.17800    4.39000    3.06800    2.51900    3.16200    2.25000    4.09400   23.80100    4.09400    3.16200    4.09400    0.07600    0.00000    0.00000 1861.15100    0.21800    1.00000    0.34800    0.05300
 4140.00000    2.23700    2.25700    2.22600    2.25600    8.50000    8.62500    0.04400   13.34000    0.18200    4.53700    2.75600    2.48700    3.53200    2.24100    5.97400   20.96400    5.97400    3.53200    5.97400    0.06600    0.00000    0.00000 1475.94300    0.22300    1.00000    0.29400    0.06800
