~Version ---------------------------------------------------
VERS.   2.0 : CWLS log ASCII Standard -VERSION 2.0
WRAP.    NO : One line per depth step
DLM . SPACE : Column Data Section Delimiter
~Well ------------------------------------------------------
STRT.ft       145.90000 : START DEPTH
STOP.ft      4093.90000 : STOP DEPTH
STEP.ft         0.50000 : STEP
NULL.           -999.25 : NULL VALUE
COMP. Statoil Petroleum : COMPANY
WELL.        15/9-F-1 C : WELL
FLD .             VOLVE : FIELD
LOC .   Maersk Inspirer : LOCATION
PROV.                   : PROVINCE
CNTY.                   : COUNTY
STAT.                   : STATE
CTRY.                   : COUNTRY
SRVC.                   : SERVICE COMPANY
DATE.                   : DATE
UWI .                   : UNIQUE WELL ID
API .                   : API NUMBER
~Curve Information -----------------------------------------
DEPT        .ft        : 
ABDCQF01    .g/cm3     : 
ABDCQF02    .g/cm3     : 
ABDCQF03    .g/cm3     : 
ABDCQF04    .g/cm3     : 
BS          .inches    : 
CALI        .inches    : 
DRHO        .g/cm3     : 
GR          .API       : 
NBGRCFM     .API       : 
NPHI        .v/v       : 
PEF         .b/elec    : 
RACEHM      .ohm.m     : 
RACELM      .ohm.m     : 
RD          .ohm.m     : 
RHOB        .g/cm3     : 
RM          .ohm.m     : 
ROP         .m/hr      : 
RPCEHM      .ohm.m     : 
RPCELM      .ohm.m     : 
RT          .ohm.m     : 
BADDATA_FLAG.unitless  : 
BVW         .v/v       : 
COAL_FLAG   .unitless  : 
KLOGH       .mD        : 
PHIF        .v/v       : 
SAND_FLAG   .unitless  : 
SW          .v/v       : 
VCARB       .v/v       : 
VSH         .v/v       : 
~Params ----------------------------------------------------
~Other -----------------------------------------------------
PETROPHYSICAL INTERPRETATION: INPUT

# --- LOG MNEMONICS AND UNITS ---
#Depth          ABDCQF01        ABDCQF02        ABDCQF03        ABDCQF04        BS              CALI            DRHO            GR              NBGRCFM         NPHI            PEF             RACEHM          RACELM          RD              RHOB            RM              ROP             RPCEHM          RPCELM          RT
#M              g/cm3           g/cm3           g/cm3           g/cm3           inches          inches          g/cm3           API             API             v/v             b/elec          ohm.m           ohm.m           ohm.m           g/cm3           ohm.m           m/hr            ohm.m           ohm.m           ohm.m
~ASCII -----------------------------------------------------
# ...
 4008.40000    2.60890    2.55830    2.55620    2.59700    8.50000    8.63830    0.03770   70.93780   74.29260    0.29320    7.31200    1.44490    1.32000    1.56760    2.56840    2.03050   26.32430    2.03030    1.56750    2.03050    0.00000    0.05520    0.00000    0.00220    0.05520    0.00000    1.00000    0.00000    0.56580
 4008.90000    2.55270    2.62950    2.54320    2.63910    8.50000    8.60570    0.01930   68.44370   72.74900    0.30190    7.55830    1.74350    1.41370    1.56300    2.58260    1.82160   28.12900    1.82150    1.56290    1.82160    0.00000    0.04660    0.00000    0.00300    0.04660    0.00000    1.00000    0.00000    0.54370
 4009.40000    2.60210    2.62990    2.56080    2.69080    8.50000    8.60570    0.03490   67.76790   74.14190    0.30680    7.46680    1.59180    1.39850    1.66720    2.60610    2.21000   29.68050    2.21010    1.66720    2.21000    0.00000    0.03250    0.00000    0.00260    0.03250    0.00000    1.00000    0.01340    0.53770
 4009.90000    2.50250    2.62240    2.60310    2.57670    8.50000    8.55690    0.03390   73.80020   78.18730    0.28180    7.26650    1.61520    1.41410    1.77560    2.59600    2.51030   29.88920    2.51030    1.77560    2.51030    0.00000    0.03860    0.00000    0.00100    0.03860    0.00000    1.00000    0.00000    0.59110
 4010.40000    2.49330    2.57610    2.59480    2.53300    8.50000    8.60570    0.02390   68.49660   80.02680    0.29450    7.05280    1.68150    1.43520    1.82830    2.56250    2.59000   29.82480    2.59000    1.82830    2.59000    0.00000    0.05870    0.00000    0.00370    0.05870    0.00000    1.00000    0.00000    0.54410
 4010.90000    2.50910    2.59070    2.68590    2.53700    8.50000    8.49200    0.02060   70.33050   72.13430    0.29970    7.17230    1.70070    1.46280    1.85170    2.60360    2.59140   29.83000    2.59140    1.85170    2.59140    0.00000    0.03400    0.00000    0.00170    0.03400    0.00000    1.00000    0.00000    0.56040
 4011.40000    2.49890    2.61010    2.80140    2.55590    8.50000    8.60570    0.05550   72.37180   77.38070    0.28990    7.09270    1.67320    1.46230    1.85850    2.63380    2.73320   29.67610    2.73320    1.85850    2.73320    0.00000    0.02000    0.00000    0.00100    0.02000    0.00000    1.00000    0.01290    0.57850
 4011.90000    2.50930    2.56550    2.82570    2.49750    8.50000    8.58120    0.07280   71.84070   79.77280    0.29500    6.82940    1.67820    1.47140    1.85940    2.61180    2.72210   29.89240    2.72210    1.85940    2.72210    0.00000    0.02900    0.00000    0.00120    0.02900    0.00000    1.00000    0.00000    0.57380
 4012.40000    2.52520    2.52060    2.64690    2.51660    8.50000    8.55690    0.06730   76.52890   81.10050    0.28050    6.71480    1.68100    1.50340    1.84250    2.55390    2.56770   29.93740    2.56770    1.84250    2.56770    0.00000    0.06390    0.00000    0.00100    0.06390    0.00000    1.00000    0.00000    0.61530
 4012.90000    2.46670    2.50040    2.53030    2.48420    8.50000    8.55690    0.05280   76.34950   85.10730    0.28070    6.18760    1.70500    1.53730    1.85510    2.49660    2.56240   29.86670    2.56240    1.85510    2.56240    0.00000    0.08990    0.00000    0.00180    0.09840    0.00000    0.91350    0.00000    0.61370
 4013.40000    2.45320    2.46350    2.49070    2.46300    8.50000    8.60560    0.04840   78.91270   81.54350    0.29200    6.22880    1.73970    1.57540    1.89760    2.46160    2.57610   29.88550    2.57610    1.89760    2.57610    0.00000    0.08970    0.00000    0.00170    0.11950    0.00000    0.75030    0.00000    0.63640
 4013.90000    2.45100    2.48440    2.47380    2.45630    8.50000    8.60570    0.04990   80.78080   81.71320    0.26720    6.16130    1.79630    1.64010    1.91090    2.46450    2.48450   29.89480    2.48450    1.91090    2.48450    0.00000    0.09130    0.00000    0.00120    0.11780    0.00000    0.77540    0.00000    0.65290
 4014.40000    2.45350    2.47030    2.46880    2.46020    8.50000    8.55700    0.04910   76.02840   86.75400    0.25790    6.27020    1.83500    1.69930    1.96610    2.46310    2.54620   29.73380    2.54620    1.96610    2.54620    0.00000    0.09020    0.00000    0.00280    0.11860    0.00000    0.76050    0.00000    0.61090
 4014.90000    2.55420    2.47950    2.48550    2.48440    8.50000    8.55690    0.05210   73.80630   82.13090    0.26430    6.24030    1.88740    1.74780    2.07010    2.49420    2.77350   29.91310    2.77350    2.07000    2.77350    0.00000    0.08640    0.00000    0.00300    0.09990    0.00000    0.86530    0.00000    0.59120
 4015.40000    2.60910    2.49040    2.49760    2.47820    8.50000    8.55690    0.05460   77.28050   74.43070    0.26530    6.36940    1.97420    1.79410    2.13730    2.50680    2.92930   29.83880    2.92930    2.13730    2.92930    0.00000    0.08410    0.00000    0.00140    0.09230    0.00000    0.91120    0.00000    0.62200
 4015.90000    2.68880    2.48700    2.49900    2.51040    8.50000    8.55690    0.05360   72.38820   77.56450    0.26690    6.26400    2.00940    1.82970    2.11770    2.52480    2.76030   29.84740    2.76020    2.11770    2.76030    0.00000    0.08140    0.00000    0.00280    0.08140    0.00000    1.00000    0.00000    0.57870
 4016.40000    2.62750    2.49040    2.51880    2.51310    8.50000    8.55690    0.04830   72.79840   77.35990    0.27130    6.34480    1.99650    1.82570    2.18000    2.52400    3.07720   29.85630    3.07730    2.18000    3.07720    0.00000    0.08190    0.00000    0.00260    0.08190    0.00000    1.00000    0.00000    0.58230
 4016.90000    2.49820    2.54490    2.81040    2.50520    8.50000    8.55690    0.05880   70.73420   75.40860    0.27230    6.81080    1.96870    1.84350    2.14620    2.58930    2.89530   29.61480    2.89530    2.14620    2.89530    0.00000    0.04260    0.00000    0.00180    0.04260    0.00000    1.00000    0.00000    0.56400
 4017.40000    2.48410    2.56410    2.81360    2.51280    8.50000    8.60560    0.05360   68.88520   70.40340    0.29100    7.08580    2.03690    1.86790    2.13400    2.60550    2.81730   29.87960    2.81740    2.13400    2.81730    0.00000    0.03280    0.00000    0.00220    0.03280    0.00000    1.00000    0.00600    0.54760
 4017.90000    2.45650    2.50320    2.61100    2.48690    8.50000    8.60570    0.05130   73.26510   82.55880    0.27940    6.43830    2.05120    1.89290    2.09090    2.52260    2.55910   29.84790    2.55910    2.09090    2.55910    0.00000    0.08280    0.00000    0.00240    0.08280    0.00000    1.00000    0.00000    0.58640
 4018.40000    2.46870    2.53960    2.66890    2.49240    8.50000    8.55700    0.04830   71.35580   74.01440    0.28920    6.77030    2.06350    1.91370    2.11880    2.56260    2.59690   29.89630    2.59680    2.11880    2.59690    0.00000    0.05870    0.00000    0.00220    0.05870    0.00000    1.00000    0.00000    0.56950
 4018.90000    2.46400    2.49660    2.64090    2.51930    8.50000    8.58120    0.05750   75.19230   83.73750    0.29190    6.69290    2.08590    1.92250    2.16630    2.54470    2.72490   29.82710    2.72490    2.16630    2.72490    0.00000    0.06940    0.00000    0.00130    0.06940    0.00000    1.00000    0.00000    0.60340
 4019.40000    2.47990    2.50740    2.51980    2.47550    8.50000    8.55690    0.05450   77.90550   80.03850    0.29020    6.41390    2.13040    1.94020    2.20530    2.49530    2.81470   29.92150    2.81470    2.20530    2.81470    0.00000    0.08580    0.00000    0.00140    0.09920    0.00000    0.86450    0.00000    0.62760
 4019.90000    2.46200    2.49420    2.50430    2.50410    8.50000    8.60560    0.04600   77.03890   79.32260    0.27300    6.39400    2.12880    1.95040    2.24330    2.49060    2.94190   29.87450    2.94190    2.24330    2.94190    0.00000    0.08390    0.00000    0.00170    0.10200    0.00000    0.82220    0.00000    0.61980
 4020.40000    2.47280    2.49730    2.51370    2.48870    8.50000    8.60570    0.04920   76.86620   78.61750    0.27370    6.25980    2.13000    1.94970    2.29990    2.49490    3.06760   29.85570    3.06760    2.29990    3.06760    0.00000    0.08220    0.00000    0.00170    0.09950    0.00000    0.82610    0.00000    0.61830
