~Version ---------------------------------------------------
VERS.   2.0 : CWLS log ASCII Standard -VERSION 2.0
WRAP.    NO : One line per depth step
DLM . SPACE : Column Data Section Delimiter
~Well ------------------------------------------------------
STRT.ft          188.50000 : START DEPTH
STOP.ft         4770.50000 : STOP DEPTH
STEP.ft            0.50000 : STEP
NULL.              -999.25 : NULL VALUE
COMP. Statoil Petroleum AS : COMPANY
WELL.          15/9-F-11 B : WELL
FLD .                VOLVE : FIELD
LOC .      Maersk Inspirer : LOCATION
PROV.                      : PROVINCE
CNTY.                      : COUNTY
STAT.                      : STATE
CTRY.                      : COUNTRY
SRVC.                      : SERVICE COMPANY
DATE.                      : DATE
UWI .                      : UNIQUE WELL ID
API .                      : API NUMBER
~Curve Information -----------------------------------------
DEPT     .ft        : 
ABDCQF01 .g/cm3     : 
ABDCQF02 .g/cm3     : 
ABDCQF03 .g/cm3     : 
ABDCQF04 .g/cm3     : 
BS       .inches    : 
CALI     .inches    : 
DRHO     .g/cm3     : 
GR       .API       : 
NPHI     .v/v       : 
PEF      .b/elec    : 
RACEHM   .ohm.m     : 
RACELM   .ohm.m     : 
RD       .ohm.m     : 
RHOB     .g/cm3     : 
RM       .ohm.m     : 
ROP      .m/hr      : 
RPCEHM   .ohm.m     : 
RPCELM   .ohm.m     : 
RT       .ohm.m     : 
BVW      .v/v       : 
CARB_FLAG.unitless  : 
COAL_FLAG.unitless  : 
KLOGH    .mD        : 
PHIF     .v/v       : 
SAND_FLAG.UNKNOWN   : 
SW       .v/v       : 
VSH      .v/v       : 
~Params ----------------------------------------------------
~Other -----------------------------------------------------
PETROPHYSICAL_INTERPRETATION: INPUT

# --- LOG MNEMONICS AND UNITS ---
#Depth     ABDCQF01   ABDCQF02   ABDCQF03   ABDCQF04   BS         CALI       DRHO       GR         NPHI       PEF        RACEHM     RACELM     RD         RHOB       RM         ROP        RPCEHM     RPCELM     RT
#M         g/cm3      g/cm3      g/cm3      g/cm3      inches     inches     g/cm3      API        v/v        b/elec     ohm.m      ohm.m      ohm.m      g/cm3      ohm.m      m/hr       ohm.m      ohm.m      ohm.m
~ASCII -----------------------------------------------------
# ...
 3711.50000    2.18400    2.20000    2.15900    2.18700    8.50000    8.62500    0.04800   18.12300    0.17300    4.56700  195.26800  132.05600   79.28200    2.18100   75.67100   29.97700   75.67100   79.28200   75.67100    0.02400    0.00000    0.00000  896.24600    0.24000    1.00000    0.10000    0.10800
 3712.00000    2.18800    2.20600    2.16800    2.19200    8.50000    8.62500    0.04700   16.13800    0.17400    4.42400  198.28600  210.82900   77.17700    2.18200   74.19500   29.97300   74.19600   77.17500   74.19500    0.02400    0.00000    0.00000 1256.64900    0.24000    1.00000    0.10000    0.09100
 3712.50000    2.18700    2.19700    2.18800    2.19800    8.50000    8.62500    0.05000   16.10000    0.16100    4.34100  168.82300  298.91800   76.28400    2.19200   71.46500   29.94100   71.46500   76.28500   71.46500    0.02400    0.00000    0.00000 1081.31500    0.23200    1.00000    0.10500    0.09100
 3713.00000    2.21100    2.19500    2.17800    2.18800    8.50000    8.57800    0.05000   16.54700    0.16400    4.61300  194.81300  721.70300   75.14900    2.19000   70.07200   29.96500   70.07200   75.15100   70.07200    0.02500    0.00000    0.00000 1038.89800    0.23400    1.00000    0.10500    0.09500
 3713.50000    2.21900    2.20300    2.19900    2.17900    8.50000    8.62500    0.05100   18.43800    0.17000    4.52900  161.31400  197.91900   76.57900    2.19700   74.76300   29.96000   74.76200   76.57800   74.76300    0.02400    0.00000    0.00000  748.87000    0.23300    1.00000    0.10300    0.11000
 3714.00000    2.24900    2.21500    2.20700    2.18900    8.50000    8.62500    0.05100   19.54300    0.17300    4.62900  158.65100  144.70600   75.99700    2.20800   71.53000   29.93600   71.53100   75.99800   71.53000    0.02400    0.00000    0.00000  591.65600    0.23100    1.00000    0.10600    0.11900
 3714.50000    2.24600    2.20600    2.21000    2.20800    8.50000    8.57800    0.04600   19.49600    0.16200    4.30000  178.82500  120.57700   74.58100    2.21100   71.58900   29.90500   71.59000   74.58100   71.58900    0.02400    0.00000    0.00000  540.09300    0.22500    1.00000    0.10700    0.11900
 3715.00000    2.21500    2.20000    2.18400    2.19800    8.50000    8.62500    0.04900   17.73200    0.15000    4.42800  164.33800  210.74100   74.87200    2.19400   71.02500   29.95600   71.02400   74.87000   71.02500    0.02400    0.00000    0.00000  744.93700    0.22600    1.00000    0.10700    0.10400
 3715.50000    2.19900    2.18300    2.15200    2.18300    8.50000    8.62500    0.05000   16.98400    0.16900    4.36200  186.64000  395.35100   79.59500    2.18300   75.67400   29.92400   75.67400   79.59500   75.67400    0.02400    0.00000    0.00000 1040.66500    0.23800    1.00000    0.10000    0.09800
 3716.00000    2.23300    2.17100    2.14900    2.18100    8.50000    8.62500    0.04700   18.39500    0.17000    4.47000  258.29100  238.88900   86.79400    2.17800   79.55800   29.64200   79.55700   86.79500   79.55800    0.02300    0.00000    0.00000  852.06200    0.24000    1.00000    0.09800    0.11000
 3716.50000    2.26900    2.19000    2.13900    2.18500    8.50000    8.62500    0.04200   17.83600    0.16500    4.41200  282.55600  397.27600   87.10600    2.18000   82.11800   29.14200   82.11900   87.10800   82.11800    0.02300    0.00000    0.00000  890.09700    0.23700    1.00000    0.09700    0.10500
 3717.00000    2.18600    2.18600    2.16300    2.21200    8.50000    8.62500    0.04100   17.55100    0.16500    4.41700  243.83700 1252.19700   84.67300    2.18000   79.17500   28.58700   79.17600   84.67300   79.17500    0.02300    0.00000    0.00000  938.18900    0.23700    1.00000    0.09900    0.10300
 3717.50000    2.18300    2.17500    2.16500    2.20700    8.50000    8.62500    0.04500   14.32600    0.16900    4.27800  211.74500  324.25600   84.29800    2.17800   79.47800   28.60300   79.47800   84.29800   79.47800    0.02300    0.00000    0.00000 1688.52900    0.23900    1.00000    0.09700    0.07600
 3718.00000    2.18700    2.18400    2.16900    2.18400    8.50000    8.57800    0.04800   15.29700    0.15700    4.40000  216.72500  484.67600   87.15200    2.17600   80.02200   28.93900   80.02300   87.15200   80.02200    0.02300    0.00000    0.00000 1328.04700    0.23500    1.00000    0.09900    0.08400
 3718.50000    2.20300    2.16600    2.15900    2.16900    8.50000    8.62500    0.04200   16.76500    0.16100    4.27400  205.02700 1979.94200   84.23500    2.16900   79.71000   29.38800   79.71000   84.23500   79.71000    0.02300    0.00000    0.00000 1115.65700    0.23900    1.00000    0.09800    0.09600
 3719.00000    2.20200    2.17100    2.17600    2.18600    8.50000    8.57800    0.04900   15.15700    0.16400    4.53500  235.59100 1980.91000   86.03000    2.17800   80.10000   29.75600   80.10100   86.03200   80.10000    0.02300    0.00000    0.00000 1413.72800    0.23700    1.00000    0.09800    0.08300
 3719.50000    2.16900    2.17900    2.17000    2.20000    8.50000    8.62500    0.04200   15.73700    0.16000    4.31600  244.56200 1259.34400   86.38700    2.17700   82.12100   29.96400   82.12100   86.38600   82.12100    0.02300    0.00000    0.00000 1248.00100    0.23600    1.00000    0.09700    0.08800
 3720.00000    2.21000    2.16200    2.15800    2.19600    8.50000    8.62500    0.03900   14.85100    0.15200    4.27500  241.80200 1980.72100   89.01400    2.17400   83.63300   30.01100   83.63300   89.01500   83.63300    0.02300    0.00000    0.00000 1400.59700    0.23400    1.00000    0.09700    0.08100
 3720.50000    2.19600    2.17000    2.16600    2.19700    8.50000    8.62500    0.04200   14.68200    0.15900    4.39400  258.76500 1079.01700   87.52200    2.18000   84.05800   30.03700   84.05800   87.52100   84.05800    0.02300    0.00000    0.00000 1458.20200    0.23500    1.00000    0.09700    0.07900
 3721.00000    2.19400    2.18100    2.18300    2.20500    8.50000    8.62500    0.05000   15.63500    0.14900    4.38500  252.67500 1977.01100   89.02700    2.18900   84.49500   30.03700   84.49600   89.02600   84.49500    0.02300    0.00000    0.00000 1088.34900    0.22800    1.00000    0.09900    0.08700
 3721.50000    2.19300    2.17200    2.17800    2.18800    8.50000    8.62500    0.04900   17.49300    0.16100    4.43900  268.89000 1980.91000   88.62800    2.18200   83.29200   30.03700   83.29200   88.62900   83.29200    0.02300    0.00000    0.00000  908.27700    0.23500    1.00000    0.09700    0.10200
 3722.00000    2.19400    2.18500    2.18300    2.20500    8.50000    8.62500    0.04000   16.22200    0.15800    4.30600  340.11800 1137.55500   85.65900    2.18800   80.18200   30.01000   80.18200   85.66000   80.18200    0.02300    0.00000    0.00000 1060.22700    0.23200    1.00000    0.10000    0.09200
 3722.50000    2.17400    2.20700    2.19600    2.20800    8.50000    8.62500    0.04200   16.53900    0.15800    4.38300  303.29700 1977.08100   84.59600    2.19500   77.86900   29.98300   77.86900   84.59800   77.86900    0.02300    0.00000    0.00000  965.55300    0.22900    1.00000    0.10200    0.09500
 3723.00000    2.18600    2.23300    2.20900    2.22800    8.50000    8.62500    0.05000   16.48900    0.15900    4.50000  256.45900  787.28700   81.93100    2.20900   76.76400   29.72600   76.76300   81.93100   76.76400    0.02300    0.00000    0.00000  887.09600    0.22400    1.00000    0.10400    0.09400
 3723.50000    2.19000    2.20100    2.20800    2.22100    8.50000    8.62500    0.04600   16.35200    0.15900    4.40000  268.72100 1980.91000   82.86800    2.20100   78.02100   29.98100   78.02100   82.86800   78.02100    0.02300    0.00000    0.00000  962.19400    0.22800    1.00000    0.10200    0.09300
 3724.00000    2.19600    2.19700    2.21700    2.19800    8.50000    8.62500    0.04700   16.89800    0.15900    4.29100  249.71500 1980.91000   81.20400    2.19900   76.54100   30.02600   76.54100   81.20300   76.54100    0.02400    0.00000    0.00000  887.27000    0.22800    1.00000    0.10300    0.09700
