~Version ---------------------------------------------------
VERS.   2.0 : CWLS log ASCII Standard -VERSION 2.0
WRAP.    NO : One line per depth step
DLM . SPACE : Column Data Section Delimiter
~Well ------------------------------------------------------
STRT.ft          145.90000 : START DEPTH
STOP.ft         4684.90000 : STOP DEPTH
STEP.ft            0.50000 : STEP
NULL.              -999.25 : NULL VALUE
COMP. STATOIL PETROLEUM AS : COMPANY
WELL.          15/9-F-15 D : WELL
FLD .                VOLVE : FIELD
LOC .                      : LOCATION
PROV.                      : PROVINCE
CNTY.      MAERSK INSPIRER : COUNTY
STAT.                      : STATE
CTRY.                      : COUNTRY
SRVC.                      : SERVICE COMPANY
DATE.                      : DATE
UWI .                      : UNIQUE WELL ID
API .                      : API NUMBER
~Curve Information -----------------------------------------
DEPT     .ft        : 
ABDCQF01 .g/cm3     : 
ABDCQF02 .g/cm3     : 
ABDCQF03 .g/cm3     : 
ABDCQF04 .g/cm3     : 
BS       .inches    : 
CALI     .inches    : 
DRHO     .g/cm3     : 
GR       .API       : 
NBGRCFM  .API       : 
NPHI     .v/v       : 
PEF      .b/elec    : 
RACEHM   .ohm.m     : 
RACELM   .ohm.m     : 
RD       .ohm.m     : 
RHOB     .g/cm3     : 
RM       .ohm.m     : 
ROP      .m/hr      : 
RPCEHM   .ohm.m     : 
RPCELM   .ohm.m     : 
RT       .ohm.m     : 
BVW      .v/v       : 
COAL_FLAG.unitless  : 
KLOGH    .mD        : 
PHIF     .v/v       : 
SAND_FLAG.unitless  : 
SW       .v/v       : 
VCARB    .v/v       : 
VSH      .v/v       : 
~Params ----------------------------------------------------
~Other -----------------------------------------------------
PETROPHYSICAL INTERPRETATION: INPUT

# --- LOG MNEMONICS AND UNITS ---
#Depth          ABDCQF01        ABDCQF02        ABDCQF03        ABDCQF04        BS              CALI            DRHO            GR              NBGRCFM         NPHI            PEF             RACEHM          RACELM          RD              RHOB            RM              ROP             RPCEHM          RPCELM          RT
#M              g/cm3           g/cm3           g/cm3           g/cm3           inches          inches          g/cm3           API             API             v/v             b/elec          ohm.m           ohm.m           ohm.m           g/cm3           ohm.m           m/hr            ohm.m           ohm.m           ohm.m
~ASCII -----------------------------------------------------
# ...
 4283.40000    2.32720    2.28130    2.25430    2.31420    8.50000    8.54690    0.04910   16.25600   16.73330    0.13650    4.50940   13.95500    8.08130   18.45040    2.27980   32.53450   29.80880   32.53450   18.45040   32.62420    0.03150    0.00000  370.53450    0.19150    1.00000    0.16450    0.00000    0.10700
 4283.90000    2.33300    2.27760    2.27980    2.33250    8.50000    8.54690    0.04660   16.72630   14.51430    0.12750    4.60630   13.42060    8.05330   18.19720    2.29750   30.81570   29.56560   30.81580   18.19730   30.64310    0.03180    0.00000  295.30170    0.18190    1.00000    0.17500    0.00000    0.10940
 4284.40000    2.39670    2.29630    2.29760    2.34260    8.50000    8.54690    0.04590   18.23810   18.58600    0.12380    4.75580   12.69570    8.05660   17.24920    2.31960   27.56440   29.49930   27.56480   17.24930   27.46140    0.03300    0.00000  175.97860    0.17280    1.00000    0.19110    0.00000    0.12630
 4284.90000    2.43500    2.33090    2.31960    2.38560    8.50000    8.54690    0.05080   18.64330   16.87480    0.13040    4.64960   12.57900    8.16750   15.91830    2.35150   22.91530   29.06350   22.91540   15.91830   22.80030    0.03520    0.00000  141.68100    0.16450    1.00000    0.21410    0.00000    0.12940
 4285.40000    2.48020    2.32560    2.31060    2.47160    8.50000    8.54700    0.04960   17.53590   17.53510    0.11470    4.70570   12.07330    8.12540   14.92660    2.37520   20.49450   28.80260   20.49450   14.92650   20.45750    0.03610    0.00000  115.56020    0.15010    1.00000    0.24020    0.04330    0.12640
 4285.90000    2.49060    2.36770    2.35180    2.47900    8.50000    8.54690    0.04480   15.13160   17.07490    0.11130    4.72930   12.32460    8.31420   15.21100    2.40520   21.22020   28.79270   21.22010   15.21090   21.30840    0.03470    0.00000  151.87170    0.13850    1.00000    0.25040    0.11620    0.10290
 4286.40000    2.45380    2.40100    2.40170    2.44550    8.50000    8.54690    0.04390   16.45220   17.67000    0.10770    4.85550   12.41190    8.22430   15.98560    2.41590   22.91940   28.79860   22.91930   15.98560   23.16360    0.03330    0.00000  125.58890    0.13340    1.00000    0.25000    0.13040    0.10760
 4286.90000    2.51350    2.43710    2.43000    2.48400    8.50000    8.54710    0.05380   18.19550   19.62390    0.11220    5.08580   12.64260    8.17760   17.32720    2.46150   27.68880   28.79920   27.68890   17.32720   27.63010    0.03020    0.00000   76.36600    0.11950    1.00000    0.25240    0.17020    0.11920
 4287.40000    2.50600    2.43580    2.39810    2.47460    8.50000    8.54710    0.05210   20.72720   19.11150    0.11620    4.93800   12.89420    8.27840   16.63220    2.45350   25.18230   28.80640   25.18230   16.63220   25.06040    0.03200    0.00000   36.34720    0.12390    1.00000    0.25800    0.10210    0.15890
 4287.90000    2.48220    2.37110    2.44110    2.45800    8.50000    8.57810    0.06470   17.57870   16.77290    0.09930    4.87210   12.95890    8.27610   17.44290    2.42990   27.83440   28.78580   27.83440   17.44280   27.87030    0.03040    0.00000   90.57150    0.12520    1.00000    0.24290    0.15180    0.11610
 4288.40000    2.50900    2.30570    2.34970    2.44790    8.50000    8.54690    0.05760   16.10990   16.11990    0.10060    4.72840   13.04050    8.16110   17.55600    2.38430   27.09140   28.81660   27.09140   17.55600   27.06380    0.03150    0.00000  157.98140    0.14130    1.00000    0.22320    0.10440    0.10350
 4288.90000    2.51360    2.30680    2.30370    2.44300    8.50000    8.54690    0.04640   15.14990   14.71310    0.11500    4.73660   13.51100    8.28470   18.15570    2.37370   29.01910   28.75220   29.01920   18.15570   28.72310    0.03110    0.00000  192.50040    0.15070    1.00000    0.20660    0.06930    0.10240
 4289.40000    2.50730    2.32410    2.28260    2.43900    8.50000    8.54690    0.04310   15.87140   14.99060    0.11260    4.66450   14.10200    8.16620   18.61970    2.36500   29.70980   28.80380   29.70980   18.61970   29.20830    0.03100    0.00000  181.95330    0.15280    1.00000    0.20280    0.05620    0.10690
 4289.90000    2.49130    2.32620    2.29250    2.46690    8.50000    8.54690    0.04980   15.66490   15.15350    0.11300    4.89580   14.35310    8.16820   17.83350    2.37410   27.86130   28.81610   27.86120   17.83340   28.09440    0.03160    0.00000  200.50920    0.14980    1.00000    0.21090    0.07630    0.09960
 4290.40000    2.42140    2.30900    2.34150    2.40580    8.50000    8.54690    0.04190   16.25540   15.65380    0.13040    5.05830   14.23720    8.05960   19.06110    2.36500   32.33490   28.78070   32.33470   19.06110   32.47940    0.03020    0.00000  216.92020    0.15990    1.00000    0.18910    0.03200    0.10470
 4290.90000    2.39420    2.34440    2.32440    2.35400    8.50000    8.54690    0.04880   16.73190   16.95910    0.13530    4.75500   16.41120    7.66230   22.10310    2.34720   51.29900   28.79180   51.29960   22.10290   46.95640    0.02540    0.00000  211.19330    0.16790    1.00000    0.15110    0.00000    0.11320
 4291.40000    2.39160    2.33850    2.33970    2.35920    8.50000    8.54690    0.05220   16.33480   17.29340    0.13460    4.74520   15.02910    7.53660   19.96360    2.35670   42.97670   28.82040   42.97520   19.96310   48.90270    0.02710    0.00000  250.15640    0.16440    1.00000    0.16480    0.01850    0.10190
 4291.90000    2.39890    2.32660    2.36350    2.34530    8.50000    8.54690    0.05240   16.83630   17.48070    0.13880    4.53250   43.01150    7.12350   29.88780    2.35310  211.60840   28.83000  211.64560   29.89000  173.53510    0.02590    0.00000  200.16510    0.16730    1.00000    0.15480    0.00000    0.11520
 4292.40000    2.43630    2.31630    2.31710    2.40290    8.50000    8.54690    0.04590   18.06010   18.63850    0.14780    4.94600   17.02190    7.07390   21.18060    2.37200   55.98790   28.99620   55.98930   21.18070   53.89890    0.02440    0.00000  165.75690    0.16440    1.00000    0.14850    0.00000    0.12180
 4292.90000    2.45420    2.34950    2.30000    2.44830    8.50000    8.54690    0.04530   20.20540   21.35930    0.13380    4.76160   12.46090    7.05480   17.71170    2.36830   35.27010   30.09480   35.27040   17.71180   34.86830    0.02940    0.00000  105.16850    0.16010    1.00000    0.18370    0.00000    0.13990
 4293.40000    2.51340    2.33140    2.32850    2.52340    8.50000    8.54690    0.04380   18.84120   22.44610    0.12450    4.88810   10.55990    7.11720   15.80000    2.40170   26.93060   29.90670   26.93100   15.80010   26.27950    0.03200    0.00000   99.82510    0.14490    1.00000    0.22080    0.05950    0.12890
 4293.90000    2.56580    2.37970    2.37270    2.52630    8.50000    8.54690    0.04260   22.16570   18.19610    0.11570    4.96400   10.45450    7.07630   15.11620    2.43840   23.39020   29.33360   23.39070   15.11630   22.97240    0.03330    0.00000   35.48760    0.12880    1.00000    0.25830    0.07710    0.16450
 4294.40000    2.57690    2.40200    2.40820    2.57070    8.50000    8.54700    0.04990   20.18500   21.21420    0.11820    5.30360   10.43030    7.29840   12.04360    2.46770   14.00140   28.81860   14.00160   12.04370   13.74540    0.04010    0.00000   45.39600    0.11980    1.00000    0.33500    0.13550    0.14460
 4294.90000    2.58080    2.42560    2.44340    2.57970    8.50000    8.57810    0.05550   21.31700   22.41920    0.10750    5.37750    9.65060    7.68900    9.15890    2.49370    8.16130   28.66420    8.16180    9.15920    7.29620    0.04880    0.00000   29.91910    0.10660    1.00000    0.45750    0.17590    0.15300
 4295.40000    2.61930    2.41060    2.44820    2.58710    8.50000    8.57810    0.05880   23.46380   25.27000    0.10750    5.32630    7.40280    7.47720    7.40490    2.50320    6.13140   25.42080    6.13130    7.40490    6.19990    0.05480    0.00000   18.22610    0.10330    1.00000    0.53010    0.16070    0.17400
