~Version ---------------------------------------------------
VERS.   2.0 : CWLS log ASCII Standard -VERSION 2.0
WRAP.    NO : One line per depth step
DLM . SPACE : Column Data Section Delimiter
~Well ------------------------------------------------------
STRT.ft       145.90000 : START DEPTH
STOP.ft      4093.90000 : STOP DEPTH
STEP.ft         0.50000 : STEP
NULL.           -999.25 : NULL VALUE
COMP. Statoil Petroleum : COMPANY
WELL.        15/9-F-1 C : WELL
FLD .             VOLVE : FIELD
LOC .   Maersk Inspirer : LOCATION
PROV.                   : PROVINCE
CNTY.                   : COUNTY
STAT.                   : STATE
CTRY.                   : COUNTRY
SRVC.                   : SERVICE COMPANY
DATE.                   : DATE
UWI .                   : UNIQUE WELL ID
API .                   : API NUMBER
~Curve Information -----------------------------------------
DEPT        .ft        : 
ABDCQF01    .g/cm3     : 
ABDCQF02    .g/cm3     : 
ABDCQF03    .g/cm3     : 
ABDCQF04    .g/cm3     : 
BS          .inches    : 
CALI        .inches    : 
DRHO        .g/cm3     : 
GR          .API       : 
NBGRCFM     .API       : 
NPHI        .v/v       : 
PEF         .b/elec    : 
RACEHM      .ohm.m     : 
RACELM      .ohm.m     : 
RD          .ohm.m     : 
RHOB        .g/cm3     : 
RM          .ohm.m     : 
ROP         .m/hr      : 
RPCEHM      .ohm.m     : 
RPCELM      .ohm.m     : 
RT          .ohm.m     : 
BADDATA_FLAG.unitless  : 
BVW         .v/v       : 
COAL_FLAG   .unitless  : 
KLOGH       .mD        : 
PHIF        .v/v       : 
SAND_FLAG   .unitless  : 
SW          .v/v       : 
VCARB       .v/v       : 
VSH         .v/v       : 
~Params ----------------------------------------------------
~Other -----------------------------------------------------
PETROPHYSICAL INTERPRETATION: INPUT

# --- LOG MNEMONICS AND UNITS ---
#Depth          ABDCQF01        ABDCQF02        ABDCQF03        ABDCQF04        BS              CALI            DRHO            GR              NBGRCFM         NPHI            PEF             RACEHM          RACELM          RD              RHOB            RM              ROP             RPCEHM          RPCELM          RT
#M              g/cm3           g/cm3           g/cm3           g/cm3           inches          inches          g/cm3           API             API             v/v             b/elec          ohm.m           ohm.m           ohm.m           g/cm3           ohm.m           m/hr            ohm.m           ohm.m           ohm.m
~ASCII -----------------------------------------------------
# ...
 4070.90000 -999.25000 -999.25000 -999.25000 -999.25000    8.50000 -999.25000 -999.25000  116.27860  124.83720 -999.25000 -999.25000    3.00650    2.66550    3.48920 -999.25000    5.16120   29.98570    5.16120    3.48920    5.16120    0.00000 -999.25000    0.00000 -999.25000 -999.25000    0.00000 -999.25000 -999.25000    0.96710
 4071.40000 -999.25000 -999.25000 -999.25000 -999.25000    8.50000 -999.25000 -999.25000  115.04310  121.33540 -999.25000 -999.25000    3.01010    2.65770    3.50680 -999.25000    5.28850   30.03480    5.28850    3.50680    5.28850    0.00000 -999.25000    0.00000 -999.25000 -999.25000    0.00000 -999.25000 -999.25000    0.95600
 4071.90000 -999.25000 -999.25000 -999.25000 -999.25000    8.50000 -999.25000 -999.25000  120.30390  125.92490 -999.25000 -999.25000    2.96240    2.65040    3.51450 -999.25000    5.36840   27.48810    5.36840    3.51450    5.36840    0.00000 -999.25000    0.00000 -999.25000 -999.25000    0.00000 -999.25000 -999.25000    1.00000
 4072.40000 -999.25000 -999.25000 -999.25000 -999.25000    8.50000 -999.25000 -999.25000  117.38400  124.96140 -999.25000 -999.25000    2.96060    2.64590    3.54770 -999.25000    5.39730   32.68350    5.39730    3.54770    5.39730    0.00000 -999.25000    0.00000 -999.25000 -999.25000    0.00000 -999.25000 -999.25000    0.97680
 4072.90000 -999.25000 -999.25000 -999.25000 -999.25000    8.50000 -999.25000 -999.25000  114.85680  124.68880 -999.25000 -999.25000    2.98050    2.64370    3.53230 -999.25000    5.37910   51.92250    5.37910    3.53230    5.37910    0.00000 -999.25000    0.00000 -999.25000 -999.25000    0.00000 -999.25000 -999.25000    0.95450
 4073.40000 -999.25000 -999.25000 -999.25000 -999.25000    8.50000 -999.25000 -999.25000  114.62970  121.12410 -999.25000 -999.25000    2.99550    2.63080    3.51200 -999.25000    5.31340   65.12150    5.31330    3.51200    5.31340    0.00000 -999.25000    0.00000 -999.25000 -999.25000    0.00000 -999.25000 -999.25000    0.95250
 4073.90000 -999.25000 -999.25000 -999.25000 -999.25000    8.50000 -999.25000 -999.25000  115.52710  127.45210 -999.25000 -999.25000    2.86450    2.58170    3.43460 -999.25000    5.31470   75.41250    5.31470    3.43460    5.31470    0.00000 -999.25000    0.00000 -999.25000 -999.25000    0.00000 -999.25000 -999.25000    0.96040
 4074.40000 -999.25000 -999.25000 -999.25000 -999.25000    8.50000 -999.25000 -999.25000  114.84060  122.10870 -999.25000 -999.25000    2.71020    2.45440    3.16610 -999.25000    4.92180   77.63060    4.92180    3.16620    4.92180    0.00000 -999.25000    0.00000 -999.25000 -999.25000    0.00000 -999.25000 -999.25000    0.95440
 4074.90000 -999.25000 -999.25000 -999.25000 -999.25000    8.50000 -999.25000 -999.25000  114.65460  121.73670 -999.25000 -999.25000    2.66050    2.41970    3.17380 -999.25000    5.06450   77.63060    5.06450    3.17380    5.06450    0.00000 -999.25000    0.00000 -999.25000 -999.25000    0.00000 -999.25000 -999.25000    0.95270
 4075.40000 -999.25000 -999.25000 -999.25000 -999.25000    8.50000 -999.25000 -999.25000  114.41620  127.37440 -999.25000 -999.25000    2.64510    2.40980    3.16190 -999.25000    5.10060   77.63060    5.10060    3.16190    5.10060    0.00000 -999.25000    0.00000 -999.25000 -999.25000    0.00000 -999.25000 -999.25000    0.95060
 4075.90000 -999.25000 -999.25000 -999.25000 -999.25000    8.50000 -999.25000 -999.25000  116.76660  119.50690 -999.25000 -999.25000    2.68190    2.41280    3.11520 -999.25000    4.83790   77.63060    4.83800    3.11520    4.83790    0.00000 -999.25000    0.00000 -999.25000 -999.25000    0.00000 -999.25000 -999.25000    0.97140
 4076.40000 -999.25000 -999.25000 -999.25000 -999.25000    8.50000 -999.25000 -999.25000  121.39820  119.88640 -999.25000 -999.25000    2.65450    2.41500    3.06160 -999.25000    4.68900   60.92480    4.68900    3.06160    4.68900    0.00000 -999.25000    0.00000 -999.25000 -999.25000    0.00000 -999.25000 -999.25000    1.00000
 4076.90000 -999.25000 -999.25000 -999.25000 -999.25000    8.50000 -999.25000 -999.25000  114.96870  124.75610 -999.25000 -999.25000    2.58760    2.42250    3.02930 -999.25000    4.66270   34.54350    4.66270    3.02930    4.66270    0.00000 -999.25000    0.00000 -999.25000 -999.25000    0.00000 -999.25000 -999.25000    0.95550
 4077.40000 -999.25000 -999.25000 -999.25000 -999.25000    8.50000 -999.25000 -999.25000  114.22070  123.28450 -999.25000 -999.25000    2.53370    2.43070    3.02530 -999.25000    4.65860   24.43370    4.65860    3.02530    4.65860    0.00000 -999.25000    0.00000 -999.25000 -999.25000    0.00000 -999.25000 -999.25000    0.94880
 4077.90000 -999.25000 -999.25000 -999.25000 -999.25000    8.50000 -999.25000 -999.25000  120.32930  122.75120 -999.25000 -999.25000    2.50130    2.43060    3.03330 -999.25000    4.68310   28.11260    4.68310    3.03330    4.68310    0.00000 -999.25000    0.00000 -999.25000 -999.25000    0.00000 -999.25000 -999.25000    1.00000
 4078.40000 -999.25000 -999.25000 -999.25000 -999.25000    8.50000 -999.25000 -999.25000  117.68250  122.61260 -999.25000 -999.25000    2.57650    2.44250    3.08000 -999.25000    4.78960   29.94450    4.78960    3.08000    4.78960    0.00000 -999.25000    0.00000 -999.25000 -999.25000    0.00000 -999.25000 -999.25000    0.97940
 4078.90000 -999.25000 -999.25000 -999.25000 -999.25000    8.50000 -999.25000 -999.25000  117.31820  128.05150 -999.25000 -999.25000    2.58700    2.44280    3.07800 -999.25000    4.79110   29.93800    4.79110    3.07800    4.79110    0.00000 -999.25000    0.00000 -999.25000 -999.25000    0.00000 -999.25000 -999.25000    0.97620
 4079.40000 -999.25000 -999.25000 -999.25000 -999.25000    8.50000 -999.25000 -999.25000  121.15900  129.98050 -999.25000 -999.25000    2.63520    2.45010    3.06770 -999.25000    4.70790   29.97770    4.70790    3.06770    4.70790    0.00000 -999.25000    0.00000 -999.25000 -999.25000    0.00000 -999.25000 -999.25000    1.00000
 4079.90000 -999.25000 -999.25000 -999.25000 -999.25000    8.50000 -999.25000 -999.25000  114.09580  123.68720 -999.25000 -999.25000    2.62470    2.44550    3.12580 -999.25000    4.98670   29.98380    4.98670    3.12580    4.98670    0.00000 -999.25000    0.00000 -999.25000 -999.25000    0.00000 -999.25000 -999.25000    0.94770
 4080.40000 -999.25000 -999.25000 -999.25000 -999.25000    8.50000 -999.25000 -999.25000  117.87780  126.38170 -999.25000 -999.25000    2.64040    2.44910    3.10700 -999.25000    4.84280   29.99710    4.84280    3.10700    4.84280    0.00000 -999.25000    0.00000 -999.25000 -999.25000    0.00000 -999.25000 -999.25000    0.98120
 4080.90000 -999.25000 -999.25000 -999.25000 -999.25000    8.50000 -999.25000 -999.25000  116.94980  119.94730 -999.25000 -999.25000    2.68090    2.44410    3.14060 -999.25000    5.01080   30.01040    5.01080    3.14060    5.01080    0.00000 -999.25000    0.00000 -999.25000 -999.25000    0.00000 -999.25000 -999.25000    0.97300
 4081.40000 -999.25000 -999.25000 -999.25000 -999.25000    8.50000 -999.25000 -999.25000  113.22390  121.41950 -999.25000 -999.25000    2.63900    2.44850    3.03940 -999.25000    4.80930   29.97030    4.80930    3.03940    4.80930    0.00000 -999.25000    0.00000 -999.25000 -999.25000    0.00000 -999.25000 -999.25000    0.94000
 4081.90000 -999.25000 -999.25000 -999.25000 -999.25000    8.50000 -999.25000 -999.25000  111.55760  123.11280 -999.25000 -999.25000    2.62920    2.44560    3.00940 -999.25000    4.59150   29.95670    4.59150    3.00940    4.59150    0.00000 -999.25000    0.00000 -999.25000 -999.25000    0.00000 -999.25000 -999.25000    0.92530
 4082.40000 -999.25000 -999.25000 -999.25000 -999.25000    8.50000 -999.25000 -999.25000  116.43910  124.43940 -999.25000 -999.25000    2.64500    2.43210    3.06380 -999.25000    4.84320   29.74890    4.84310    3.06370    4.84320    0.00000 -999.25000    0.00000 -999.25000 -999.25000    0.00000 -999.25000 -999.25000    0.96860
 4082.90000 -999.25000 -999.25000 -999.25000 -999.25000    8.50000 -999.25000 -999.25000  120.27210  128.27230 -999.25000 -999.25000    2.57850    2.40550    3.08840 -999.25000    5.28500   28.06480    5.28500    3.08830    5.28500    0.00000 -999.25000    0.00000 -999.25000 -999.25000    0.00000 -999.25000 -999.25000    1.00000
