~Version ---------------------------------------------------
VERS.   2.0 : CWLS log ASCII Standard -VERSION 2.0
WRAP.    NO : One line per depth step
DLM . SPACE : Column Data Section Delimiter
~Well ------------------------------------------------------
STRT.ft  239.87760 : START DEPTH
STOP.ft 4186.87760 : STOP DEPTH
STEP.ft    0.50000 : STEP
NULL.      -999.25 : NULL VALUE
COMP. STATOILHYDRO : COMPANY
WELL.    15/9-F-12 : WELL
FLD .        VOLVE : FIELD
LOC .      UNKNOWN : LOCATION
PROV.              : PROVINCE
CNTY.      UNKNOWN : COUNTY
STAT.      UNKNOWN : STATE
CTRY.       Norway : COUNTRY
SRVC.      UNKNOWN : SERVICE COMPANY
DATE.      UNKNOWN : DATE
UWI . NO 15/9-F-12 : UNIQUE WELL ID
API .              : API NUMBER
~Curve Information -----------------------------------------
DEPT     .ft           : 
CARB_FLAG.UNKNOWN      : 
COAL_FLAG.UNKNOWN      : 
DT       .us/ft        : 
GR       .API          : 
NPHI     .v/v_decimal  : 
RD       .UNKNOWN      : 
RHOB     .g/cm3        : 
ROP5_RM  .UNKNOWN      : 
RS       .UNKNOWN      : 
RT       .ohm.m        : 
SAND_FLAG.UNKNOWN      : 
BVW      .v/v_decimal  : 
KLOGH    .mD           : 
PHIF     .v/v_decimal  : 
SW       .v/v_decimal  : 
VSH      .v/v_decimal  : 
~Params ----------------------------------------------------
~Other -----------------------------------------------------
~ASCII -----------------------------------------------------
# ...
 2884.37760 -999.25000 -999.25000   66.96775   18.43088    0.08695    3.23291    2.32615    7.45104    3.75707    3.61765 -999.25000 -999.25000 -999.25000 -999.25000 -999.25000 -999.25000
 2884.87760 -999.25000 -999.25000   63.21431   17.23446    0.10209    2.92215    2.39139    7.08645    3.04827    3.03036 -999.25000 -999.25000 -999.25000 -999.25000 -999.25000 -999.25000
 2885.37760 -999.25000 -999.25000   63.59090   17.68641    0.10853    2.76457    2.33528    7.46732    2.64215    2.68452 -999.25000 -999.25000 -999.25000 -999.25000 -999.25000 -999.25000
 2885.87760 -999.25000 -999.25000   72.88577   24.05451    0.12106    2.53976    2.32428    8.02348    2.60687    2.61516 -999.25000 -999.25000 -999.25000 -999.25000 -999.25000 -999.25000
 2886.37760 -999.25000 -999.25000   68.65609   21.43565    0.12424    2.38601    2.28347    9.52428    2.42170    2.36145 -999.25000 -999.25000 -999.25000 -999.25000 -999.25000 -999.25000
 2886.87760 -999.25000 -999.25000   67.11518   23.37240    0.12486    2.41832    2.37607   10.36034    2.28746    2.22385 -999.25000 -999.25000 -999.25000 -999.25000 -999.25000 -999.25000
 2887.37760 -999.25000 -999.25000   71.39852   22.74864    0.12523    2.42378    2.23088   11.09304    2.33233    2.27375 -999.25000 -999.25000 -999.25000 -999.25000 -999.25000 -999.25000
 2887.87760 -999.25000 -999.25000   72.79369   25.19308    0.11131    2.60031    2.31417   11.57887    2.58144    2.52834 -999.25000 -999.25000 -999.25000 -999.25000 -999.25000 -999.25000
 2888.37760 -999.25000 -999.25000   70.52897   25.34906    0.11108    2.50218    2.28358   11.02808    2.85661    2.71737 -999.25000 -999.25000 -999.25000 -999.25000 -999.25000 -999.25000
 2888.87760 -999.25000 -999.25000   67.61935   25.51890    0.12817    2.46000    2.25882   10.54645    2.59703    2.47678 -999.25000 -999.25000 -999.25000 -999.25000 -999.25000 -999.25000
 2889.37760 -999.25000 -999.25000   66.86975   21.29704    0.12814    2.49682    2.31159   10.02807    2.27082    2.23865 -999.25000 -999.25000 -999.25000 -999.25000 -999.25000 -999.25000
 2889.87760 -999.25000 -999.25000   67.10249   25.61198    0.11652    2.54257    2.35261   10.19609    2.45637    2.42567 -999.25000 -999.25000 -999.25000 -999.25000 -999.25000 -999.25000
 2890.37760 -999.25000 -999.25000   66.55210   26.56907    0.10705    2.64268    2.43354   10.54825    2.68758    2.61569 -999.25000 -999.25000 -999.25000 -999.25000 -999.25000 -999.25000
 2890.87760 -999.25000 -999.25000   70.58260   23.03976    0.11037    2.59961    2.31430   10.42792    2.86540    2.77959 -999.25000 -999.25000 -999.25000 -999.25000 -999.25000 -999.25000
 2891.37760 -999.25000 -999.25000   68.73493   23.79634    0.11981    2.53942    2.33117    9.96787    2.69425    2.65561 -999.25000 -999.25000 -999.25000 -999.25000 -999.25000 -999.25000
 2891.87760 -999.25000 -999.25000   72.53549   27.93227    0.13365    2.27803    2.27987    9.44588    2.50761    2.56716 -999.25000 -999.25000 -999.25000 -999.25000 -999.25000 -999.25000
 2892.37760 -999.25000 -999.25000   66.98379   25.45126    0.12981    2.10732    2.25500    9.86060    2.20250    2.20734 -999.25000 -999.25000 -999.25000 -999.25000 -999.25000 -999.25000
 2892.87760 -999.25000 -999.25000   70.08185   20.77382    0.14461    1.92273    2.33052   14.50502    1.94684    1.85743 -999.25000 -999.25000 -999.25000 -999.25000 -999.25000 -999.25000
 2893.37760 -999.25000 -999.25000   70.28395   20.58080    0.13409    1.94669    2.36338   14.97852    1.82863    1.75105 -999.25000 -999.25000 -999.25000 -999.25000 -999.25000 -999.25000
 2893.87760 -999.25000 -999.25000   69.95583   22.11725    0.11491    2.06415    2.34596   14.90121    2.15641    2.07323 -999.25000 -999.25000 -999.25000 -999.25000 -999.25000 -999.25000
 2894.37760 -999.25000 -999.25000   68.51073   20.01180    0.11356    1.97937    2.31418   14.06362    2.19663    2.05617 -999.25000 -999.25000 -999.25000 -999.25000 -999.25000 -999.25000
 2894.87760 -999.25000 -999.25000   65.61601   24.82604    0.12365    2.10260    2.27817   12.90203    2.06723    2.02946 -999.25000 -999.25000 -999.25000 -999.25000 -999.25000 -999.25000
 2895.37760 -999.25000 -999.25000   73.27339   22.32885    0.12228    2.08866    2.36254   12.77605    2.16594    2.11196 -999.25000 -999.25000 -999.25000 -999.25000 -999.25000 -999.25000
 2895.87760 -999.25000 -999.25000   67.47693   25.45907    0.12375    2.26178    2.32570   13.16856    2.23582    2.17440 -999.25000 -999.25000 -999.25000 -999.25000 -999.25000 -999.25000
 2896.37760 -999.25000 -999.25000   73.02484   22.76121    0.13049    2.24000    2.33242   14.32721    2.32300    2.23486 -999.25000 -999.25000 -999.25000 -999.25000 -999.25000 -999.25000
 2896.87760 -999.25000 -999.25000   69.08270   22.59533    0.12419    2.35299    2.39617   14.40066    2.32409    2.25923 -999.25000 -999.25000 -999.25000 -999.25000 -999.25000 -999.25000
 2897.37760 -999.25000 -999.25000   67.69456   22.52015    0.11432    2.22344    2.41635   14.33652    2.46935    2.43398 -999.25000 -999.25000 -999.25000 -999.25000 -999.25000 -999.25000
 2897.87760 -999.25000 -999.25000   67.75253   23.81214    0.11217    2.31614    2.28199   13.44121    2.24083    2.10996 -999.25000 -999.25000 -999.25000 -999.25000 -999.25000 -999.25000
 2898.37760 -999.25000 -999.25000   70.45017   23.07166    0.11426    2.49097    2.29306   13.04155    2.34187    2.33472 -999.25000 -999.25000 -999.25000 -999.25000 -999.25000 -999.25000
 2898.87760 -999.25000 -999.25000   69.46818   22.88634    0.11408    2.71026    2.29515   12.72939    2.66796    2.57520 -999.25000 -999.25000 -999.25000 -999.25000 -999.25000 -999.25000
 2899.37760 -999.25000 -999.25000   69.58906   26.15844    0.10189    2.88150    2.31713   12.88625    2.97242    2.92349 -999.25000 -999.25000 -999.25000 -999.25000 -999.25000 -999.25000
 2899.87760 -999.25000 -999.25000   67.76013   22.46236    0.10283    2.86273    2.35102   12.03351    3.22698    3.10601 -999.25000 -999.25000 -999.25000 -999.25000 -999.25000 -999.25000
 2900.37760 -999.25000 -999.25000   70.32188   23.27757    0.10663    2.96745    2.37677   11.21775    2.97593    2.93218 -999.25000 -999.25000 -999.25000 -999.25000 -999.25000 -999.25000
 2900.87760 -999.25000 -999.25000   67.42473   24.40260    0.10699    3.16071    2.28376   10.50836    2.92701    2.94382 -999.25000 -999.25000 -999.25000 -999.25000 -999.25000 -999.25000
 2901.37760 -999.25000 -999.25000   69.36153   21.78191    0.10600    3.10911    2.29565   10.24202    3.16680    3.12013 -999.25000 -999.25000 -999.25000 -999.25000 -999.25000 -999.25000
 2901.87760 -999.25000 -999.25000   65.05980   29.34109    0.10228    3.06659    2.33905   10.07743    3.18867    3.16155 -999.25000 -999.25000 -999.25000 -999.25000 -999.25000 -999.25000
 2902.37760 -999.25000 -999.25000   68.70977   26.10748    0.09659    2.92055    2.33341    9.87641    3.07630    3.08006 -999.25000 -999.25000 -999.25000 -999.25000 -999.25000 -999.25000
 2902.87760 -999.25000 -999.25000   69.26425   22.40908    0.10245    2.82753    2.29590    9.60115    2.84711    2.83234 -999.25000 -999.25000 -999.25000 -999.25000 -999.25000 -999.25000
 2903.37760 -999.25000 -999.25000   70.45756   24.06484    0.10665    2.75034    2.31134    9.34382    2.69376    2.64850 -999.25000 -999.25000 -999.25000 -999.25000 -999.25000 -999.25000
 2903.87760 -999.25000 -999.25000   72.42083   28.62748    0.10222    2.62740    2.30131    9.44572    2.72463    2.69176 -999.25000 -999.25000 -999.25000 -999.25000 -999.25000 -999.25000
 2904.37760 -999.25000 -999.25000   71.09887   22.69391    0.11653    2.55000    2.31711   10.03828    2.55300    2.49390 -999.25000 -999.25000 -999.25000 -999.25000 -999.25000 -999.25000
 2904.87760 -999.25000 -999.25000   73.32163   24.03537    0.11902    2.53877    2.25478   10.47466    2.52835    2.49291 -999.25000 -999.25000 -999.25000 -999.25000 -999.25000 -999.25000
 2905.37760 -999.25000 -999.25000   71.78446   25.76725    0.11624    2.56000    2.28471   10.78702    2.52890    2.45572 -999.25000 -999.25000 -999.25000 -999.25000 -999.25000 -999.25000
