~Version ---------------------------------------------------
VERS.   2.0 : CWLS log ASCII Standard -VERSION 2.0
WRAP.    NO : One line per depth step
DLM . SPACE : Column Data Section Delimiter
~Well ------------------------------------------------------
STRT.ft       145.90000 : START DEPTH
STOP.ft      4093.90000 : STOP DEPTH
STEP.ft         0.50000 : STEP
NULL.           -999.25 : NULL VALUE
COMP. Statoil Petroleum : COMPANY
WELL.        15/9-F-1 C : WELL
FLD .             VOLVE : FIELD
LOC .   Maersk Inspirer : LOCATION
PROV.                   : PROVINCE
CNTY.                   : COUNTY
STAT.                   : STATE
CTRY.                   : COUNTRY
SRVC.                   : SERVICE COMPANY
DATE.                   : DATE
UWI .                   : UNIQUE WELL ID
API .                   : API NUMBER
~Curve Information -----------------------------------------
DEPT        .ft        : 
ABDCQF01    .g/cm3     : 
ABDCQF02    .g/cm3     : 
ABDCQF03    .g/cm3     : 
ABDCQF04    .g/cm3     : 
BS          .inches    : 
CALI        .inches    : 
DRHO        .g/cm3     : 
GR          .API       : 
NBGRCFM     .API       : 
NPHI        .v/v       : 
PEF         .b/elec    : 
RACEHM      .ohm.m     : 
RACELM      .ohm.m     : 
RD          .ohm.m     : 
RHOB        .g/cm3     : 
RM          .ohm.m     : 
ROP         .m/hr      : 
RPCEHM      .ohm.m     : 
RPCELM      .ohm.m     : 
RT          .ohm.m     : 
BADDATA_FLAG.unitless  : 
BVW         .v/v       : 
COAL_FLAG   .unitless  : 
KLOGH       .mD        : 
PHIF        .v/v       : 
SAND_FLAG   .unitless  : 
SW          .v/v       : 
VCARB       .v/v       : 
VSH         .v/v       : 
~Params ----------------------------------------------------
~Other -----------------------------------------------------
PETROPHYSICAL INTERPRETATION: INPUT

# --- LOG MNEMONICS AND UNITS ---
#Depth          ABDCQF01        ABDCQF02        ABDCQF03        ABDCQF04        BS              CALI            DRHO            GR              NBGRCFM         NPHI            PEF             RACEHM          RACELM          RD              RHOB            RM              ROP             RPCEHM          RPCELM          RT
#M              g/cm3           g/cm3           g/cm3           g/cm3           inches          inches          g/cm3           API             API             v/v             b/elec          ohm.m           ohm.m           ohm.m           g/cm3           ohm.m           m/hr            ohm.m           ohm.m           ohm.m
~ASCII -----------------------------------------------------
# ...
 3395.90000    2.20530    2.20660    2.20500    2.21010    8.50000    8.47520    0.02660   35.78200   39.06230    0.23630    4.63290    0.62480    0.72920    0.63400    2.20480    0.64220   27.81530    0.64220    0.63400    0.64220    0.00000    0.17450    0.00000   58.23200    0.25720    1.00000    0.67870    0.00000    0.25470
 3396.40000    2.19200    2.20040    2.19140    2.18940    8.50000    8.38960    0.02180   32.49360   38.71360    0.24300    4.50530    0.61160    0.73840    0.63100    2.19030    0.62660   27.81810    0.62660    0.63100    0.62660    0.00000    0.17660    0.00000  122.40270    0.26480    1.00000    0.66690    0.00000    0.22560
 3396.90000    2.21730    2.21620    2.19940    2.21940    8.50000    8.47550    0.03680   32.01770   35.99850    0.25930    5.33170    0.63650    0.75600    0.63420    2.21070    0.59530   25.39970    0.59530    0.63420    0.59530    0.00000    0.18010    0.00000  132.57720    0.26430    1.00000    0.68140    0.00000    0.22140
 3397.40000    2.22030    2.21590    2.19390    2.21420    8.50000    8.47550    0.03740   31.67720   36.60580    0.25170    5.46980    0.65240    0.78220    0.65560    2.20850    0.58860   23.77550    0.58860    0.65560    0.58860    0.00000    0.18050    0.00000  135.21550    0.26210    1.00000    0.68880    0.00000    0.21840
 3397.90000    2.22490    2.19820    2.20890    2.21840    8.50000    8.47550    0.04130   32.19730   34.12910    0.25290    5.57960    0.69800    0.81900    0.67610    2.20850    0.60410   23.52340    0.60410    0.67610    0.60410    0.00000    0.17880    0.00000  123.95410    0.26250    1.00000    0.68110    0.00000    0.22300
 3398.40000    2.21230    2.20740    2.21580    2.19420    8.50000    8.47540    0.03750   33.25090   34.56390    0.24400    5.17500    0.75720    0.87100    0.70350    2.20500    0.59900   25.41950    0.59900    0.70350    0.59900    0.00000    0.17930    0.00000   97.78780    0.26020    1.00000    0.68930    0.00000    0.23230
 3398.90000    2.22050    2.22880    2.21220    2.21810    8.50000    8.35340    0.03640   30.19580   34.83410    0.23430    5.08980    0.78840    0.91770    0.72740    2.21920    0.60300   27.31440    0.60300    0.72740    0.60300    0.00000    0.17660    0.00000  145.86850    0.25140    1.00000    0.70260    0.00000    0.20530
 3399.40000    2.22400    2.22010    2.23090    2.23100    8.50000    8.47550    0.03780   32.77170   32.72450    0.25040    5.39180    0.83570    0.95720    0.75840    2.22340    0.61430   27.04640    0.61430    0.75840    0.61430    0.00000    0.17680    0.00000   99.76050    0.25640    1.00000    0.68950    0.00000    0.22800
 3399.90000    2.21530    2.22920    2.23290    2.23110    8.50000    8.47560    0.04220   32.24990   32.59350    0.25220    5.41330    0.89640    1.00140    0.80130    2.22480    0.63730   26.82470    0.63730    0.80130    0.63730    0.00000    0.17410    0.00000  110.10900    0.25670    1.00000    0.67820    0.00000    0.22350
 3400.40000    2.23790    2.22090    2.22610    2.23690    8.50000    8.52420    0.04150   32.45460   32.00170    0.24530    5.56360    0.93330    1.02360    0.82610    2.22680    0.65950   26.87680    0.65950    0.82610    0.65950    0.00000    0.17120    0.00000   99.53540    0.25320    1.00000    0.67600    0.00000    0.22530
 3400.90000    2.21380    2.21720    2.23030    2.21530    8.50000    8.52420    0.03770   31.02590   34.54000    0.25300    5.46390    0.91360    1.02990    0.80460    2.21730    0.62980   27.00100    0.62980    0.80460    0.62980    0.00000    0.17500    0.00000  145.47490    0.25960    1.00000    0.67430    0.00000    0.21260
 3401.40000    2.21510    2.22810    2.21880    2.21970    8.50000    8.47550    0.03890   31.53700   33.66280    0.24200    5.38490    0.85750    1.00650    0.75790    2.21880    0.59480   27.49170    0.59480    0.75790    0.59480    0.00000    0.17850    0.00000  121.03660    0.25460    1.00000    0.70100    0.00000    0.21710
 3401.90000    2.21330    2.23220    2.20460    2.22070    8.50000    8.50000    0.04010   31.95580   35.13040    0.25060    5.46090    0.80470    0.97220    0.71180    2.21510    0.55660   27.83700    0.55660    0.71180    0.55660    0.00000    0.18430    0.00000  122.21780    0.25930    1.00000    0.71060    0.00000    0.22090
 3402.40000    2.21880    2.22830    2.21180    2.21800    8.50000    8.52420    0.03960   31.41460   35.79000    0.24090    5.31390    0.76620    0.94560    0.68700    2.21830    0.53210   27.96550    0.53210    0.68700    0.53210    0.00000    0.18670    0.00000  123.20470    0.25440    1.00000    0.73410    0.00000    0.21600
 3402.90000    2.23040    2.22560    2.22470    2.23170    8.50000    8.52430    0.04220   30.89990   36.71960    0.24530    5.53000    0.72940    0.91840    0.67370    2.22560    0.53590   28.03190    0.53590    0.67370    0.53590    0.00000    0.18590    0.00000  133.53380    0.25360    1.00000    0.73300    0.00000    0.21150
 3403.40000    2.23010    2.22350    2.22200    2.22680    8.50000    8.52430    0.03840   32.34620   33.73440    0.25000    5.37360    0.67500    0.88440    0.65640    2.22400    0.53100   28.14630    0.53100    0.65640    0.53100    0.00000    0.18740    0.00000  107.07440    0.25610    1.00000    0.73200    0.00000    0.22430
 3403.90000    2.21680    2.22920    2.20960    2.21470    8.50000    8.49990    0.03410   31.07440   35.06010    0.24730    5.34260    0.64650    0.85420    0.64380    2.21530    0.54040   28.45890    0.54040    0.64380    0.54040    0.00000    0.18610    0.00000  140.03910    0.25800    1.00000    0.72130    0.00000    0.21300
 3404.40000    2.23010    2.23150    2.21940    2.23570    8.50000    8.47550    0.03800   32.88890   33.92860    0.24610    5.32560    0.61640    0.82310    0.63790    2.22690    0.56890   28.14180    0.56890    0.63790    0.56890    0.00000    0.18200    0.00000   92.45720    0.25350    1.00000    0.71780    0.00000    0.22910
 3404.90000    2.24250    2.21890    2.21940    2.22350    8.50000    8.47550    0.03780   31.14330   37.26900    0.24270    5.40090    0.58990    0.78630    0.61830    2.22190    0.57930   28.72890    0.57930    0.61830    0.57930    0.00000    0.18020    0.00000  128.28510    0.25390    1.00000    0.70990    0.00000    0.21360
 3405.40000    2.24540    2.22460    2.22320    2.22350    8.50000    8.47550    0.04110   31.46720   34.96880    0.23500    5.34720    0.57080    0.75550    0.60620    2.22610    0.58900   28.73060    0.58900    0.60620    0.58900    0.00000    0.17830    0.00000  111.14650    0.24930    1.00000    0.71520    0.00000    0.21650
 3405.90000    2.23810    2.23130    2.22160    2.22240    8.50000    8.47550    0.04340   31.26550   34.81270    0.24970    5.44820    0.56380    0.72570    0.59360    2.22610    0.59700   28.49060    0.59700    0.59360    0.59700    0.00000    0.17830    0.00000  128.62690    0.25520    1.00000    0.69840    0.00000    0.21470
 3406.40000    2.22860    2.22270    2.23010    2.22100    8.50000    8.47550    0.04240   32.40660   34.46120    0.24590    5.40200    0.56400    0.70030    0.59520    2.22330    0.61770   28.73450    0.61770    0.59520    0.61770    0.00000    0.17600    0.00000  103.18780    0.25470    1.00000    0.69110    0.00000    0.22480
 3406.90000    2.21910    2.23390    2.22450    2.21860    8.50000    8.52420    0.03730   31.00010   35.45540    0.24670    5.36950    0.56690    0.67740    0.57810    2.22300    0.60540   28.75770    0.60540    0.57810    0.60540    0.00000    0.17710    0.00000  134.65230    0.25510    1.00000    0.69450    0.00000    0.21240
 3407.40000    2.23990    2.23120    2.24270    2.23620    8.50000    8.47550    0.04180   31.34320   36.15130    0.23750    5.55850    0.57860    0.65760    0.58080    2.23530    0.63080   21.70370    0.63080    0.58080    0.63080    0.00000    0.17300    0.00000  109.24930    0.24720    1.00000    0.70000    0.00000    0.21540
 3407.90000    2.23660    2.22280    2.22810    2.23470    8.50000    8.47550    0.03870   32.58320   34.70400    0.24190    5.44900    0.57990    0.65010    0.57860    2.22770    0.62520   20.78570    0.62520    0.57860    0.62520    0.00000    0.17470    0.00000   94.38930    0.25150    1.00000    0.69450    0.00000    0.22640
