~Version ---------------------------------------------------
VERS.   2.0 : CWLS log ASCII Standard -VERSION 2.0
WRAP.    NO : One line per depth step
DLM . SPACE : Column Data Section Delimiter
~Well ------------------------------------------------------
STRT.ft  239.87760 : START DEPTH
STOP.ft 4186.87760 : STOP DEPTH
STEP.ft    0.50000 : STEP
NULL.      -999.25 : NULL VALUE
COMP. STATOILHYDRO : COMPANY
WELL.    15/9-F-12 : WELL
FLD .        VOLVE : FIELD
LOC .      UNKNOWN : LOCATION
PROV.              : PROVINCE
CNTY.      UNKNOWN : COUNTY
STAT.      UNKNOWN : STATE
CTRY.       Norway : COUNTRY
SRVC.      UNKNOWN : SERVICE COMPANY
DATE.      UNKNOWN : DATE
UWI . NO 15/9-F-12 : UNIQUE WELL ID
API .              : API NUMBER
~Curve Information -----------------------------------------
DEPT     .ft           : 
CARB_FLAG.UNKNOWN      : 
COAL_FLAG.UNKNOWN      : 
DT       .us/ft        : 
GR       .API          : 
NPHI     .v/v_decimal  : 
RD       .UNKNOWN      : 
RHOB     .g/cm3        : 
ROP5_RM  .UNKNOWN      : 
RS       .UNKNOWN      : 
RT       .ohm.m        : 
SAND_FLAG.UNKNOWN      : 
BVW      .v/v_decimal  : 
KLOGH    .mD           : 
PHIF     .v/v_decimal  : 
SW       .v/v_decimal  : 
VSH      .v/v_decimal  : 
~Params ----------------------------------------------------
~Other -----------------------------------------------------
~ASCII -----------------------------------------------------
# ...
 1379.37760 -999.25000 -999.25000  146.82063  119.59593    0.49705    1.11049    1.59923   15.99626    1.26083    1.00007 -999.25000 -999.25000 -999.25000 -999.25000 -999.25000 -999.25000
 1379.87760 -999.25000 -999.25000  148.88867  130.43306    0.53925    1.12054    1.60959   15.26229    1.55220    0.97351 -999.25000 -999.25000 -999.25000 -999.25000 -999.25000 -999.25000
 1380.37760 -999.25000 -999.25000  144.33970  133.34678    0.52063    1.06020    1.61657   15.80032    1.34064    0.94481 -999.25000 -999.25000 -999.25000 -999.25000 -999.25000 -999.25000
 1380.87760 -999.25000 -999.25000  145.77225  122.25280    0.54763    1.11182    1.62781   17.41195    2.01537    0.90647 -999.25000 -999.25000 -999.25000 -999.25000 -999.25000 -999.25000
 1381.37760 -999.25000 -999.25000  146.84782  125.47892    0.51715    1.11145    1.64456   12.15682    1.56466    1.01968 -999.25000 -999.25000 -999.25000 -999.25000 -999.25000 -999.25000
 1381.87760 -999.25000 -999.25000  144.91163  124.56565    0.49789    1.10696    1.62530    2.18218    1.18006    1.05492 -999.25000 -999.25000 -999.25000 -999.25000 -999.25000 -999.25000
 1382.37760 -999.25000 -999.25000  145.21421  125.53825    0.45044    1.37438    1.74306    2.86201    1.29631    1.01662 -999.25000 -999.25000 -999.25000 -999.25000 -999.25000 -999.25000
 1382.87760 -999.25000 -999.25000  150.05679  125.21900    0.46000    1.15350    1.70680    2.75150    1.18460    1.03250 -999.25000 -999.25000 -999.25000 -999.25000 -999.25000 -999.25000
 1383.37760 -999.25000 -999.25000  142.99515  131.12632    0.51442    1.15270    1.69186    5.39342    1.92603    0.95317 -999.25000 -999.25000 -999.25000 -999.25000 -999.25000 -999.25000
 1383.87760 -999.25000 -999.25000  143.86355  122.44059    0.51212    1.13562    1.69047   14.16045    1.25240    0.95200 -999.25000 -999.25000 -999.25000 -999.25000 -999.25000 -999.25000
 1384.37760 -999.25000 -999.25000  146.90044  119.15696    0.58412    1.14892    1.78525   17.16919    1.78465    1.01109 -999.25000 -999.25000 -999.25000 -999.25000 -999.25000 -999.25000
 1384.87760 -999.25000 -999.25000  146.78029  131.57994    0.48612    1.15783    1.71367   19.74806    1.25637    1.00255 -999.25000 -999.25000 -999.25000 -999.25000 -999.25000 -999.25000
 1385.37760 -999.25000 -999.25000  143.57725  136.25911    0.70028    1.14658    1.71136   20.59283    1.29114    1.03371 -999.25000 -999.25000 -999.25000 -999.25000 -999.25000 -999.25000
 1385.87760 -999.25000 -999.25000  145.22250  130.22403    0.45143    1.13845    1.72098   20.69352    1.18076    0.98366 -999.25000 -999.25000 -999.25000 -999.25000 -999.25000 -999.25000
 1386.37760 -999.25000 -999.25000  141.76113  124.49423    0.36607    1.13352    1.69443   20.55766    1.23433    1.02356 -999.25000 -999.25000 -999.25000 -999.25000 -999.25000 -999.25000
 1386.87760 -999.25000 -999.25000  144.77966  129.10518    0.57387    1.17198    1.78664   20.42001    1.48558    0.98155 -999.25000 -999.25000 -999.25000 -999.25000 -999.25000 -999.25000
 1387.37760 -999.25000 -999.25000  146.18009  128.42714    0.45774    1.18363    1.87859   20.33826    1.59954    1.03518 -999.25000 -999.25000 -999.25000 -999.25000 -999.25000 -999.25000
 1387.87760 -999.25000 -999.25000  149.87300  129.96436    0.35199    1.17086    1.84528   20.41847    1.25174    0.92713 -999.25000 -999.25000 -999.25000 -999.25000 -999.25000 -999.25000
 1388.37760 -999.25000 -999.25000  146.11333  133.22515    0.50958    1.12913    1.78319   20.62440    1.25248    1.03760 -999.25000 -999.25000 -999.25000 -999.25000 -999.25000 -999.25000
 1388.87760 -999.25000 -999.25000  147.00515  126.22861    0.58549    1.22505    1.80119   20.65556    1.27200    0.95217 -999.25000 -999.25000 -999.25000 -999.25000 -999.25000 -999.25000
 1389.37760 -999.25000 -999.25000  147.49973  126.29719    0.58327    1.15984    1.81017   20.55372    1.24689    1.05613 -999.25000 -999.25000 -999.25000 -999.25000 -999.25000 -999.25000
 1389.87760 -999.25000 -999.25000  145.96028  133.92794    0.43530    1.18435    1.82273   19.59080    1.22947    1.02794 -999.25000 -999.25000 -999.25000 -999.25000 -999.25000 -999.25000
 1390.37760 -999.25000 -999.25000  144.36036  138.59230    0.50170    1.19850    1.83007   19.35168    1.42999    0.99891 -999.25000 -999.25000 -999.25000 -999.25000 -999.25000 -999.25000
 1390.87760 -999.25000 -999.25000  142.77534  137.46576    0.41834    1.24111    1.82648   19.34169    1.73549    1.08027 -999.25000 -999.25000 -999.25000 -999.25000 -999.25000 -999.25000
 1391.37760 -999.25000 -999.25000  144.85318  135.80038    0.41598    1.25643    1.78590   19.87987    1.44247    1.07714 -999.25000 -999.25000 -999.25000 -999.25000 -999.25000 -999.25000
 1391.87760 -999.25000 -999.25000  148.81813  146.17557    0.47135    1.31392    1.83760   19.02385    1.87897    1.06496 -999.25000 -999.25000 -999.25000 -999.25000 -999.25000 -999.25000
 1392.37760 -999.25000 -999.25000  144.77247  142.84911    0.45248    1.31399    1.85160   17.64455    1.98734    1.11751 -999.25000 -999.25000 -999.25000 -999.25000 -999.25000 -999.25000
 1392.87760 -999.25000 -999.25000  151.50441  147.58808    0.38679    1.27381    1.90557   16.57272    1.89799    1.05095 -999.25000 -999.25000 -999.25000 -999.25000 -999.25000 -999.25000
 1393.37760 -999.25000 -999.25000  150.64484  141.03387    0.42715    1.27066    1.95473   16.08231    1.48679    1.15992 -999.25000 -999.25000 -999.25000 -999.25000 -999.25000 -999.25000
 1393.87760 -999.25000 -999.25000  148.00047  144.25763    0.46513    1.31220    1.94361   15.85522    1.63666    1.15000 -999.25000 -999.25000 -999.25000 -999.25000 -999.25000 -999.25000
 1394.37760 -999.25000 -999.25000  146.60993  142.51246    0.44020    1.34689    1.91634   15.79020    1.69105    1.18988 -999.25000 -999.25000 -999.25000 -999.25000 -999.25000 -999.25000
 1394.87760 -999.25000 -999.25000  147.16877  145.21883    0.41717    1.32225    1.85083   15.63444    1.60107    1.14803 -999.25000 -999.25000 -999.25000 -999.25000 -999.25000 -999.25000
 1395.37760 -999.25000 -999.25000  141.12019  157.01706    0.37995    1.32880    1.93070   23.96016    1.81879    1.07496 -999.25000 -999.25000 -999.25000 -999.25000 -999.25000 -999.25000
 1395.87760 -999.25000 -999.25000  146.40555  151.30520    0.52056    1.30973    1.91331   28.03124    2.30275    1.19784 -999.25000 -999.25000 -999.25000 -999.25000 -999.25000 -999.25000
 1396.37760 -999.25000 -999.25000  139.71566  156.69356    0.36516    1.31278    1.99060   35.09847    1.88365    0.98248 -999.25000 -999.25000 -999.25000 -999.25000 -999.25000 -999.25000
 1396.87760 -999.25000 -999.25000  138.76073  155.49331    0.33841    1.35860    1.89994   38.36225    2.52562    1.08218 -999.25000 -999.25000 -999.25000 -999.25000 -999.25000 -999.25000
 1397.37760 -999.25000 -999.25000  138.09695  158.50122    0.28819    1.47229    1.96254   38.40762    3.01223    1.30904 -999.25000 -999.25000 -999.25000 -999.25000 -999.25000 -999.25000
 1397.87760 -999.25000 -999.25000  138.91612  158.01660    0.41787    1.49691    1.88126   39.96408    2.93485    1.30108 -999.25000 -999.25000 -999.25000 -999.25000 -999.25000 -999.25000
 1398.37760 -999.25000 -999.25000  137.03109  148.62970    0.61867    1.39737    1.78024   39.91329    2.29312    1.07612 -999.25000 -999.25000 -999.25000 -999.25000 -999.25000 -999.25000
 1398.87760 -999.25000 -999.25000  138.96083  136.25969    0.41681    1.35758    1.87730   39.75990    1.63865    1.12977 -999.25000 -999.25000 -999.25000 -999.25000 -999.25000 -999.25000
 1399.37760 -999.25000 -999.25000  127.31025  147.19921    0.31053    1.38551    1.94581   39.75422    1.56679    1.17307 -999.25000 -999.25000 -999.25000 -999.25000 -999.25000 -999.25000
 1399.87760 -999.25000 -999.25000  133.67837  142.67097    0.34688    1.37436    1.94969   39.95724    2.20273    1.23164 -999.25000 -999.25000 -999.25000 -999.25000 -999.25000 -999.25000
 1400.37760 -999.25000 -999.25000  131.48257  159.66239    0.31056    1.42967    2.01351   38.89374    1.83839    1.22536 -999.25000 -999.25000 -999.25000 -999.25000 -999.25000 -999.25000
