~Version ---------------------------------------------------
VERS.   2.0 : CWLS log ASCII Standard -VERSION 2.0
WRAP.    NO : One line per depth step
DLM . SPACE : Column Data Section Delimiter
~Well ------------------------------------------------------
STRT.ft       145.90000 : START DEPTH
STOP.ft      3464.90000 : STOP DEPTH
STEP.ft         0.50000 : STEP
NULL.           -999.25 : NULL VALUE
COMP. Statoil Petroleum : COMPANY
WELL.        15/9-F-1 B : WELL
FLD .             VOLVE : FIELD
LOC .   Maersk Inspirer : LOCATION
PROV.                   : PROVINCE
CNTY.                   : COUNTY
STAT.                   : STATE
CTRY.                   : COUNTRY
SRVC.                   : SERVICE COMPANY
DATE.                   : DATE
UWI .                   : UNIQUE WELL ID
API .                   : API NUMBER
~Curve Information -----------------------------------------
DEPT     .ft        : 
ABDCQF01 .g/cm3     : 
ABDCQF02 .g/cm3     : 
ABDCQF03 .g/cm3     : 
ABDCQF04 .g/cm3     : 
BS       .inches    : 
CALI     .inches    : 
DRHO     .g/cm3     : 
DT       .us/ft     : 
DTS      .us/ft     : 
GR       .API       : 
NBGRCFM  .API       : 
NPHI     .v/v       : 
PEF      .b/elec    : 
RACEHM   .ohm.m     : 
RACELM   .ohm.m     : 
RD       .ohm.m     : 
RHOB     .g/cm3     : 
RM       .ohm.m     : 
ROP      .m/hr      : 
RPCEHM   .ohm.m     : 
RPCELM   .ohm.m     : 
RT       .ohm.m     : 
BVW      .V/V       : 
CARB_FLAG.V/V       : 
COAL_FLAG.UNITLESS  : 
KLOGH    .mD        : 
PHIF     .V/V       : 
SAND_FLAG.UNITLESS  : 
SW       .V/V       : 
VCARB    .V/V       : 
VSH      .V/V       : 
~Params ----------------------------------------------------
~Other -----------------------------------------------------
PETROPHYSICAL INTERPRETATION: INPUT

# --- LOG MNEMONICS AND UNITS ---
#Depth          ABDCQF01        ABDCQF02        ABDCQF03        ABDCQF04        BS              CALI            DRHO            DT              DTS             GR              NBGRCFM         NPHI            PEF             RACEHM          RACELM          RD              RHOB            RM              ROP             RPCEHM          RPCELM          RT
#M              g/cm3           g/cm3           g/cm3           g/cm3           inches          inches          g/cm3           us/ft           us/ft           API             API             v/v             b/elec          ohm.m           ohm.m           ohm.m           g/cm3           ohm.m           m/hr            ohm.m           ohm.m           ohm.m
~ASCII -----------------------------------------------------
# ...
 3170.40000    2.28520    2.25590    2.25060    2.25050    8.50000    8.66370    0.04330  118.60940 -999.25000  189.78560 -999.25000    0.45230    6.78570    1.68390    1.63840    1.58050    2.25430    1.48790   29.97710    1.48800    1.58060    1.48800 -999.25000 -999.25000 -999.25000 -999.25000 -999.25000 -999.25000 -999.25000 -999.25000 -999.25000
 3170.90000    2.20590    2.25680    2.24990    2.23340    8.50000    8.66370    0.03150  119.85900 -999.25000  210.70590 -999.25000    0.48720    6.98060    1.74080    1.69280    1.61430    2.23230    1.50320   29.98430    1.50310    1.61430    1.50310 -999.25000 -999.25000 -999.25000 -999.25000 -999.25000 -999.25000 -999.25000 -999.25000 -999.25000
 3171.40000    2.25020    2.21580    2.21970    2.22630    8.50000    8.66370    0.03120  118.57820 -999.25000  223.65270 -999.25000    0.47140    7.06570    1.77370    1.74130    1.65950    2.22430    1.56150   29.99230    1.56160    1.65960    1.56160 -999.25000 -999.25000 -999.25000 -999.25000 -999.25000 -999.25000 -999.25000 -999.25000 -999.25000
 3171.90000    2.24290    2.31540    2.28160    2.28250    8.50000    8.69730    0.01780  117.44480 -999.25000  207.32490 -999.25000    0.43240    8.29520    1.78370    1.73110    1.84630    2.28240    2.01150   30.00010    2.01150    1.84620    2.01150 -999.25000 -999.25000 -999.25000 -999.25000 -999.25000 -999.25000 -999.25000 -999.25000 -999.25000
 3172.40000    2.30940    2.24410    2.22610    2.25100    8.50000    8.66380    0.03200  119.84960 -999.25000  244.28650 -999.25000    0.46540    7.22190    1.75430    1.76990    1.70530    2.24230    1.66810   29.98890    1.66800    1.70520    1.66800 -999.25000 -999.25000 -999.25000 -999.25000 -999.25000 -999.25000 -999.25000 -999.25000 -999.25000
 3172.90000    2.26090    2.26380    2.27090    2.25510    8.50000    8.66370    0.02750  120.47630 -999.25000  255.92250 -999.25000    0.43820    7.16530    1.74610    1.79430    1.57120    2.26380    1.39460   29.99700    1.39450    1.57110    1.39450 -999.25000 -999.25000 -999.25000 -999.25000 -999.25000 -999.25000 -999.25000 -999.25000 -999.25000
 3173.40000    2.23820    2.23660    2.21560    2.22580    8.50000    8.66370    0.02900  121.08780 -999.25000  284.76470 -999.25000    0.43620    7.23990    1.79160    1.76080    1.64150    2.22360    1.56060   30.01760    1.56070    1.64150    1.56070 -999.25000 -999.25000 -999.25000 -999.25000 -999.25000 -999.25000 -999.25000 -999.25000 -999.25000
 3173.90000    2.23920    2.25870    2.24150    2.25020    8.50000    8.66370    0.03570  121.62800 -999.25000  271.26990 -999.25000    0.46580    6.87110    1.69950    1.75030    1.56060    2.24300    1.44410   30.02530    1.44410    1.56070    1.44410 -999.25000 -999.25000 -999.25000 -999.25000 -999.25000 -999.25000 -999.25000 -999.25000 -999.25000
 3174.40000    2.27600    2.27280    2.26780    2.28060    8.50000    8.66370    0.03620  121.52960 -999.25000  253.70000 -999.25000    0.41960    6.95620    1.64170    1.73530    1.59090    2.27010    1.54660   29.98870    1.54650    1.59090    1.54650 -999.25000 -999.25000 -999.25000 -999.25000 -999.25000 -999.25000 -999.25000 -999.25000 -999.25000
 3174.90000    2.28740    2.29640    2.28430    2.28180    8.50000    8.66370    0.03370  120.47960 -999.25000  266.57270 -999.25000    0.44190    7.62170    1.64580    1.74730    1.51760    2.28570    1.41490   30.02520    1.41500    1.51760    1.41500 -999.25000 -999.25000 -999.25000 -999.25000 -999.25000 -999.25000 -999.25000 -999.25000 -999.25000
 3175.40000    2.26920    2.30580    2.29380    2.29990    8.50000    8.66370    0.04130  121.31110 -999.25000  265.69380 -999.25000    0.42210    7.38770    1.76470    1.80700    1.61720    2.29040    1.47750   29.99870    1.47750    1.61720    1.47750 -999.25000 -999.25000 -999.25000 -999.25000 -999.25000 -999.25000 -999.25000 -999.25000 -999.25000
 3175.90000    2.28020    2.28050    2.26190    2.25430    8.50000    8.66370    0.02710  121.75420 -999.25000  261.48030 -999.25000    0.45380    7.16310    1.83960    1.86350    1.61230    2.26330    1.40890   29.97840    1.40900    1.61240    1.40900 -999.25000 -999.25000 -999.25000 -999.25000 -999.25000 -999.25000 -999.25000 -999.25000 -999.25000
 3176.40000    2.26500    2.26330    2.26660    2.26420    8.50000    8.66370    0.02740  122.86050 -999.25000  258.05610 -999.25000    0.47490    7.08720    1.91590    1.86090    1.75480    2.26110    1.56300   29.95940    1.56290    1.75480    1.56290 -999.25000 -999.25000 -999.25000 -999.25000 -999.25000 -999.25000 -999.25000 -999.25000 -999.25000
 3176.90000    2.30310    2.25300    2.25670    2.25850    8.50000    8.66370    0.03990  123.33520 -999.25000  243.41120 -999.25000    0.42830    7.05950    1.79990    1.79690    1.67640    2.25930    1.55990   29.96720    1.56000    1.67640    1.56000 -999.25000 -999.25000 -999.25000 -999.25000 -999.25000 -999.25000 -999.25000 -999.25000 -999.25000
 3177.40000    2.25130    2.25550    2.26760    2.25220    8.50000    8.66370    0.03280  121.98760 -999.25000  240.56190 -999.25000    0.43970    7.52400    1.57940    1.74630    1.46390    2.25760    1.27230   29.97720    1.27210    1.46370    1.27210 -999.25000 -999.25000 -999.25000 -999.25000 -999.25000 -999.25000 -999.25000 -999.25000 -999.25000
 3177.90000    2.37220    2.36490    2.34150    2.34920    8.50000    8.66370    0.06240  120.02820 -999.25000  212.68960 -999.25000    0.40590    7.19440    1.75690    1.76030    1.65370    2.34880    1.57070   30.01390    1.57070    1.65370    1.57070 -999.25000 -999.25000 -999.25000 -999.25000 -999.25000 -999.25000 -999.25000 -999.25000 -999.25000
 3178.40000    2.28110    2.26440    2.26240    2.25640    8.50000    8.66370    0.03220  119.48880 -999.25000  202.99560 -999.25000    0.39650    6.48990    1.86280    1.81140    1.76710    2.26110    1.71340   30.03440    1.71350    1.76710    1.71350 -999.25000 -999.25000 -999.25000 -999.25000 -999.25000 -999.25000 -999.25000 -999.25000 -999.25000
 3178.90000    2.24400    2.24070    2.23230    2.24330    8.50000    8.66370    0.03690  119.62840 -999.25000  208.69870 -999.25000    0.42450    6.90340    1.84870    1.86030    1.76330    2.23840    1.66900   30.02010    1.66890    1.76330    1.66890 -999.25000 -999.25000 -999.25000 -999.25000 -999.25000 -999.25000 -999.25000 -999.25000 -999.25000
 3179.40000    2.27880    2.24220    2.28890    2.26790    8.50000    8.66370    0.03910  121.35300 -999.25000  197.86210 -999.25000    0.43040    7.27500    2.03060    1.90260    1.82860    2.26880    1.72730   29.99320    1.72730    1.82860    1.72730 -999.25000 -999.25000 -999.25000 -999.25000 -999.25000 -999.25000 -999.25000 -999.25000 -999.25000
 3179.90000    2.24570    2.24770    2.25170    2.27830    8.50000    8.66370    0.02900  121.38770 -999.25000  210.05730 -999.25000    0.42760    6.76090    1.94060    1.94080    1.80360    2.25510    1.70350   29.99300    1.70350    1.80360    1.70350 -999.25000 -999.25000 -999.25000 -999.25000 -999.25000 -999.25000 -999.25000 -999.25000 -999.25000
 3180.40000    2.25430    2.26320    2.27750    2.26880    8.50000    8.37800    0.03650  120.36740 -999.25000  217.92890 -999.25000    0.42450    6.35160    2.00650    1.98530    1.86360    2.25950    1.78750   29.99380    1.78750    1.86360    1.78750 -999.25000 -999.25000 -999.25000 -999.25000 -999.25000 -999.25000 -999.25000 -999.25000 -999.25000
 3180.90000    2.26340    2.24870    2.26940    2.28100    8.50000    8.66370    0.04000  121.07540 -999.25000  227.74350 -999.25000    0.43330    7.27780    1.96770    1.99750    1.74140    2.26270    1.55630   29.99880    1.55630    1.74130    1.55630 -999.25000 -999.25000 -999.25000 -999.25000 -999.25000 -999.25000 -999.25000 -999.25000 -999.25000
 3181.40000    2.28560    2.26100    2.26280    2.26150    8.50000    8.66370    0.04240  122.35960 -999.25000  247.71670 -999.25000    0.44660    6.80290    2.01060    2.05960    1.88530    2.26250    1.78970   29.98010    1.78970    1.88530    1.78970 -999.25000 -999.25000 -999.25000 -999.25000 -999.25000 -999.25000 -999.25000 -999.25000 -999.25000
