~Version ---------------------------------------------------
VERS.   2.0 : CWLS log ASCII Standard -VERSION 2.0
WRAP.    NO : One line per depth step
DLM . SPACE : Column Data Section Delimiter
~Well ------------------------------------------------------
STRT.ft          145.90000 : START DEPTH
STOP.ft         3681.90000 : STOP DEPTH
STEP.ft            0.50000 : STEP
NULL.              -999.25 : NULL VALUE
COMP. Statoil Petroleum AS : COMPANY
WELL.           15/9-F-1 A : WELL
FLD .                VOLVE : FIELD
LOC .      Maersk Inspirer : LOCATION
PROV.                      : PROVINCE
CNTY.               Unused : COUNTY
STAT.                      : STATE
CTRY.                      : COUNTRY
SRVC.                      : SERVICE COMPANY
DATE.                      : DATE
UWI .                      : UNIQUE WELL ID
API .                      : API NUMBER
~Curve Information -----------------------------------------
DEPT     .ft        : 
ABDCQF01 .g/cm3     : 
ABDCQF02 .g/cm3     : 
ABDCQF03 .g/cm3     : 
ABDCQF04 .g/cm3     : 
BS       .inches    : 
CALI     .inches    : 
DRHO     .g/cm3     : 
DT       .us/ft     : 
DTS      .us/ft     : 
GR       .API       : 
NPHI     .v/v       : 
PEF      .b/elec    : 
RACEHM   .UNKNOWN   : 
RACELM   .UNKNOWN   : 
RHOB     .g/cm3     : 
ROP      .m/hr      : 
RPCEHM   .UNKNOWN   : 
RPCELM   .UNKNOWN   : 
RT       .ohm.m     : 
BVW      .V/V       : 
COAL_FLAG.unitless  : 
KLOGH    .mD        : 
PHIF     .V/V       : 
SAND_FLAG.unitless  : 
SW       .V/V       : 
VCARB    .V/V       : 
VSH      .V/V       : 
~Params ----------------------------------------------------
~Other -----------------------------------------------------
PETROPHYSICAL INTERPRETATION: INPUT

# --- LOG MNEMONICS AND UNITS ---
#Depth          ABDCQF01        ABDCQF02        ABDCQF03        ABDCQF04        BS              CALI            DRHO            DT              DTS             GR              NPHI            PEF             RACEHM          RACELM          RHOB            ROP             RPCEHM          RPCELM          RT
#M              g/cm3           g/cm3           g/cm3           g/cm3           inches          inches          g/cm3           us/ft           us/ft           API             v/v             b/elec          UNKNOWN         UNKNOWN         g/cm3           m/hr            UNKNOWN         UNKNOWN         ohm.m
~ASCII -----------------------------------------------------
# ...
 2810.90000    2.48640    2.46100    2.45100    2.45550    8.50000    8.57820    0.05370   69.58220  130.73090    2.30660    0.14750    7.76690    1.61430    1.61700    2.45550   20.57090    1.79910    1.70420    1.79910 -999.25000 -999.25000 -999.25000 -999.25000 -999.25000 -999.25000 -999.25000 -999.25000
 2811.40000    2.44530    2.44070    2.45820    2.45770    8.50000    8.62500    0.05150   70.46930  131.42830    2.68930    0.15740    7.87280    1.44890    1.53210    2.45050   18.17970    1.37110    1.45800    1.37110 -999.25000 -999.25000 -999.25000 -999.25000 -999.25000 -999.25000 -999.25000 -999.25000
 2811.90000    2.45640    2.44530    2.43700    2.46440    8.50000    8.62500    0.05280   71.45060  133.44090    3.00610    0.15810    7.83880    1.38300    1.45320    2.45100   15.96820    1.45720    1.41950    1.45720 -999.25000 -999.25000 -999.25000 -999.25000 -999.25000 -999.25000 -999.25000 -999.25000
 2812.40000    2.44720    2.44210    2.43470    2.43510    8.50000    8.62500    0.05300   71.92060  134.41620    3.44680    0.16320    7.90710    1.38160    1.46170    2.43710   18.07700    1.52960    1.43020    1.52960 -999.25000 -999.25000 -999.25000 -999.25000 -999.25000 -999.25000 -999.25000 -999.25000
 2812.90000    2.42550    2.43440    2.42990    2.44580    8.50000    8.62500    0.05350   71.28860  132.22520    2.65660    0.16150    7.90500    1.41790    1.49850    2.43060   24.04200    1.57700    1.47630    1.57700 -999.25000 -999.25000 -999.25000 -999.25000 -999.25000 -999.25000 -999.25000 -999.25000
 2813.40000    2.45190    2.46110    2.46250    2.44090    8.50000    8.62500    0.04830   69.63180  127.62090    3.86080    0.14720    8.01910    1.53410    1.60120    2.44980   26.95110    1.55490    1.53400    1.55490 -999.25000 -999.25000 -999.25000 -999.25000 -999.25000 -999.25000 -999.25000 -999.25000
 2813.90000    2.46440    2.48350    2.48170    2.48990    8.50000    8.57810    0.04440   66.27000  122.34090    3.78150    0.13710    7.87960    2.39800    2.31730    2.48030   23.86380    2.22020    2.30300    2.22020 -999.25000 -999.25000 -999.25000 -999.25000 -999.25000 -999.25000 -999.25000 -999.25000
 2814.40000    2.54130    2.54720    2.55510    2.54550    8.50000    8.57810    0.03740   62.48020  117.50630    6.60460    0.08920    7.82560    3.80400    3.10890    2.55170   21.35120    5.20900    4.23750    5.20900 -999.25000 -999.25000 -999.25000 -999.25000 -999.25000 -999.25000 -999.25000 -999.25000
 2814.90000    2.60980    2.63390    2.62580    2.61870    8.50000    8.57810    0.05030   60.88860  114.29880    8.04020    0.06110    8.04960    4.80460    3.62820    2.62030   20.00630    7.17630    5.59480    7.17630 -999.25000 -999.25000 -999.25000 -999.25000 -999.25000 -999.25000 -999.25000 -999.25000
 2815.40000    2.62600    2.58600    2.64490    2.61620    8.50000    8.57810    0.05130   61.07040  114.40700    5.19500    0.05620    8.11540    5.29620    3.89830    2.61820   17.89080    7.61270    6.09870    7.61270 -999.25000 -999.25000 -999.25000 -999.25000 -999.25000 -999.25000 -999.25000 -999.25000
 2815.90000    2.62680    2.63170    2.65210    2.61850    8.50000    8.57810    0.05100   63.44300  118.84220    5.75360    0.04530    8.29200    5.24210    3.90930    2.63530   16.34330    7.63840    6.12300    7.63840 -999.25000 -999.25000 -999.25000 -999.25000 -999.25000 -999.25000 -999.25000 -999.25000
 2816.40000    2.60740    2.58600    2.60600    2.61110    8.50000    8.57810    0.06390   67.64500  125.60220    5.09840    0.07170    8.04160    4.29220    3.37350    2.59940   16.02590    6.09140    4.86880    6.09140 -999.25000 -999.25000 -999.25000 -999.25000 -999.25000 -999.25000 -999.25000 -999.25000
 2816.90000    2.51410    2.51130    2.51740    2.51580    8.50000    8.57810    0.05660   71.35410  131.41590    3.83020    0.11640    8.20600    3.00220    2.69610    2.51440   19.24340    3.32110    3.20600    3.32110 -999.25000 -999.25000 -999.25000 -999.25000 -999.25000 -999.25000 -999.25000 -999.25000
 2817.40000    2.47510    2.47750    2.47550    2.48260    8.50000    8.62500    0.06040   73.42830  134.44740    3.78040    0.14170    8.18940    2.06050    1.96770    2.47400   23.93020    2.15310    2.06900    2.15310 -999.25000 -999.25000 -999.25000 -999.25000 -999.25000 -999.25000 -999.25000 -999.25000
 2817.90000    2.41370    2.42100    2.43300    2.40870    8.50000    8.62510    0.05240   74.17160  137.07110    2.98360    0.17400    8.12260    1.44930    1.49350    2.41910   28.57050    1.42400    1.45220    1.42400 -999.25000 -999.25000 -999.25000 -999.25000 -999.25000 -999.25000 -999.25000 -999.25000
 2818.40000    2.38550    2.40750    2.40370    2.41230    8.50000    8.67190    0.04220   74.05360  137.82210    2.26380    0.18270    8.37270    1.10880    1.17180    2.40020   31.58620    1.10480    1.09250    1.10480 -999.25000 -999.25000 -999.25000 -999.25000 -999.25000 -999.25000 -999.25000 -999.25000
 2818.90000    2.41730    2.40590    2.39530    2.42650    8.50000    8.62500    0.05060   73.78210  137.70890    2.59430    0.18220    8.22920    0.93380    1.01330    2.40460   31.95350    0.97070    0.94490    0.97070 -999.25000 -999.25000 -999.25000 -999.25000 -999.25000 -999.25000 -999.25000 -999.25000
 2819.40000    2.36960    2.37460    2.37710    2.35970    8.50000    8.62500    0.04230   73.36750  137.06640    3.48210    0.20080    8.12050    0.88840    1.01760    2.36900   29.29470    0.80260    0.87050    0.80260 -999.25000 -999.25000 -999.25000 -999.25000 -999.25000 -999.25000 -999.25000 -999.25000
 2819.90000    2.40040    2.41200    2.41010    2.40650    8.50000    8.62500    0.04030   72.58230  135.45880    3.39820    0.17370    8.64550    0.95320    1.12610    2.40780   24.18460    0.83330    0.95540    0.83330 -999.25000 -999.25000 -999.25000 -999.25000 -999.25000 -999.25000 -999.25000 -999.25000
 2820.40000    2.51240    2.53210    2.52230    2.52900    8.50000    8.57810    0.04750   71.67460  133.50880    3.30990    0.11850    8.35140    1.35650    1.32270    2.52060   20.42370    1.52280    1.41850    1.52280 -999.25000 -999.25000 -999.25000 -999.25000 -999.25000 -999.25000 -999.25000 -999.25000
 2820.90000    2.45680    2.45310    2.48880    2.51530    8.50000    8.62500    0.04430   67.76750  121.94880    1.97400    0.12780    8.34930    1.66720    1.48480    2.47590   28.32260    2.29030    1.95520    2.29030 -999.25000 -999.25000 -999.25000 -999.25000 -999.25000 -999.25000 -999.25000 -999.25000
 2821.40000    2.51660    2.49110    2.51990    2.54120    8.50000    8.62490    0.04900   65.59150  111.48230    3.83480    0.10020    8.29960    2.05730    1.58830    2.51310   33.52270    2.51380    2.18430    2.51380 -999.25000 -999.25000 -999.25000 -999.25000 -999.25000 -999.25000 -999.25000 -999.25000
 2821.90000    2.51130    2.50850    2.52740    2.52920    8.50000    8.57810    0.04820   66.48540  117.10400    3.26740    0.10150    8.04910    2.00400    1.53960    2.51640   31.24440    2.61190    2.18720    2.61190 -999.25000 -999.25000 -999.25000 -999.25000 -999.25000 -999.25000 -999.25000 -999.25000
 2822.40000    2.50570    2.52230    2.55320    2.53910    8.50000    8.57810    0.07250   70.32450  126.15210    3.19960    0.16460    8.38570    1.78440    1.43170    2.53040   24.96150    2.48120    2.01150    2.48120 -999.25000 -999.25000 -999.25000 -999.25000 -999.25000 -999.25000 -999.25000 -999.25000
 2822.90000    2.38520    2.40360    2.42840    2.41530    8.50000    8.62500    0.05420   72.40620  135.47540    2.99590    0.18750    8.07270    1.28870    1.25950    2.41070   17.49300    1.13690    1.24230    1.13690 -999.25000 -999.25000 -999.25000 -999.25000 -999.25000 -999.25000 -999.25000 -999.25000
 2823.40000    2.39240    2.37000    2.37110    2.39460    8.50000    8.62500    0.05390   70.16260  132.50600    3.31630    0.18550    7.85880    0.99540    1.12520    2.37680   16.39090    0.86660    0.99090    0.86660 -999.25000 -999.25000 -999.25000 -999.25000 -999.25000 -999.25000 -999.25000 -999.25000
