~Version ---------------------------------------------------
VERS.   2.0 : CWLS log ASCII Standard -VERSION 2.0
WRAP.    NO : One line per depth step
DLM . SPACE : Column Data Section Delimiter
~Well ------------------------------------------------------
STRT.ft          188.50000 : START DEPTH
STOP.ft         3762.00000 : STOP DEPTH
STEP.ft            0.50000 : STEP
NULL.              -999.25 : NULL VALUE
COMP. Statoil Petroleum AS : COMPANY
WELL.          15/9-F-11 A : WELL
FLD .                VOLVE : FIELD
LOC .      Maersk Inspirer : LOCATION
PROV.                      : PROVINCE
CNTY.                      : COUNTY
STAT.                      : STATE
CTRY.                      : COUNTRY
SRVC.                      : SERVICE COMPANY
DATE.                      : DATE
UWI .                      : UNIQUE WELL ID
API .                      : API NUMBER
~Curve Information -----------------------------------------
DEPT     .ft       : 
ABDCQF01 .g/cm3    : 
ABDCQF02 .g/cm3    : 
ABDCQF03 .g/cm3    : 
ABDCQF04 .g/cm3    : 
BS       .inches   : 
CALI     .inches   : 
DRHO     .g/cm3    : 
DT       .us/ft    : 
DTS      .us/ft    : 
GR       .API      : 
NPHI     .v/v      : 
PEF      .b/elec   : 
RACEHM   .ohm.m    : 
RACELM   .ohm.m    : 
RD       .ohm.m    : 
RHOB     .g/cm3    : 
RM       .ohm.m    : 
ROP      .m/hr     : 
RPCEHM   .ohm.m    : 
RPCELM   .ohm.m    : 
RT       .ohm.m    : 
BVW      .v/v      : 
CARB_FLAG.UNKNOWN  : 
COAL_FLAG.UNKNOWN  : 
KLOGH    .mD       : 
PHIF     .v/v      : 
SAND_FLAG.UNKNOWN  : 
SW       .v/v      : 
VSH      .v/v      : 
~Params ----------------------------------------------------
~Other -----------------------------------------------------
PETROPHYSICAL_INTERPRETATION: INPUT

# --- LOG MNEMONICS AND UNITS ---
#Depth     ABDCQF01   ABDCQF02   ABDCQF03   ABDCQF04   BS         CALI       DRHO       DT         DTS        GR         NPHI       PEF        RACEHM     RACELM     RD         RHOB       RM         ROP        RPCEHM     RPCELM     RT
#M         g/cm3      g/cm3      g/cm3      g/cm3      inches     inches     g/cm3      us/ft      us/ft      API        v/v        b/elec     ohm.m      ohm.m      ohm.m      g/cm3      ohm.m      m/hr       ohm.m      ohm.m      ohm.m
~ASCII -----------------------------------------------------
# ...
 2963.50000    2.59300    2.60100    2.59000    2.60000    8.50000    8.60200    0.05500   64.17200  120.98300    8.06100    0.07700    8.24000    4.16000    4.29400    4.51400    2.59100    4.89900   23.53600    4.89900    4.51400    4.89900 -999.25000 -999.25000 -999.25000 -999.25000 -999.25000 -999.25000 -999.25000 -999.25000
 2964.00000    2.58200    2.56900    2.57400    2.58500    8.50000    8.62500    0.06500   65.59000  122.36900    6.45600    0.09400    8.34200    3.96800    4.18400    4.42800    2.57300    4.90400   22.89200    4.90400    4.42800    4.90400 -999.25000 -999.25000 -999.25000 -999.25000 -999.25000 -999.25000 -999.25000 -999.25000
 2964.50000    2.54600    2.57400    2.58200    2.57300    8.50000    8.62500    0.05800   66.63800  126.30200    8.59100    0.09700    8.25200    3.86400    4.11500    4.22600    2.57100    4.64500   22.91000    4.64500    4.22600    4.64500 -999.25000 -999.25000 -999.25000 -999.25000 -999.25000 -999.25000 -999.25000 -999.25000
 2965.00000    2.56800    2.54900    2.56200    2.57800    8.50000    8.62500    0.06600   64.32400  121.72200    7.76300    0.09800    8.40100    3.69800    3.99800    3.91400    2.56400    4.11800   22.79400    4.11800    3.91400    4.11800 -999.25000 -999.25000 -999.25000 -999.25000 -999.25000 -999.25000 -999.25000 -999.25000
 2965.50000    2.55500    2.57100    2.57600    2.54300    8.50000    8.62500    0.05800   66.18100  121.22700    9.89500    0.10300    8.24300    3.65700    3.91900    3.86600    2.56500    4.12900   22.85700    4.12900    3.86600    4.12900 -999.25000 -999.25000 -999.25000 -999.25000 -999.25000 -999.25000 -999.25000 -999.25000
 2966.00000    2.54800    2.52300    2.53500    2.55600    8.50000    8.62500    0.06200   68.89000  123.99100   10.05700    0.11500    8.21100    3.72000    3.90800    3.73100    2.53700    3.87300   23.29500    3.87300    3.73100    3.87300 -999.25000 -999.25000 -999.25000 -999.25000 -999.25000 -999.25000 -999.25000 -999.25000
 2966.50000    2.55000    2.55800    2.56200    2.57000    8.50000    8.62500    0.06000   68.67800  126.52800   10.37300    0.10600    8.50000    3.74100    3.81800    3.89000    2.55900    4.28600   24.13000    4.28600    3.89000    4.28600 -999.25000 -999.25000 -999.25000 -999.25000 -999.25000 -999.25000 -999.25000 -999.25000
 2967.00000    2.57500    2.58400    2.62700    2.57100    8.50000    8.62500    0.06900   67.77500  125.89300   11.98700    0.09900    8.37800    3.69700    3.75900    4.03000    2.58900    4.71100   24.24200    4.71100    4.03000    4.71100 -999.25000 -999.25000 -999.25000 -999.25000 -999.25000 -999.25000 -999.25000 -999.25000
 2967.50000    2.55200    2.58800    2.60800    2.57500    8.50000    8.62500    0.05800   67.20200  124.46100   11.49800    0.08800    8.32900    3.65700    3.72400    4.18300    2.58000    5.04100   23.90000    5.04100    4.18300    5.04100 -999.25000 -999.25000 -999.25000 -999.25000 -999.25000 -999.25000 -999.25000 -999.25000
 2968.00000    2.57900    2.60800    2.62300    2.59300    8.50000    8.57800    0.05800   66.63100  122.31300   13.93500    0.08500    8.38100    3.61800    3.69300    4.18800    2.60000    5.00400   23.34400    5.00400    4.18800    5.00400 -999.25000 -999.25000 -999.25000 -999.25000 -999.25000 -999.25000 -999.25000 -999.25000
 2968.50000    2.59000    2.60500    2.60700    2.58900    8.50000    8.62500    0.05800   67.82600  116.60200   10.49700    0.08300    8.26200    3.66800    3.71600    4.07500    2.59900    4.60100   22.69800    4.60100    4.07500    4.60100 -999.25000 -999.25000 -999.25000 -999.25000 -999.25000 -999.25000 -999.25000 -999.25000
 2969.00000    2.61100    2.58100    2.61800    2.59100    8.50000    8.62500    0.06500   68.31000  120.04100   11.50100    0.09700    8.17900    3.58200    3.67000    3.85800    2.59600    4.34700   22.52200    4.34700    3.85800    4.34700 -999.25000 -999.25000 -999.25000 -999.25000 -999.25000 -999.25000 -999.25000 -999.25000
 2969.50000    2.58300    2.59000    2.58200    2.59800    8.50000    8.62500    0.06400   69.34600  117.73200   12.58700    0.10700    8.13900    3.72000    3.60100    3.61800    2.58500    3.72700   22.73700    3.72700    3.61800    3.72700 -999.25000 -999.25000 -999.25000 -999.25000 -999.25000 -999.25000 -999.25000 -999.25000
 2970.00000    2.57500    2.59800    2.58000    2.56000    8.50000    8.62500    0.05300   70.16500  120.48300   12.01800    0.10200    8.12700    3.35700    3.40600    3.59700    2.57700    3.91200   23.33200    3.91200    3.59700    3.91200 -999.25000 -999.25000 -999.25000 -999.25000 -999.25000 -999.25000 -999.25000 -999.25000
 2970.50000    2.58200    2.60200    2.59400    2.58300    8.50000    8.62500    0.06200   68.52400  116.02500    9.80900    0.09500    8.38200    3.14300    3.19700    3.40500    2.59000    3.77200   23.54500    3.77200    3.40500    3.77200 -999.25000 -999.25000 -999.25000 -999.25000 -999.25000 -999.25000 -999.25000 -999.25000
 2971.00000    2.58700    2.57800    2.61200    2.57800    8.50000    8.62500    0.05900   67.53600  112.56600    8.78200    0.09100    8.27200    3.04700    3.07700    3.29300    2.59000    3.69800   23.03500    3.69800    3.29300    3.69800 -999.25000 -999.25000 -999.25000 -999.25000 -999.25000 -999.25000 -999.25000 -999.25000
 2971.50000    2.59000    2.57500    2.55300    2.59900    8.50000    8.62500    0.06400   67.52800  121.83000   10.98700    0.10700    8.37200    2.94200    2.98000    3.20200    2.57200    3.67800   22.39600    3.67800    3.20200    3.67800 -999.25000 -999.25000 -999.25000 -999.25000 -999.25000 -999.25000 -999.25000 -999.25000
 2972.00000    2.57500    2.55900    2.56100    2.55800    8.50000    8.62500    0.06000   69.25300  127.39300   11.63600    0.11200    8.32600    2.87100    2.90000    3.04300    2.55300    3.46900   22.60600    3.46900    3.04300    3.46900 -999.25000 -999.25000 -999.25000 -999.25000 -999.25000 -999.25000 -999.25000 -999.25000
 2972.50000    2.55300    2.54300    2.56500    2.54600    8.50000    8.62500    0.05900   70.11900  129.67700    9.13500    0.10900    8.21100    2.76800    2.84100    2.92100    2.55200    3.26300   24.66500    3.26300    2.92100    3.26300 -999.25000 -999.25000 -999.25000 -999.25000 -999.25000 -999.25000 -999.25000 -999.25000
 2973.00000    2.55500    2.54800    2.56200    2.55200    8.50000    8.62500    0.06000   69.52400  127.98300   10.75000    0.11900    8.33100    2.67700    2.79300    2.85300    2.55400    3.14800   27.40700    3.14800    2.85300    3.14800 -999.25000 -999.25000 -999.25000 -999.25000 -999.25000 -999.25000 -999.25000 -999.25000
 2973.50000    2.56200    2.55300    2.53500    2.55200    8.50000    8.62500    0.06500   70.84100  127.26600   10.36000    0.12600    8.21100    2.64500    2.77600    2.78800    2.54400    3.02500   29.42700    3.02500    2.78800    3.02500 -999.25000 -999.25000 -999.25000 -999.25000 -999.25000 -999.25000 -999.25000 -999.25000
 2974.00000    2.53700    2.55100    2.54100    2.52500    8.50000    8.62500    0.06500   71.21200  131.40600   12.47200    0.13700    8.46100    2.62200    2.74400    2.75500    2.53500    2.95500   30.81200    2.95500    2.75500    2.95500 -999.25000 -999.25000 -999.25000 -999.25000 -999.25000 -999.25000 -999.25000 -999.25000
 2974.50000    2.52800    2.54000    2.54800    2.52500    8.50000    8.62500    0.05900   72.65900  133.12000   14.43000    0.13700    8.27100    2.63300    2.71400    2.71500    2.53500    2.89800   30.81300    2.89800    2.71500    2.89800 -999.25000 -999.25000 -999.25000 -999.25000 -999.25000 -999.25000 -999.25000 -999.25000
 2975.00000    2.51800    2.55500    2.57000    2.54000    8.50000    8.62500    0.06000   73.33200  134.53600   16.53300    0.13500    8.39700    2.58500    2.69000    2.74000    2.54500    2.99700   30.68500    2.99700    2.74000    2.99700 -999.25000 -999.25000 -999.25000 -999.25000 -999.25000 -999.25000 -999.25000 -999.25000
 2975.50000    2.55700    2.56200    2.56200    2.56400    8.50000    8.62500    0.06400   73.92800  131.82900   16.35500    0.13100    8.42500    2.56800    2.67500    2.74900    2.55700    3.06300   30.32000    3.06300    2.74900    3.06300 -999.25000 -999.25000 -999.25000 -999.25000 -999.25000 -999.25000 -999.25000 -999.25000
