~Version ---------------------------------------------------
VERS.   2.0 : CWLS log ASCII Standard -VERSION 2.0
WRAP.    NO : One line per depth step
DLM . SPACE : Column Data Section Delimiter
~Well ------------------------------------------------------
STRT.ft          188.50000 : START DEPTH
STOP.ft         3762.00000 : STOP DEPTH
STEP.ft            0.50000 : STEP
NULL.              -999.25 : NULL VALUE
COMP. Statoil Petroleum AS : COMPANY
WELL.          15/9-F-11 A : WELL
FLD .                VOLVE : FIELD
LOC .      Maersk Inspirer : LOCATION
PROV.                      : PROVINCE
CNTY.                      : COUNTY
STAT.                      : STATE
CTRY.                      : COUNTRY
SRVC.                      : SERVICE COMPANY
DATE.                      : DATE
UWI .                      : UNIQUE WELL ID
API .                      : API NUMBER
~Curve Information -----------------------------------------
DEPT     .ft       : 
ABDCQF01 .g/cm3    : 
ABDCQF02 .g/cm3    : 
ABDCQF03 .g/cm3    : 
ABDCQF04 .g/cm3    : 
BS       .inches   : 
CALI     .inches   : 
DRHO     .g/cm3    : 
DT       .us/ft    : 
DTS      .us/ft    : 
GR       .API      : 
NPHI     .v/v      : 
PEF      .b/elec   : 
RACEHM   .ohm.m    : 
RACELM   .ohm.m    : 
RD       .ohm.m    : 
RHOB     .g/cm3    : 
RM       .ohm.m    : 
ROP      .m/hr     : 
RPCEHM   .ohm.m    : 
RPCELM   .ohm.m    : 
RT       .ohm.m    : 
BVW      .v/v      : 
CARB_FLAG.UNKNOWN  : 
COAL_FLAG.UNKNOWN  : 
KLOGH    .mD       : 
PHIF     .v/v      : 
SAND_FLAG.UNKNOWN  : 
SW       .v/v      : 
VSH      .v/v      : 
~Params ----------------------------------------------------
~Other -----------------------------------------------------
PETROPHYSICAL_INTERPRETATION: INPUT

# --- LOG MNEMONICS AND UNITS ---
#Depth     ABDCQF01   ABDCQF02   ABDCQF03   ABDCQF04   BS         CALI       DRHO       DT         DTS        GR         NPHI       PEF        RACEHM     RACELM     RD         RHOB       RM         ROP        RPCEHM     RPCELM     RT
#M         g/cm3      g/cm3      g/cm3      g/cm3      inches     inches     g/cm3      us/ft      us/ft      API        v/v        b/elec     ohm.m      ohm.m      ohm.m      g/cm3      ohm.m      m/hr       ohm.m      ohm.m      ohm.m
~ASCII -----------------------------------------------------
# ...
 3263.50000    2.56000    2.56800    2.57000    2.54200    8.50000    8.67200    0.05600   68.26000  122.81700   14.36500    0.10100    7.91500    3.23300    3.31000    3.48100    2.56100    3.89800   16.57300    3.89800    3.48100    3.89800 -999.25000 -999.25000 -999.25000 -999.25000 -999.25000 -999.25000 -999.25000 -999.25000
 3264.00000    2.56300    2.57900    2.56000    2.55800    8.50000    8.67200    0.05900   68.62400  124.24700   14.20100    0.10200    7.96900    3.12900    3.20600    3.41500    2.56500    3.85600   17.90800    3.85600    3.41500    3.85600 -999.25000 -999.25000 -999.25000 -999.25000 -999.25000 -999.25000 -999.25000 -999.25000
 3264.50000    2.56500    2.56900    2.54900    2.55600    8.50000    8.67200    0.05800   68.84800  122.72000   11.78500    0.10400    7.94800    3.07300    3.14500    3.35400    2.55800    3.77400   19.52300    3.77400    3.35400    3.77400 -999.25000 -999.25000 -999.25000 -999.25000 -999.25000 -999.25000 -999.25000 -999.25000
 3265.00000    2.56700    2.55900    2.54700    2.55200    8.50000    8.67200    0.06200   68.53600  119.77500   11.93600    0.10700    7.97100    3.04700    3.09200    3.26700    2.55200    3.65100   20.45500    3.65100    3.26700    3.65100 -999.25000 -999.25000 -999.25000 -999.25000 -999.25000 -999.25000 -999.25000 -999.25000
 3265.50000    2.53100    2.55100    2.54400    2.55000    8.50000    8.67200    0.06000   68.91500  125.31700   10.25300    0.11200    7.95500    2.99700    3.00800    3.17000    2.54100    3.51000   21.08900    3.51000    3.17000    3.51000 -999.25000 -999.25000 -999.25000 -999.25000 -999.25000 -999.25000 -999.25000 -999.25000
 3266.00000    2.52700    2.54200    2.53600    2.54600    8.50000    8.67200    0.05800   68.61000  124.51700   11.21700    0.11400    7.87800    2.99000    2.96700    3.13800    2.53500    3.46900   21.70500    3.46900    3.13800    3.46900 -999.25000 -999.25000 -999.25000 -999.25000 -999.25000 -999.25000 -999.25000 -999.25000
 3266.50000    2.52600    2.52900    2.53500    2.53200    8.50000    8.67200    0.05900   68.00400  121.46500    8.94300    0.11800    7.95400    2.96300    2.94300    3.12900    2.52900    3.52100   21.20800    3.52100    3.12900    3.52100 -999.25000 -999.25000 -999.25000 -999.25000 -999.25000 -999.25000 -999.25000 -999.25000
 3267.00000    2.51900    2.53900    2.55600    2.52900    8.50000    8.67200    0.05800   66.55600  119.72400    8.09100    0.11000    7.95200    2.92400    2.91700    3.14000    2.53600    3.60900   19.92600    3.60900    3.14000    3.60900 -999.25000 -999.25000 -999.25000 -999.25000 -999.25000 -999.25000 -999.25000 -999.25000
 3267.50000    2.52500    2.52800    2.55000    2.55100    8.50000    8.67200    0.05700   66.07900  115.22600    8.56200    0.10900    8.01100    2.90900    2.92900    3.16400    2.53700    3.63900   19.57900    3.63900    3.16400    3.63900 -999.25000 -999.25000 -999.25000 -999.25000 -999.25000 -999.25000 -999.25000 -999.25000
 3268.00000    2.53200    2.54300    2.54700    2.53800    8.50000    8.67200    0.05500   66.74800  122.42900   10.90300    0.10500    8.04900    2.95300    2.98100    3.17800    2.53900    3.57400   20.73600    3.57400    3.17800    3.57400 -999.25000 -999.25000 -999.25000 -999.25000 -999.25000 -999.25000 -999.25000 -999.25000
 3268.50000    2.56000    2.56800    2.59200    2.54900    8.50000    8.67200    0.06600   68.42800  125.34700   13.80300    0.09600    7.99100    3.08500    3.07300    3.33300    2.57000    3.77600   18.31800    3.77600    3.33300    3.77600 -999.25000 -999.25000 -999.25000 -999.25000 -999.25000 -999.25000 -999.25000 -999.25000
 3269.00000    2.54300    2.59100    2.59500    2.57200    8.50000    8.67200    0.06300   68.86900  117.99600   14.25200    0.08600    7.78400    3.28500    3.15200    3.64700    2.57900    4.31100   21.04800    4.31200    3.64700    4.31100 -999.25000 -999.25000 -999.25000 -999.25000 -999.25000 -999.25000 -999.25000 -999.25000
 3269.50000    2.59600    2.58300    2.58300    2.57700    8.50000    8.67200    0.06300   67.50100  110.70200   12.96600    0.08600    7.76500    3.41000    3.29300    3.86500    2.58200    4.59600   23.98100    4.59600    3.86500    4.59600 -999.25000 -999.25000 -999.25000 -999.25000 -999.25000 -999.25000 -999.25000 -999.25000
 3270.00000    2.57600    2.58500    2.59600    2.59500    8.50000    8.67200    0.07000   67.03800  120.98700   17.70400    0.09700    7.92500    3.55100    3.33100    3.86900    2.58700    4.56400   24.46500    4.56400    3.86900    4.56400 -999.25000 -999.25000 -999.25000 -999.25000 -999.25000 -999.25000 -999.25000 -999.25000
 3270.50000    2.58900    2.59400    2.58600    2.57500    8.50000    8.67200    0.06000   69.36700  124.53400   18.90600    0.09000    7.89000    3.58500    3.38000    3.81900    2.58400    4.44400   24.27000    4.44400    3.81900    4.44400 -999.25000 -999.25000 -999.25000 -999.25000 -999.25000 -999.25000 -999.25000 -999.25000
 3271.00000    2.57900    2.57900    2.57300    2.58100    8.50000    8.62500    0.06200   68.48300  117.30400   14.45100    0.08900    7.81800    3.50200    3.37300    3.84300    2.57500    4.49800   23.53200    4.49800    3.84300    4.49800 -999.25000 -999.25000 -999.25000 -999.25000 -999.25000 -999.25000 -999.25000 -999.25000
 3271.50000    2.57000    2.57100    2.56600    2.57500    8.50000    8.67200    0.06600   67.26100  112.69500   11.46800    0.09100    7.72400    3.42800    3.37900    3.81500    2.56700    4.46200   22.81800    4.46200    3.81500    4.46200 -999.25000 -999.25000 -999.25000 -999.25000 -999.25000 -999.25000 -999.25000 -999.25000
 3272.00000    2.55000    2.56600    2.57000    2.57100    8.50000    8.67200    0.06100   68.01700  119.26700   16.81000    0.09700    7.77000    3.41600    3.37000    3.73200    2.56400    4.31000   23.06600    4.31000    3.73200    4.31000 -999.25000 -999.25000 -999.25000 -999.25000 -999.25000 -999.25000 -999.25000 -999.25000
 3272.50000    2.56600    2.57400    2.57600    2.56200    8.50000    8.67200    0.05600   69.91400  124.20100   19.44200    0.09700    7.49600    3.43600    3.41100    3.69500    2.56500    4.23400   24.43300    4.23400    3.69500    4.23400 -999.25000 -999.25000 -999.25000 -999.25000 -999.25000 -999.25000 -999.25000 -999.25000
 3273.00000    2.57400    2.58000    2.57000    2.57200    8.50000    8.67200    0.06300   70.06200  125.27400   18.10900    0.09200    7.47000    3.36300    3.38300    3.72000    2.57400    4.31400   26.13200    4.31400    3.72000    4.31400 -999.25000 -999.25000 -999.25000 -999.25000 -999.25000 -999.25000 -999.25000 -999.25000
 3273.50000    2.56500    2.57200    2.56800    2.57800    8.50000    8.64800    0.06100   69.65700  124.76800   17.43700    0.10200    7.54500    3.35200    3.40000    3.74100    2.56800    4.32900   27.73800    4.32900    3.74100    4.32900 -999.25000 -999.25000 -999.25000 -999.25000 -999.25000 -999.25000 -999.25000 -999.25000
 3274.00000    2.54700    2.56500    2.55500    2.56200    8.50000    8.67200    0.05800   70.71100  125.48800   24.14600    0.10500    7.59700    3.41400    3.45300    3.44500    2.55600    3.65900   25.37600    3.66000    3.44500    3.65900 -999.25000 -999.25000 -999.25000 -999.25000 -999.25000 -999.25000 -999.25000 -999.25000
 3274.50000    2.54800    2.55900    2.56100    2.55300    8.50000    8.67200    0.05900   70.97700  128.13600   16.60600    0.09400    7.43100    3.39800    3.43700    3.62900    2.55300    4.11500   16.48600    4.11500    3.62900    4.11500 -999.25000 -999.25000 -999.25000 -999.25000 -999.25000 -999.25000 -999.25000 -999.25000
 3275.00000    2.54800    2.54300    2.56900    2.55100    8.50000    8.67200    0.05400   70.06800  123.74600   16.08800    0.09700    7.44700    3.41500    3.46500    3.55500    2.55400    3.97900   18.09800    3.97900    3.55500    3.97900 -999.25000 -999.25000 -999.25000 -999.25000 -999.25000 -999.25000 -999.25000 -999.25000
 3275.50000    2.56400    2.55200    2.56800    2.56400    8.50000    8.67200    0.06000   70.30400  125.37100   16.85500    0.10100    7.62100    3.39800    3.49800    3.60300    2.55900    4.00300   20.20300    4.00400    3.60300    4.00300 -999.25000 -999.25000 -999.25000 -999.25000 -999.25000 -999.25000 -999.25000 -999.25000
