~Version ---------------------------------------------------
VERS.   2.0 : CWLS log ASCII Standard -VERSION 2.0
WRAP.    NO : One line per depth step
DLM . SPACE : Column Data Section Delimiter
~Well ------------------------------------------------------
STRT.ft          188.50000 : START DEPTH
STOP.ft         3762.00000 : STOP DEPTH
STEP.ft            0.50000 : STEP
NULL.              -999.25 : NULL VALUE
COMP. Statoil Petroleum AS : COMPANY
WELL.          15/9-F-11 A : WELL
FLD .                VOLVE : FIELD
LOC .      Maersk Inspirer : LOCATION
PROV.                      : PROVINCE
CNTY.                      : COUNTY
STAT.                      : STATE
CTRY.                      : COUNTRY
SRVC.                      : SERVICE COMPANY
DATE.                      : DATE
UWI .                      : UNIQUE WELL ID
API .                      : API NUMBER
~Curve Information -----------------------------------------
DEPT     .ft       : 
ABDCQF01 .g/cm3    : 
ABDCQF02 .g/cm3    : 
ABDCQF03 .g/cm3    : 
ABDCQF04 .g/cm3    : 
BS       .inches   : 
CALI     .inches   : 
DRHO     .g/cm3    : 
DT       .us/ft    : 
DTS      .us/ft    : 
GR       .API      : 
NPHI     .v/v      : 
PEF      .b/elec   : 
RACEHM   .ohm.m    : 
RACELM   .ohm.m    : 
RD       .ohm.m    : 
RHOB     .g/cm3    : 
RM       .ohm.m    : 
ROP      .m/hr     : 
RPCEHM   .ohm.m    : 
RPCELM   .ohm.m    : 
RT       .ohm.m    : 
BVW      .v/v      : 
CARB_FLAG.UNKNOWN  : 
COAL_FLAG.UNKNOWN  : 
KLOGH    .mD       : 
PHIF     .v/v      : 
SAND_FLAG.UNKNOWN  : 
SW       .v/v      : 
VSH      .v/v      : 
~Params ----------------------------------------------------
~Other -----------------------------------------------------
PETROPHYSICAL_INTERPRETATION: INPUT

# --- LOG MNEMONICS AND UNITS ---
#Depth     ABDCQF01   ABDCQF02   ABDCQF03   ABDCQF04   BS         CALI       DRHO       DT         DTS        GR         NPHI       PEF        RACEHM     RACELM     RD         RHOB       RM         ROP        RPCEHM     RPCELM     RT
#M         g/cm3      g/cm3      g/cm3      g/cm3      inches     inches     g/cm3      us/ft      us/ft      API        v/v        b/elec     ohm.m      ohm.m      ohm.m      g/cm3      ohm.m      m/hr       ohm.m      ohm.m      ohm.m
~ASCII -----------------------------------------------------
# ...
 3576.00000    2.52300    2.53500    2.51200    2.50500    8.50000    8.67200    0.05000   89.03300  165.46100   92.83600    0.23700    6.89900    1.57200    1.65500    1.58300    2.51600    1.61600   19.95400    1.61600    1.58300    1.61600    0.08700    0.00000    0.00000    0.00100    0.08700    0.00000    1.00000    0.76000
 3576.50000    2.61400    2.52100    2.51800    2.51800    8.50000    8.67200    0.06500   88.81100  175.94100   93.96100    0.25300    6.78800    1.57000    1.66100    1.56800    2.52800    1.58100   19.95700    1.58100    1.56800    1.58100    0.07900    0.00000    0.00000    0.00100    0.07900    0.00000    1.00000    0.77000
 3577.00000    2.52200    2.52500    2.50700    2.52100    8.50000    8.67200    0.06000   89.29000  181.59900  104.52900    0.26900    6.87600    1.50300    1.64800    1.57300    2.51700    1.59600   19.96000    1.59500    1.57300    1.59600    0.08600    0.00000    0.00000    0.00100    0.08600    0.00000    1.00000    0.86300
 3577.50000    2.49500    2.49100    2.49600    2.49900    8.50000    8.67200    0.05900   89.05000  179.05500  100.67200    0.26500    6.71600    1.50000    1.64400    1.57400    2.49600    1.59800   19.95500    1.59800    1.57400    1.59800    0.09900    0.00000    0.00000    0.00100    0.09900    0.00000    1.00000    0.82900
 3578.00000    2.49100    2.51000    2.50100    2.48800    8.50000    8.62500    0.06200   89.67100  171.97700   95.80000    0.26200    6.67800    1.56900    1.64500    1.55800    2.50200    1.54200   19.93100    1.54200    1.55800    1.54200    0.09500    0.00000    0.00000    0.00100    0.09500    0.00000    1.00000    0.78600
 3578.50000    2.49900    2.49000    2.49300    2.49400    8.50000    8.67200    0.05900   88.29600  160.50700   94.55500    0.26400    6.99600    1.59900    1.62300    1.57200    2.49400    1.58600   19.77700    1.58600    1.57200    1.58600    0.10000    0.00000    0.00000    0.00100    0.10000    0.00000    1.00000    0.77500
 3579.00000    2.48300    2.51200    2.53900    2.50600    8.50000    8.67200    0.05200   85.23300  150.54200   92.20500    0.24900    6.84900    1.49600    1.57100    1.63300    2.50900    1.81500   19.69800    1.81500    1.63300    1.81500    0.09100    0.00000    0.00000    0.00100    0.09100    0.00000    1.00000    0.75400
 3579.50000    2.51800    2.56300    2.57700    2.52600    8.50000    8.67200    0.06200   85.39900  143.46300   89.92500    0.22700    7.03100    1.45000    1.54000    1.55500    2.55200    1.67000   19.75800    1.67000    1.55500    1.67000    0.06500    0.00000    0.00000    0.00100    0.06500    0.00000    1.00000    0.73400
 3580.00000    2.52700    2.53500    2.53900    2.55900    8.50000    8.64800    0.05800   86.74400  140.12600   98.60400    0.23300    7.02300    1.40000    1.51300    1.45300    2.53600    1.46600   19.76400    1.46600    1.45300    1.46600    0.07500    0.00000    0.00000    0.00100    0.07500    0.00000    1.00000    0.81100
 3580.50000    2.55200    2.54900    2.55000    2.54000    8.50000    8.67200    0.06400   87.88500  134.80400  100.74300    0.25200    6.97800    1.55100    1.52800    1.35700    2.54500    1.24600   19.81100    1.24600    1.35700    1.24600    0.06900    0.00000    0.00000    0.00100    0.06900    0.00000    1.00000    0.83000
 3581.00000    2.51800    2.53900    2.53700    2.52600    8.50000    8.62500    0.05900   86.73800  136.55300   96.89100    0.24800    6.93900    1.39500    1.46500    1.49700    2.52600    1.67800   19.86700    1.67800    1.49700    1.67800    0.08100    0.00000    0.00000    0.00100    0.08100    0.00000    1.00000    0.79500
 3581.50000    2.54900    2.53900    2.53100    2.55000    8.50000    8.62500    0.06500   85.90400  138.12700   95.44100    0.23900    6.70100    1.46300    1.50100    1.40100    2.54300    1.34400   19.84300    1.34400    1.40100    1.34400    0.07000    0.00000    0.00000    0.00100    0.07000    0.00000    1.00000    0.78300
 3582.00000    2.51700    2.52600    2.50300    2.50700    8.50000    8.67200    0.06000   86.35100  134.66600   91.31100    0.25900    6.88900    1.40600    1.49600    1.47200    2.50800    1.49800   19.49500    1.49800    1.47200    1.49800    0.09100    0.00000    0.00000    0.00100    0.09100    0.00000    1.00000    0.74600
 3582.50000    2.53700    2.55900    2.55100    2.53400    8.50000    8.68800    0.06000   78.52300  133.85500   66.32100    0.21400    7.34900    1.33800    1.47800    1.70400    2.54700    2.16400   19.39800    2.16400    1.70400    2.16400    0.06800    0.00000    0.00000    0.00700    0.06800    0.00000    1.00000    0.52500
 3583.00000    2.66500    2.70300    2.69100    2.67600    8.50000    8.62500    0.07000   80.59000  137.31000  103.54500    0.22000    7.96500    1.60300    1.53900    1.49100    2.68300    1.48800   19.69300    1.48700    1.49100    1.48800 -999.25000    1.00000    0.00000 -999.25000 -999.25000    0.00000 -999.25000    0.85400
 3583.50000    2.61600    2.59600    2.56700    2.59300    8.50000    8.67200    0.07400   86.59000  138.68800   95.04400    0.28200    7.50800    1.52800    1.50200    1.53000    2.59100    1.59200   19.92700    1.59200    1.53000    1.59200    0.04200    0.00000    0.00000    0.00100    0.04200    0.00000    1.00000    0.77900
 3584.00000    2.56100    2.54400    2.51400    2.53700    8.50000    8.62500    0.06200   85.59800  123.79200   88.92600    0.26800    7.07800    1.60500    1.50300    1.36500    2.54200    1.18400    9.40700    1.18500    1.36500    1.18400    0.07100    0.00000    0.00000    0.00100    0.07100    0.00000    1.00000    0.72500
 3584.50000    2.63400    2.70100    2.65900    2.69300    8.50000    8.67200    0.06200   84.44100  123.28900  112.67400    0.26800    8.21400    1.40000    1.39200    1.45400    2.67200    1.53100   20.14600    1.53100    1.45400    1.53100 -999.25000    0.00000    0.00000 -999.25000 -999.25000    0.00000 -999.25000    0.93500
 3585.00000    2.56200    2.49200    2.48400    2.54400    8.50000    8.67200    0.07300   85.48100  153.83400  120.50900    0.27600    6.49900    1.24900    1.28300    1.36900    2.51600    1.50500   19.86800    1.50500    1.36900    1.50500    0.08600    0.00000    0.00000    0.00100    0.08600    0.00000    1.00000    1.00000
 3585.50000    2.48100    2.48900    2.50300    2.47500    8.50000    8.64800    0.06300   87.95200  164.97400   81.17000    0.27600    7.01400    1.11500    1.19600    1.15400    2.48800    1.06400   19.75300    1.06400    1.15400    1.06400    0.10400    0.00000    0.00000    0.00100    0.10400    0.00000    1.00000    0.65600
 3586.00000    2.46100    2.48300    2.49800    2.49200    8.50000    8.70300    0.06500   86.66600  162.43900   70.65100    0.25800    7.47300    1.00600    1.10300    0.97500    2.48400    0.86600   19.75300    0.86600    0.97500    0.86600    0.10600    0.00000    0.00000    0.00600    0.10600    0.00000    1.00000    0.56300
 3586.50000    2.43800    2.43700    2.41900    2.45100    8.50000    8.67200    0.06200   87.19300  143.34200   69.77700    0.23300    6.67000    0.83800    1.02300    1.02200    2.43400    1.07000   19.73700    1.07000    1.02200    1.07000    0.13600    0.00000    0.00000    0.01200    0.13600    0.00000    1.00000    0.55600
 3587.00000    2.49500    2.50600    2.54200    2.47400    8.50000    8.70300    0.06400   86.92900  132.45600   58.96800    0.22300    7.27200    0.97700    1.02900    0.93600    2.49200    0.76900   19.70900    0.76900    0.93600    0.76900    0.10100    0.00000    0.00000    0.04700    0.10100    0.00000    1.00000    0.46000
 3587.50000    2.65600    2.51300    2.50700    2.50200    8.50000    8.70300    0.06600   83.67100  139.64400   42.22500    0.20400    7.25200    0.86600    0.95800    0.90000    2.52800    0.82800   19.74300    0.82800    0.90000    0.82800    0.08000    0.00000    0.00000    0.67800    0.08000    0.00000    1.00000    0.31200
 3588.00000    2.49600    2.58600    2.60400    2.54400    8.50000    8.67200    0.06500   82.52500  141.08900   41.98000    0.22000    7.88900    0.84600    0.93500    0.92000    2.56600    1.04100   19.74100    1.04100    0.92000    1.04100    0.05600    0.00000    0.00000    0.46300    0.05600    0.00000    1.00000    0.31000
