~Version ---------------------------------------------------
VERS.   2.0 : CWLS log ASCII Standard -VERSION 2.0
WRAP.    NO : One line per depth step
DLM . SPACE : Column Data Section Delimiter
~Well ------------------------------------------------------
STRT.ft          188.50000 : START DEPTH
STOP.ft         3762.00000 : STOP DEPTH
STEP.ft            0.50000 : STEP
NULL.              -999.25 : NULL VALUE
COMP. Statoil Petroleum AS : COMPANY
WELL.          15/9-F-11 A : WELL
FLD .                VOLVE : FIELD
LOC .      Maersk Inspirer : LOCATION
PROV.                      : PROVINCE
CNTY.                      : COUNTY
STAT.                      : STATE
CTRY.                      : COUNTRY
SRVC.                      : SERVICE COMPANY
DATE.                      : DATE
UWI .                      : UNIQUE WELL ID
API .                      : API NUMBER
~Curve Information -----------------------------------------
DEPT     .ft       : 
ABDCQF01 .g/cm3    : 
ABDCQF02 .g/cm3    : 
ABDCQF03 .g/cm3    : 
ABDCQF04 .g/cm3    : 
BS       .inches   : 
CALI     .inches   : 
DRHO     .g/cm3    : 
DT       .us/ft    : 
DTS      .us/ft    : 
GR       .API      : 
NPHI     .v/v      : 
PEF      .b/elec   : 
RACEHM   .ohm.m    : 
RACELM   .ohm.m    : 
RD       .ohm.m    : 
RHOB     .g/cm3    : 
RM       .ohm.m    : 
ROP      .m/hr     : 
RPCEHM   .ohm.m    : 
RPCELM   .ohm.m    : 
RT       .ohm.m    : 
BVW      .v/v      : 
CARB_FLAG.UNKNOWN  : 
COAL_FLAG.UNKNOWN  : 
KLOGH    .mD       : 
PHIF     .v/v      : 
SAND_FLAG.UNKNOWN  : 
SW       .v/v      : 
VSH      .v/v      : 
~Params ----------------------------------------------------
~Other -----------------------------------------------------
PETROPHYSICAL_INTERPRETATION: INPUT

# --- LOG MNEMONICS AND UNITS ---
#Depth     ABDCQF01   ABDCQF02   ABDCQF03   ABDCQF04   BS         CALI       DRHO       DT         DTS        GR         NPHI       PEF        RACEHM     RACELM     RD         RHOB       RM         ROP        RPCEHM     RPCELM     RT
#M         g/cm3      g/cm3      g/cm3      g/cm3      inches     inches     g/cm3      us/ft      us/ft      API        v/v        b/elec     ohm.m      ohm.m      ohm.m      g/cm3      ohm.m      m/hr       ohm.m      ohm.m      ohm.m
~ASCII -----------------------------------------------------
# ...
 3651.00000    2.20400    2.22800    2.23200    2.21500    8.50000    8.62500    0.04600   81.41200  129.31200   10.35800    0.12700    5.07100   68.66300   20.07900   91.94600    2.22400  149.71400   19.95900  149.70900   91.94600  149.71400    0.01700    0.00000    0.00000 2695.14600    0.20500    1.00000    0.08300    0.02300
 3651.50000    2.24900    2.23400    2.24800    2.25300    8.50000    8.62500    0.05000   78.40800  125.45200   10.72900    0.13200    5.09300   61.99600   19.63500   84.34200    2.23800  136.39700   19.96200  136.38600   84.34200  136.39700    0.01800    0.00000    0.00000 2408.25900    0.20200    1.00000    0.08700    0.02600
 3652.00000    2.25400    2.26200    2.37100    2.43400    8.50000    8.62500    0.01000   68.12400  108.68100   12.53100    0.09400    5.75500   47.25000   18.90500   67.21700    2.33600  102.45400   19.94600  102.44200   67.21800  102.45400    0.01900    0.00000    0.00000  745.20800    0.15300    1.00000    0.12100    0.03900
 3652.50000    2.51900    2.62700    2.67000    2.65100    8.50000    8.67200    0.06200   65.58600  106.70500   17.96400    0.06300    6.53000   33.72000   15.98200   49.56600    2.61600   78.30700   19.92300   78.27900   49.56600   78.30700    0.01500    1.00000    0.00000   45.46000    0.04300    0.00000    0.35300    0.07700
 3653.00000    2.57900    2.56000    2.48300    2.49000    8.50000    8.62500    0.09300   74.31100  121.95600   32.35500    0.12200    5.84400   22.46100   14.45000   27.78900    2.50900   35.95600   19.97100   35.94800   27.78900   35.95600    0.02700    1.00000    0.00000   17.60000    0.10500    0.00000    0.25600    0.17700
 3653.50000    2.34200    2.42800    2.40800    2.32500    8.50000    8.62500    0.04800   71.60200  124.36800   39.18900    0.13800    5.79800   16.72400   12.58000   15.46300    2.35700   15.58500   19.97300   15.57800   15.46300   15.58500    0.04200    0.00000    0.00000   19.31800    0.16400    1.00000    0.25900    0.22500
 3654.00000    2.45300    2.62600    2.68700    2.56300    8.50000    8.67200    0.03900   63.47700  123.56400   37.70700    0.07000    7.21100   11.97300   10.73300    9.22300    2.58100    7.91000   19.95300    7.91100    9.22300    7.91000    0.04400    1.00000    0.00000    3.44600    0.05900    0.00000    0.75400    0.21500
 3654.50000    2.57700    2.71200    2.63200    2.71500    8.50000    8.67200    0.06800   69.39500  117.15500   35.18600    0.07600    6.96800    7.14200    8.25900    8.43700    2.66100    8.72400   19.17300    8.72400    8.43700    8.72400 -999.25000    1.00000    0.00000 -999.25000 -999.25000    0.00000 -999.25000    0.19700
 3655.00000    2.54000    2.50200    2.37700    2.48000    8.50000    8.62500    0.09200   80.29500  123.59800   34.21400    0.15600    5.85400    4.12300    5.74700    4.59600    2.45900    4.57100   17.09800    4.57100    4.59600    4.57100    0.06700    0.00000    0.00000   24.03000    0.13700    1.00000    0.48700    0.19000
 3655.50000    2.30900    2.31700    2.31200    2.31400    8.50000    8.62500    0.06000   84.67600  139.82800   38.21400    0.17300    5.37600    3.98800    5.24100    4.34200    2.31400    4.51200   16.90000    4.51200    4.34200    4.51200    0.07300    0.00000    0.00000   38.43100    0.19400    1.00000    0.37700    0.21800
 3656.00000    2.28600    2.31300    2.31100    2.30800    8.50000    8.62500    0.04700   84.34700  132.24500   40.09100    0.18200    5.40100    3.97400    5.15500    4.30100    2.30200    4.47300   18.02600    4.47300    4.30100    4.47300    0.07400    0.00000    0.00000   34.00600    0.20200    1.00000    0.36700    0.23100
 3656.50000    2.31000    2.32100    2.30600    2.31300    8.50000    8.62500    0.05300   83.11900  140.41900   42.12400    0.17900    5.37500    4.02800    4.88100    4.29600    2.30900    4.53100   19.40900    4.53100    4.29600    4.53100    0.07400    0.00000    0.00000   23.76200    0.19800    1.00000    0.37100    0.24600
 3657.00000    2.30000    2.32300    2.30500    2.32000    8.50000    8.60200    0.05500   85.64100  140.92700   43.62900    0.18400    5.33900    4.35700    4.84400    4.40300    2.30900    4.62700   19.96600    4.62700    4.40300    4.62700    0.07300    0.00000    0.00000   19.77100    0.20000    1.00000    0.36600    0.25600
 3657.50000    2.32200    2.29000    2.27800    2.31000    8.50000    8.62500    0.05800   89.21300  146.19800   43.18800    0.19300    5.33700    4.81400    4.85300    4.91900    2.29500    5.34800   19.94200    5.34900    4.91900    5.34800    0.07000    0.00000    0.00000   24.71600    0.20900    1.00000    0.33400    0.25300
 3658.00000    2.26300    2.23600    2.20200    2.25700    8.50000    8.62500    0.05600   91.85100  144.13300   39.07400    0.20200    5.25400    5.07300    4.89800    5.53100    2.23800    6.44700   19.92800    6.44800    5.53100    6.44700    0.06600    0.00000    0.00000   69.04600    0.23200    1.00000    0.28300    0.22400
 3658.50000    2.19900    2.19200    2.18300    2.18600    8.50000    8.62500    0.04100   92.10300  139.43800   38.68100    0.21900    5.14900    5.20600    5.02700    5.84500    2.18800    6.90300   19.93200    6.90400    5.84500    6.90300    0.06500    0.00000    0.00000  115.16000    0.25700    1.00000    0.25500    0.22200
 3659.00000    2.20000    2.20200    2.20000    2.20400    8.50000    8.62500    0.04400   85.26300  130.17600   38.28300    0.21500    5.29700    5.64000    5.30300    6.25900    2.20100    7.38700   19.97200    7.38700    6.25900    7.38700    0.06300    0.00000    0.00000  108.47900    0.25000    1.00000    0.25200    0.21900
 3659.50000    2.21800    2.23700    2.30900    2.24700    8.50000    8.62500    0.02200   70.70800  121.67200   39.41700    0.15600    5.50600    6.42400    5.72000    6.91000    2.24700    7.90100   19.94900    7.90100    6.91000    7.90100    0.05900    0.00000    0.00000   43.18800    0.20900    1.00000    0.28200    0.22700
 3660.00000    2.48500    2.63200    2.72800    2.63400    8.50000    8.68700    0.04200   57.60300  114.91500   34.41800    0.05000    7.30500    7.65500    6.24100   10.27000    2.62100   16.05000   19.94000   16.05200   10.27000   16.05000    0.02900    1.00000    0.00000    3.67800    0.03600    0.00000    0.80900    0.19200
 3660.50000    2.70800    2.70300    2.69600    2.67700    8.50000    8.67200    0.07000   56.08900   96.91400   34.92900    0.05300    7.18800    9.33600    6.85500   13.31100    2.69700   22.22000   17.96700   22.22200   13.31100   22.22000 -999.25000    1.00000    0.00000 -999.25000 -999.25000    0.00000 -999.25000    0.19500
 3661.00000    2.67300    2.67200    2.69500    2.68800    8.50000    8.68800    0.07600   55.78900   88.54200   34.08800    0.05900    7.14900   11.11200    7.36000   15.17600    2.68400   25.15200   16.15000   25.15200   15.17600   25.15200 -999.25000    1.00000    0.00000 -999.25000 -999.25000    0.00000 -999.25000    0.18900
 3661.50000    2.67400    2.67100    2.70000    2.67600    8.50000    8.67200    0.07300   54.28000   86.30600   33.69100    0.05400    7.34500   11.53900    7.57800   15.73500    2.68100   25.67000   16.41400   25.67100   15.73500   25.67000 -999.25000    1.00000    0.00000 -999.25000 -999.25000    0.00000 -999.25000    0.18700
 3662.00000    2.66400    2.72900    2.72900    2.68300    8.50000    8.67200    0.06600   56.68100   83.57400   35.79300    0.04700    7.22400   10.58700    7.62600   15.07000    2.69700   24.67100   16.36200   24.66900   15.07000   24.67100 -999.25000    1.00000    0.00000 -999.25000 -999.25000    0.00000 -999.25000    0.20100
 3662.50000    2.68200    2.68400    2.67100    2.71800    8.50000    8.67200    0.08300   62.70800   93.38900   36.35700    0.06100    7.14400    8.71700    7.33300   12.47900    2.68600   18.54400   15.51000   18.54000   12.47900   18.54400 -999.25000    1.00000    0.00000 -999.25000 -999.25000    0.00000 -999.25000    0.20500
 3663.00000    2.58400    2.48300    2.37700    2.50300    8.50000    8.67200    0.09600   75.84800  129.15400   40.71200    0.14900    5.95800    7.32300    7.08500    8.35900    2.46500    8.97200   14.51900    8.97000    8.35900    8.97200    0.05100    0.00000    0.00000    8.53900    0.13200    1.00000    0.38500    0.23600
