~Version ---------------------------------------------------
VERS.   2.0 : CWLS log ASCII Standard -VERSION 2.0
WRAP.    NO : One line per depth step
DLM . SPACE : Column Data Section Delimiter
~Well ------------------------------------------------------
STRT.ft       145.90000 : START DEPTH
STOP.ft      3464.90000 : STOP DEPTH
STEP.ft         0.50000 : STEP
NULL.           -999.25 : NULL VALUE
COMP. Statoil Petroleum : COMPANY
WELL.        15/9-F-1 B : WELL
FLD .             VOLVE : FIELD
LOC .   Maersk Inspirer : LOCATION
PROV.                   : PROVINCE
CNTY.                   : COUNTY
STAT.                   : STATE
CTRY.                   : COUNTRY
SRVC.                   : SERVICE COMPANY
DATE.                   : DATE
UWI .                   : UNIQUE WELL ID
API .                   : API NUMBER
~Curve Information -----------------------------------------
DEPT     .ft        : 
ABDCQF01 .g/cm3     : 
ABDCQF02 .g/cm3     : 
ABDCQF03 .g/cm3     : 
ABDCQF04 .g/cm3     : 
BS       .inches    : 
CALI     .inches    : 
DRHO     .g/cm3     : 
DT       .us/ft     : 
DTS      .us/ft     : 
GR       .API       : 
NBGRCFM  .API       : 
NPHI     .v/v       : 
PEF      .b/elec    : 
RACEHM   .ohm.m     : 
RACELM   .ohm.m     : 
RD       .ohm.m     : 
RHOB     .g/cm3     : 
RM       .ohm.m     : 
ROP      .m/hr      : 
RPCEHM   .ohm.m     : 
RPCELM   .ohm.m     : 
RT       .ohm.m     : 
BVW      .V/V       : 
CARB_FLAG.V/V       : 
COAL_FLAG.UNITLESS  : 
KLOGH    .mD        : 
PHIF     .V/V       : 
SAND_FLAG.UNITLESS  : 
SW       .V/V       : 
VCARB    .V/V       : 
VSH      .V/V       : 
~Params ----------------------------------------------------
~Other -----------------------------------------------------
PETROPHYSICAL INTERPRETATION: INPUT

# --- LOG MNEMONICS AND UNITS ---
#Depth          ABDCQF01        ABDCQF02        ABDCQF03        ABDCQF04        BS              CALI            DRHO            DT              DTS             GR              NBGRCFM         NPHI            PEF             RACEHM          RACELM          RD              RHOB            RM              ROP             RPCEHM          RPCELM          RT
#M              g/cm3           g/cm3           g/cm3           g/cm3           inches          inches          g/cm3           us/ft           us/ft           API             API             v/v             b/elec          ohm.m           ohm.m           ohm.m           g/cm3           ohm.m           m/hr            ohm.m           ohm.m           ohm.m
~ASCII -----------------------------------------------------
# ...
 3365.90000    2.34460    2.34700    2.33990    2.35010    8.50000    8.61300    0.04090   82.94170  141.06740   29.12640 -999.25000    0.18480    5.53270    0.55880    0.59640    0.60700    2.34670    0.62840   22.94860    0.62830    0.60700    0.62830    0.15180    0.00000    0.00000  164.14940    0.17340    1.00000    0.87560    0.00000    0.16630
 3366.40000    2.31320    2.31040    2.31050    2.32810    8.50000    8.66330    0.04370   82.28050  139.84380   45.98910 -999.25000    0.24270    5.51730    0.71690    0.67880    0.78850    2.31440    0.83690   22.31200    0.83690    0.78850    0.83690    0.13770    0.00000    0.00000  372.77000    0.19180    1.00000    0.71810    0.00000    0.28260
 3366.90000    2.37950    2.35890    2.37190    2.36210    8.50000    8.69760    0.05690   81.33660  139.94960   45.22170 -999.25000    0.22600    5.92770    0.73720    0.73300    0.80510    2.36650    0.81600   25.49190    0.81600    0.80510    0.81600    0.13600    0.00000    0.00000   42.55300    0.16200    1.00000    0.83940    0.00000    0.27750
 3367.40000    2.34300    2.34730    2.35080    2.33460    8.50000    8.66370    0.04670   81.97640  139.73020   42.37270 -999.25000    0.22750    5.70640    0.79810    0.79470    0.80250    2.34090    0.80230   27.38470    0.80230    0.80250    0.80230    0.13840    0.00000    0.00000  137.00490    0.17660    1.00000    0.78340    0.00000    0.25770
 3367.90000    2.35030    2.35680    2.34300    2.33740    8.50000    8.69730    0.04990   82.67550  140.37630   43.92260 -999.25000    0.23050    5.77850    0.83390    0.87610    0.77870    2.34280    0.73290   24.39880    0.73290    0.77870    0.73290    0.14350    0.00000    0.00000  120.37070    0.17550    1.00000    0.81760    0.00000    0.26840
 3368.40000    2.35660    2.32720    2.35690    2.37430    8.50000    8.63850    0.03160   78.64900  134.99520   73.55980 -999.25000    0.21880    5.99750    1.04310    1.07140    1.09800    2.35310    1.05230   21.29770    1.05270    1.09820    1.05270    0.12460    0.00000    0.00000   30.73300    0.16980    1.00000    0.73420    0.00000    0.47250
 3368.90000    2.50820    2.51390    2.48480    2.50870    8.50000    8.66400    0.05030   72.68080  124.54400   51.93320 -999.25000    0.13350    5.92730    1.53150    1.33520    1.71110    2.50030    1.98790   21.94230    1.98800    1.71120    1.98800    0.08560    0.00000    0.00000    0.12340    0.08560    0.00000    1.00000    0.05090    0.32390
 3369.40000    2.56080    2.53870    2.53530    2.52910    8.50000    8.69760    0.06800   70.08980  120.96520   50.79720 -999.25000    0.13430    6.32780    1.84860    1.57470    1.98230    2.54140    2.16710   20.84190    2.16710    1.98230    2.16710    0.06210    0.00000    0.00000    0.02260    0.06210    0.00000    1.00000    0.13460    0.31560
 3369.90000    2.52890    2.53600    2.52330    2.52900    8.50000    8.69760    0.05970   71.12500  123.51920   59.17850 -999.25000    0.13600    6.48310    1.74950    1.59840    2.00190    2.52590    2.37530   21.14510    2.37530    2.00180    2.37530    0.07100    0.00000    0.00000    0.03340    0.07100    0.00000    1.00000    0.04710    0.37360
 3370.40000    2.50940    2.51880    2.48810    2.47950    8.50000    8.69760    0.07500   73.36330  130.43900   50.64910 -999.25000    0.17770    6.23000    1.46670    1.50900    1.38190    2.49420    1.22600   21.19020    1.22600    1.38190    1.22600    0.08890    0.00000    0.00000    0.16430    0.08890    0.00000    1.00000    0.04960    0.31490
 3370.90000    2.47440    2.45470    2.46750    2.46240    8.50000    8.69800    0.05170   74.85930  131.26660   50.43670 -999.25000    0.16680    6.22030    1.31420    1.39290    1.38940    2.46450    1.43010   23.11220    1.43000    1.38940    1.43000    0.10270    0.00000    0.00000    0.58520    0.10610    1.00000    0.96870    0.00000    0.31330
 3371.40000    2.46930    2.46480    2.46610    2.45850    8.50000    8.69760    0.05630   74.34210  128.64870   58.28830 -999.25000    0.17240    6.09670    1.36140    1.37140    1.36140    2.46340    1.32440   23.85300    1.32450    1.36140    1.32450    0.10650    0.00000    0.00000    0.47550    0.10660    1.00000    0.99860    0.00000    0.36750
 3371.90000    2.51470    2.49900    2.50320    2.52760    8.50000    8.69760    0.06730   73.84070  128.21530   56.29800 -999.25000    0.15470    6.28300    1.42070    1.36960    1.49840    2.51300    1.59570   22.97090    1.59560    1.49840    1.59560    0.07830    0.00000    0.00000    0.06270    0.07830    0.00000    1.00000    0.04420    0.35380
 3372.40000    2.48410    2.47910    2.45640    2.45130    8.50000    8.74790    0.05850   74.02210  130.83370   59.30490 -999.25000    0.16810    6.22120    1.36580    1.35330    1.39960    2.46500    1.38070   21.97690    1.38060    1.39960    1.38060    0.10460    0.00000    0.00000    0.43010    0.10570    1.00000    0.98940    0.00000    0.37460
 3372.90000    2.47040    2.47400    2.46600    2.46530    8.50000    8.69750    0.05600   75.27370  132.56680   53.03950 -999.25000    0.16820    5.92350    1.28430    1.31360    1.31460    2.46780    1.30740   21.31750    1.30740    1.31460    1.30740    0.10410    0.00000    0.00000    0.46670    0.10410    1.00000    1.00000    0.00000    0.33130
 3373.40000    2.45560    2.45600    2.45350    2.46080    8.50000    8.69760    0.05120   75.14200  130.78960   49.78860 -999.25000    0.16380    5.88650    1.34630    1.32220    1.39570    2.45570    1.44570   21.62080    1.44580    1.39570    1.44580    0.10290    0.00000    0.00000    0.86090    0.11100    1.00000    0.92640    0.00000    0.29910
 3373.90000    2.49380    2.48670    2.47270    2.49050    8.50000    8.69710    0.05330   73.47520  128.23810   54.96590 -999.25000    0.15590    6.02630    1.46110    1.35780    1.49100    2.48570    1.55860   20.26810    1.55860    1.49100    1.55860    0.09390    0.00000    0.00000    0.20660    0.09390    0.00000    1.00000    0.00770    0.34460
 3374.40000    2.49530    2.50540    2.52950    2.51010    8.50000    8.68070    0.06700   73.11000  128.45160   53.15140 -999.25000    0.15750    6.40180    1.44170    1.39990    1.51420    2.50640    1.56840   19.22090    1.56830    1.51410    1.56830    0.08210    0.00000    0.00000    0.09160    0.08210    0.00000    1.00000    0.05380    0.33200
 3374.90000    2.48960    2.48630    2.48180    2.46640    8.50000    8.69760    0.06280   74.00460  129.74350   55.54040 -999.25000    0.16480    6.46950    1.47980    1.46560    1.53570    2.48040    1.57560   20.55660    1.57580    1.53570    1.57580    0.09690    0.00000    0.00000    0.25370    0.09690    0.00000    1.00000    0.00000    0.34850
 3375.40000    2.47380    2.47580    2.48190    2.47160    8.50000    8.69780    0.07080   74.50180  132.31090   57.48280 -999.25000    0.19120    6.30430    1.44500    1.54600    1.38390    2.46900    1.22530   21.87230    1.22520    1.38390    1.22520    0.10330    0.00000    0.00000    0.38180    0.10330    1.00000    1.00000    0.00000    0.36210
 3375.90000    2.50540    2.46620    2.46590    2.49690    8.50000    8.69760    0.04580   72.94810  127.06720   58.26980 -999.25000    0.15080    6.14620    1.60420    1.61030    1.69520    2.48470    1.84380   23.37620    1.84400    1.69540    1.84400    0.09170    0.00000    0.00000    0.19570    0.09460    0.00000    0.96910    0.00000    0.36740
 3376.40000    2.55090    2.51750    2.54010    2.53760    8.50000    8.69760    0.05260   70.74200  122.95930   63.51090 -999.25000    0.14360    6.07480    1.90090    1.70510    1.98140    2.53350    2.14800   21.23810    2.14800    1.98140    2.14800    0.06660    0.00000    0.00000    0.02110    0.06660    0.00000    1.00000    0.03290    0.40340
 3376.90000    2.55080    2.55300    2.52860    2.53850    8.50000    8.69760    0.05190   71.71160  125.32430   67.11880 -999.25000    0.14210    6.05720    1.91400    1.67640    2.02780    2.54340    2.29190   19.98780    2.29190    2.02780    2.29190    0.06090    0.00000    0.00000    0.01240    0.06090    0.00000    1.00000    0.02690    0.42850
