~Version ---------------------------------------------------
VERS.   2.0 : CWLS log ASCII Standard -VERSION 2.0
WRAP.    NO : One line per depth step
DLM . SPACE : Column Data Section Delimiter
~Well ------------------------------------------------------
STRT.ft       145.90000 : START DEPTH
STOP.ft      4093.90000 : STOP DEPTH
STEP.ft         0.50000 : STEP
NULL.           -999.25 : NULL VALUE
COMP. Statoil Petroleum : COMPANY
WELL.        15/9-F-1 C : WELL
FLD .             VOLVE : FIELD
LOC .   Maersk Inspirer : LOCATION
PROV.                   : PROVINCE
CNTY.                   : COUNTY
STAT.                   : STATE
CTRY.                   : COUNTRY
SRVC.                   : SERVICE COMPANY
DATE.                   : DATE
UWI .                   : UNIQUE WELL ID
API .                   : API NUMBER
~Curve Information -----------------------------------------
DEPT        .ft        : 
ABDCQF01    .g/cm3     : 
ABDCQF02    .g/cm3     : 
ABDCQF03    .g/cm3     : 
ABDCQF04    .g/cm3     : 
BS          .inches    : 
CALI        .inches    : 
DRHO        .g/cm3     : 
GR          .API       : 
NBGRCFM     .API       : 
NPHI        .v/v       : 
PEF         .b/elec    : 
RACEHM      .ohm.m     : 
RACELM      .ohm.m     : 
RD          .ohm.m     : 
RHOB        .g/cm3     : 
RM          .ohm.m     : 
ROP         .m/hr      : 
RPCEHM      .ohm.m     : 
RPCELM      .ohm.m     : 
RT          .ohm.m     : 
BADDATA_FLAG.unitless  : 
BVW         .v/v       : 
COAL_FLAG   .unitless  : 
KLOGH       .mD        : 
PHIF        .v/v       : 
SAND_FLAG   .unitless  : 
SW          .v/v       : 
VCARB       .v/v       : 
VSH         .v/v       : 
~Params ----------------------------------------------------
~Other -----------------------------------------------------
PETROPHYSICAL INTERPRETATION: INPUT

# --- LOG MNEMONICS AND UNITS ---
#Depth          ABDCQF01        ABDCQF02        ABDCQF03        ABDCQF04        BS              CALI            DRHO            GR              NBGRCFM         NPHI            PEF             RACEHM          RACELM          RD              RHOB            RM              ROP             RPCEHM          RPCELM          RT
#M              g/cm3           g/cm3           g/cm3           g/cm3           inches          inches          g/cm3           API             API             v/v             b/elec          ohm.m           ohm.m           ohm.m           g/cm3           ohm.m           m/hr            ohm.m           ohm.m           ohm.m
~ASCII -----------------------------------------------------
# ...
 3595.90000    2.62230    2.54660    2.49380    2.53980    8.50000    8.55690    0.04610   46.30470   45.23190    0.12630    5.91840    2.62500    2.27470    3.55020    2.53800    9.26960   29.96660    9.26940    3.55020    9.26960    0.00000    0.04450    0.00000    0.24070    0.06400    0.00000    0.69590    0.09310    0.34780
 3596.40000    2.64030    2.55020    2.57150    2.53350    8.50000    8.60570    0.06830   54.15620   49.28800    0.14710    6.30440    2.19280    2.05990    3.12580    2.56520   10.77410   29.93350   10.77340    3.12580   10.77410    0.00000    0.04060    0.00000    0.04290    0.04850    0.00000    0.83870    0.07050    0.41720
 3596.90000    2.53840    2.53500    2.57780    2.52290    8.50000    8.55690    0.05770   59.42270   63.19130    0.18950    6.47660    2.14850    1.98330    2.71990    2.54040    7.96060   29.98110    7.96150    2.72000    7.96060    0.00000    0.04920    0.00000    0.02120    0.06260    0.00000    0.78620    0.00000    0.46390
 3597.40000    2.45170    2.54880    2.55630    2.55230    8.50000    8.60570    0.04080   66.30530   68.84180    0.21240    6.89980    1.91020    1.98450    2.28100    2.52780    5.00320   29.94810    5.00340    2.28110    5.00320    0.00000    0.06210    0.00000    0.00680    0.06980    0.00000    0.88990    0.00000    0.52480
 3597.90000    2.54830    2.47780    2.48520    2.54410    8.50000    8.55690    0.04930   70.62890   78.97930    0.20800    6.05300    1.61580    1.99790    1.90890    2.49950    3.04490   29.99160    3.04500    1.90900    3.04490    0.00000    0.08010    0.00000    0.00420    0.08600    0.00000    0.93130    0.00000    0.56310
 3598.40000    2.58540    2.46390    2.50480    2.50320    8.50000    8.55700    0.05070   73.07310   79.41220    0.20040    6.11250    1.54810    2.06730    1.72490    2.50120    2.18230   29.95120    2.18250    1.72500    2.18230    0.00000    0.08500    0.00000    0.00260    0.08500    0.00000    1.00000    0.00000    0.58480
 3598.90000    2.44100    2.49460    2.44750    2.50100    8.50000    8.60560    0.06750   64.86300   72.67860    0.20930    6.05200    1.58620    2.12910    1.77760    2.46870    1.96300   28.43180    1.96310    1.77760    1.96300    0.00000    0.09750    0.00000    0.01660    0.10360    0.00000    0.94090    0.00000    0.51210
 3599.40000    2.60720    2.43940    2.50800    2.44180    8.50000    8.60570    0.06030   64.57680   67.05900    0.21190    6.06150    2.12930    2.32280    1.82110    2.48310    1.56890   24.79780    1.56860    1.82100    1.56890    0.00000    0.09540    0.00000    0.01500    0.09540    0.00000    1.00000    0.00000    0.50960
 3599.90000    2.52470    2.45880    2.57130    2.46740    8.50000    8.60570    0.04740   56.15450   62.37830    0.20630    6.87710    2.42690    2.35000    2.06160    2.49340    1.91340   25.85290    1.91330    2.06160    1.91340    0.00000    0.08950    0.00000    0.06320    0.08950    0.00000    1.00000    0.00000    0.43500
 3600.40000    2.47480    2.47680    2.33320    2.44340    8.50000    8.52430    0.06250   42.12440   46.98080    0.19590    5.73900    2.68300    2.21280    2.84450    2.41140    3.99410   28.48790    3.99400    2.84440    3.99410    0.00000    0.07630    0.00000    3.65700    0.17010    1.00000    0.44820    0.00000    0.31090
 3600.90000    2.32320    2.27160    2.22200    2.26770    8.50000    8.52430    0.04160   32.05760   35.14230    0.20560    5.32450    2.99150    2.27410    3.15570    2.25850    4.57940   29.85350    4.57920    3.15570    4.57940    0.00000    0.07540    0.00000   65.46180    0.22650    1.00000    0.33280    0.00000    0.22180
 3601.40000    2.25890    2.22060    2.21230    2.21810    8.50000    8.52430    0.04220   31.92420   35.67360    0.21220    5.15770    3.06820    2.26920    3.54000    2.22160    5.90770   31.08090    5.90780    3.54000    5.90770    0.00000    0.06890    0.00000   88.86320    0.24180    1.00000    0.28510    0.00000    0.22060
 3601.90000    2.19530    2.19840    2.19810    2.18020    8.50000    8.52430    0.03250   30.47710   32.15250    0.22070    5.03340    3.24220    2.34700    3.67390    2.18990    5.78590   30.70830    5.78590    3.67380    5.78590    0.00000    0.07030    0.00000  150.91870    0.25600    1.00000    0.27450    0.00000    0.20770
 3602.40000    2.17960    2.19120    2.16460    2.17670    8.50000    8.52430    0.03130   29.45160   31.74480    0.21700    5.06050    3.47210    2.44580    4.00570    2.17570    5.99030   30.20730    5.99030    4.00570    5.99030    0.00000    0.06940    0.00000  193.68050    0.25940    1.00000    0.26750    0.00000    0.19870
 3602.90000    2.18070    2.17540    2.17840    2.17010    8.50000    8.52430    0.03270   30.38020   33.51180    0.21830    5.09270    3.64460    2.49040    4.13880    2.17270    5.86040   29.84300    5.86040    4.13870    5.86040    0.00000    0.07020    0.00000  168.09790    0.26100    1.00000    0.26900    0.00000    0.20690
 3603.40000    2.18420    2.17930    2.17220    2.16930    8.50000    8.52430    0.03250   32.79900   32.58910    0.22560    5.11360    3.63450    2.48290    4.09570    2.17310    5.70160   29.82400    5.70160    4.09570    5.70160    0.00000    0.07140    0.00000  113.60120    0.26370    1.00000    0.27080    0.00000    0.22830
 3603.90000    2.16100    2.16620    2.16300    2.16010    8.50000    8.52430    0.02910   30.42340   33.78450    0.22390    5.14520    3.53300    2.44440    3.93400    2.16120    5.32900   29.83350    5.32900    3.93400    5.32900    0.00000    0.07340    0.00000  186.91300    0.26710    1.00000    0.27470    0.00000    0.20730
 3604.40000    2.15360    2.17220    2.18120    2.16930    8.50000    8.52430    0.03210   31.81450   34.18180    0.23170    5.14450    3.49140    2.36740    3.84680    2.16860    5.29210   29.84230    5.29210    3.84680    5.29210    0.00000    0.07380    0.00000  146.40430    0.26770    1.00000    0.27560    0.00000    0.21960
 3604.90000    2.18310    2.18170    2.17350    2.18800    8.50000    8.52430    0.03690   33.82000   33.91200    0.22820    5.30490    3.53330    2.30900    3.81180    2.17780    5.37010   29.85500    5.37010    3.81180    5.37010    0.00000    0.07330    0.00000   93.20290    0.26320    1.00000    0.27840    0.00000    0.23730
 3605.40000    2.16910    2.18790    2.19510    2.18000    8.50000    8.52430    0.03100   32.16240   34.97990    0.22260    5.24600    3.41560    2.24130    3.68190    2.18160    5.32010   29.87030    5.32010    3.68190    5.32010    0.00000    0.07310    0.00000  118.29260    0.25960    1.00000    0.28170    0.00000    0.22270
 3605.90000    2.17310    2.19000    2.21420    2.19460    8.50000    8.52430    0.03130   31.42850   36.93120    0.22220    5.17680    3.46220    2.14630    3.78880    2.19200    6.42760   29.82390    6.42750    3.78870    6.42760    0.00000    0.06740    0.00000  126.41130    0.25590    1.00000    0.26340    0.00000    0.21620
 3606.40000    2.19420    2.20630    2.22280    2.20110    8.50000    8.52430    0.03640   32.10720   37.25320    0.21530    5.21430    3.64710    2.15190    3.81480    2.20650    6.11550   29.80480    6.11560    3.81480    6.11550    0.00000    0.06840    0.00000   96.77960    0.24820    1.00000    0.27550    0.00000    0.22220
 3606.90000    2.19510    2.18890    2.25680    2.19450    8.50000    8.52430    0.03670   33.11340   33.04710    0.21700    5.00380    4.19820    2.14440    4.21320    2.20800    7.92100   29.81470    7.92100    4.21320    7.92100    0.00000    0.06160    0.00000   80.72670    0.24830    1.00000    0.24820    0.00000    0.23110
 3607.40000    2.17870    2.24780    2.45050    2.22370    8.50000    8.52430    0.01760   38.14730   38.50410    0.22560    5.50440    4.30730    2.11050    4.31410    2.27850    9.35370   29.82310    9.35460    4.31430    9.35370    0.00000    0.05690    0.00000   21.89540    0.22760    1.00000    0.25010    0.00000    0.27560
 3607.90000    2.19690    2.25400    2.44260    2.19580    8.50000    8.52430    0.02450   36.72670   41.17390    0.22170    5.40930    3.51860    2.28150    3.49680    2.27460    5.56990   29.84610    5.56950    3.49680    5.56990    0.00000    0.07020    0.00000   28.26920    0.22740    1.00000    0.30860    0.00000    0.26310
