~Version ---------------------------------------------------
VERS.   2.0 : CWLS log ASCII Standard -VERSION 2.0
WRAP.    NO : One line per depth step
DLM . SPACE : Column Data Section Delimiter
~Well ------------------------------------------------------
STRT.ft          145.90000 : START DEPTH
STOP.ft         4684.90000 : STOP DEPTH
STEP.ft            0.50000 : STEP
NULL.              -999.25 : NULL VALUE
COMP. STATOIL PETROLEUM AS : COMPANY
WELL.          15/9-F-15 D : WELL
FLD .                VOLVE : FIELD
LOC .                      : LOCATION
PROV.                      : PROVINCE
CNTY.      MAERSK INSPIRER : COUNTY
STAT.                      : STATE
CTRY.                      : COUNTRY
SRVC.                      : SERVICE COMPANY
DATE.                      : DATE
UWI .                      : UNIQUE WELL ID
API .                      : API NUMBER
~Curve Information -----------------------------------------
DEPT     .ft        : 
ABDCQF01 .g/cm3     : 
ABDCQF02 .g/cm3     : 
ABDCQF03 .g/cm3     : 
ABDCQF04 .g/cm3     : 
BS       .inches    : 
CALI     .inches    : 
DRHO     .g/cm3     : 
GR       .API       : 
NBGRCFM  .API       : 
NPHI     .v/v       : 
PEF      .b/elec    : 
RACEHM   .ohm.m     : 
RACELM   .ohm.m     : 
RD       .ohm.m     : 
RHOB     .g/cm3     : 
RM       .ohm.m     : 
ROP      .m/hr      : 
RPCEHM   .ohm.m     : 
RPCELM   .ohm.m     : 
RT       .ohm.m     : 
BVW      .v/v       : 
COAL_FLAG.unitless  : 
KLOGH    .mD        : 
PHIF     .v/v       : 
SAND_FLAG.unitless  : 
SW       .v/v       : 
VCARB    .v/v       : 
VSH      .v/v       : 
~Params ----------------------------------------------------
~Other -----------------------------------------------------
PETROPHYSICAL INTERPRETATION: INPUT

# --- LOG MNEMONICS AND UNITS ---
#Depth          ABDCQF01        ABDCQF02        ABDCQF03        ABDCQF04        BS              CALI            DRHO            GR              NBGRCFM         NPHI            PEF             RACEHM          RACELM          RD              RHOB            RM              ROP             RPCEHM          RPCELM          RT
#M              g/cm3           g/cm3           g/cm3           g/cm3           inches          inches          g/cm3           API             API             v/v             b/elec          ohm.m           ohm.m           ohm.m           g/cm3           ohm.m           m/hr            ohm.m           ohm.m           ohm.m
~ASCII -----------------------------------------------------
# ...
 3345.90000    2.60850    2.59570    2.57630    2.58180    8.50000    8.54690    0.04080   20.83640   21.97820    0.09520    7.38490    4.61720    4.06040    4.85250    2.58900    5.37260   29.84580    5.37260    4.85260    5.42890 -999.25000 -999.25000 -999.25000 -999.25000 -999.25000 -999.25000 -999.25000 -999.25000
 3346.40000    2.60550    2.60000    2.61280    2.60550    8.50000    8.50000    0.04470   22.26280   23.38080    0.09560    7.37790    4.67400    4.13060    4.79230    2.60410    5.26420   28.22390    5.26420    4.79230    5.21700 -999.25000 -999.25000 -999.25000 -999.25000 -999.25000 -999.25000 -999.25000 -999.25000
 3346.90000    2.59590    2.61030    2.62260    2.60490    8.50000    8.54660    0.05140   23.35020   20.08170    0.09200    7.60840    4.66560    4.17220    4.66730    2.60690    5.02030   26.70260    5.02030    4.66730    4.99380 -999.25000 -999.25000 -999.25000 -999.25000 -999.25000 -999.25000 -999.25000 -999.25000
 3347.40000    2.59500    2.62100    2.59150    2.59860    8.50000    8.52350    0.04840   22.16430   22.88490    0.08990    7.60900    4.46110    4.16890    4.67320    2.60460    5.04440   26.54720    5.04450    4.67320    4.96500 -999.25000 -999.25000 -999.25000 -999.25000 -999.25000 -999.25000 -999.25000 -999.25000
 3347.90000    2.59770    2.61400    2.60750    2.59370    8.50000    8.54660    0.03950   20.58940   21.52460    0.08420    7.42790    4.37330    4.16480    4.56700    2.59990    4.96800   26.55040    4.96800    4.56700    4.95890 -999.25000 -999.25000 -999.25000 -999.25000 -999.25000 -999.25000 -999.25000 -999.25000
 3348.40000    2.62830    2.61760    2.61180    2.59590    8.50000    8.50010    0.04680   20.88410   20.25190    0.07890    7.54830    4.34090    4.12330    4.56710    2.61180    4.93990   26.53290    4.93980    4.56710    4.95650 -999.25000 -999.25000 -999.25000 -999.25000 -999.25000 -999.25000 -999.25000 -999.25000
 3348.90000    2.63420    2.61020    2.62350    2.60900    8.50000    8.54690    0.05190   21.89630   21.21010    0.08330    7.54780    4.37300    4.11890    4.65730    2.61570    5.20000   26.45520    5.20000    4.65730    5.22140 -999.25000 -999.25000 -999.25000 -999.25000 -999.25000 -999.25000 -999.25000 -999.25000
 3349.40000    2.62150    2.64600    2.60780    2.60720    8.50000    8.50000    0.04970   24.52170   23.07260    0.09280    7.21140    4.48300    4.10670    4.70000    2.62250    5.29040   26.52350    5.29040    4.70000    5.30970 -999.25000 -999.25000 -999.25000 -999.25000 -999.25000 -999.25000 -999.25000 -999.25000
 3349.90000    2.60620    2.61780    2.59450    2.58340    8.50000    8.54690    0.05910   27.45360   29.64910    0.09720    7.40550    4.39140    4.07260    5.05930    2.59950    6.16790   26.58650    6.16790    5.05930    6.13760 -999.25000 -999.25000 -999.25000 -999.25000 -999.25000 -999.25000 -999.25000 -999.25000
 3350.40000    2.59610    2.58920    2.56130    2.59340    8.50000    8.54690    0.05260   34.18270   34.04170    0.12650    7.27510    4.43910    4.01980    4.81590    2.58100    5.68790   26.60420    5.68800    4.81590    5.61270 -999.25000 -999.25000 -999.25000 -999.25000 -999.25000 -999.25000 -999.25000 -999.25000
 3350.90000    2.58700    2.55850    2.58820    2.58900    8.50000    8.54690    0.04760   35.50240   34.42620    0.12790    7.12080    4.34520    3.90590    4.55820    2.57880    5.40500   26.59600    5.40510    4.55820    5.34620 -999.25000 -999.25000 -999.25000 -999.25000 -999.25000 -999.25000 -999.25000 -999.25000
 3351.40000    2.58330    2.56910    2.57330    2.57190    8.50000    8.50000    0.04510   36.33860   33.35020    0.13400    7.05680    4.06440    3.82120    4.12940    2.57170    4.77570   26.58620    4.77570    4.12940    4.57260 -999.25000 -999.25000 -999.25000 -999.25000 -999.25000 -999.25000 -999.25000 -999.25000
 3351.90000    2.58060    2.58670    2.57830    2.58710    8.50000    8.54690    0.05410   36.98200   35.83530    0.13450    7.20070    3.74090    3.72650    3.99860    2.58640    4.43740   26.57370    4.43740    3.99870    4.42480 -999.25000 -999.25000 -999.25000 -999.25000 -999.25000 -999.25000 -999.25000 -999.25000
 3352.40000    2.57040    2.58020    2.57520    2.58800    8.50000    8.54690    0.05200   36.00300   35.63620    0.13620    7.28650    3.52580    3.61480    3.84690    2.57580    4.19870   26.57210    4.19870    3.84700    4.21420 -999.25000 -999.25000 -999.25000 -999.25000 -999.25000 -999.25000 -999.25000 -999.25000
 3352.90000    2.56370    2.59110    2.58510    2.57930    8.50000    8.54680    0.04750   35.68030   37.02080    0.12700    7.36420    3.38610    3.42120    3.68810    2.57580    4.31110   26.62320    4.31110    3.68810    4.36600 -999.25000 -999.25000 -999.25000 -999.25000 -999.25000 -999.25000 -999.25000 -999.25000
 3353.40000    2.58750    2.57240    2.57620    2.56830    8.50000    8.54690    0.04930   35.65880   38.12290    0.13040    7.35880    3.27380    3.29220    3.71990    2.57490    4.61870   26.79920    4.61870    3.71990    4.61200 -999.25000 -999.25000 -999.25000 -999.25000 -999.25000 -999.25000 -999.25000 -999.25000
 3353.90000    2.58630    2.59370    2.58560    2.56510    8.50000    8.54690    0.04560   31.04570   36.08880    0.12210    7.28520    3.30130    3.20710    3.65520    2.57920    4.65520   25.71540    4.65520    3.65520    4.63010 -999.25000 -999.25000 -999.25000 -999.25000 -999.25000 -999.25000 -999.25000 -999.25000
 3354.40000    2.56220    2.59900    2.59960    2.57020    8.50000    8.54690    0.05100   32.66270   33.01460    0.12070    7.30240    3.28200    3.15700    3.64920    2.58610    4.62110   25.03870    4.62120    3.64920    4.54470 -999.25000 -999.25000 -999.25000 -999.25000 -999.25000 -999.25000 -999.25000 -999.25000
 3354.90000    2.57350    2.58100    2.58250    2.57800    8.50000    8.54690    0.04510   32.82640   30.41140    0.11970    7.25090    3.35180    3.14580    3.65130    2.57450    4.50110   24.50730    4.50110    3.65130    4.47660 -999.25000 -999.25000 -999.25000 -999.25000 -999.25000 -999.25000 -999.25000 -999.25000
 3355.40000    2.58720    2.58090    2.58300    2.57800    8.50000    8.54690    0.05140   33.62730   35.44790    0.12290    7.38450    3.35770    3.10370    3.69080    2.58470    4.52540   24.49190    4.52540    3.69080    4.51940 -999.25000 -999.25000 -999.25000 -999.25000 -999.25000 -999.25000 -999.25000 -999.25000
 3355.90000    2.60900    2.56580    2.59220    2.58540    8.50000    8.54690    0.04860   32.42610   32.47850    0.11940    7.16470    3.33460    3.08380    3.67390    2.58840    4.53050   24.39440    4.53050    3.67390    4.53480 -999.25000 -999.25000 -999.25000 -999.25000 -999.25000 -999.25000 -999.25000 -999.25000
 3356.40000    2.59130    2.59440    2.58780    2.58490    8.50000    8.52330    0.04920   34.58240   32.24830    0.12150    7.41060    3.27780    3.05630    3.73210    2.58970    4.65810   24.42730    4.65810    3.73210    4.65170 -999.25000 -999.25000 -999.25000 -999.25000 -999.25000 -999.25000 -999.25000 -999.25000
 3356.90000    2.58290    2.58590    2.59340    2.58030    8.50000    8.54690    0.05780   35.84370   34.83800    0.12750    7.68060    3.28380    3.03380    3.66060    2.58780    4.47850   24.46410    4.47850    3.66060    4.49640 -999.25000 -999.25000 -999.25000 -999.25000 -999.25000 -999.25000 -999.25000 -999.25000
 3357.40000    2.61020    2.59340    2.58280    2.58820    8.50000    8.54690    0.06040   38.60870   39.78830    0.12930    7.54650    3.25350    3.01140    3.63690    2.59130    4.47850   24.42970    4.47850    3.63690    4.50390 -999.25000 -999.25000 -999.25000 -999.25000 -999.25000 -999.25000 -999.25000 -999.25000
 3357.90000    2.57390    2.60240    2.57700    2.57490    8.50000    8.54690    0.05530   37.97780   40.36890    0.13830    7.58560    3.25850    3.01690    3.56150    2.58250    4.35600   24.46450    4.35600    3.56150    4.37160 -999.25000 -999.25000 -999.25000 -999.25000 -999.25000 -999.25000 -999.25000 -999.25000
