~Version ---------------------------------------------------
VERS.   2.0 : CWLS log ASCII Standard -VERSION 2.0
WRAP.    NO : One line per depth step
DLM . SPACE : Column Data Section Delimiter
~Well ------------------------------------------------------
STRT.ft          188.50000 : START DEPTH
STOP.ft         3762.00000 : STOP DEPTH
STEP.ft            0.50000 : STEP
NULL.              -999.25 : NULL VALUE
COMP. Statoil Petroleum AS : COMPANY
WELL.          15/9-F-11 A : WELL
FLD .                VOLVE : FIELD
LOC .      Maersk Inspirer : LOCATION
PROV.                      : PROVINCE
CNTY.                      : COUNTY
STAT.                      : STATE
CTRY.                      : COUNTRY
SRVC.                      : SERVICE COMPANY
DATE.                      : DATE
UWI .                      : UNIQUE WELL ID
API .                      : API NUMBER
~Curve Information -----------------------------------------
DEPT     .ft       : 
ABDCQF01 .g/cm3    : 
ABDCQF02 .g/cm3    : 
ABDCQF03 .g/cm3    : 
ABDCQF04 .g/cm3    : 
BS       .inches   : 
CALI     .inches   : 
DRHO     .g/cm3    : 
DT       .us/ft    : 
DTS      .us/ft    : 
GR       .API      : 
NPHI     .v/v      : 
PEF      .b/elec   : 
RACEHM   .ohm.m    : 
RACELM   .ohm.m    : 
RD       .ohm.m    : 
RHOB     .g/cm3    : 
RM       .ohm.m    : 
ROP      .m/hr     : 
RPCEHM   .ohm.m    : 
RPCELM   .ohm.m    : 
RT       .ohm.m    : 
BVW      .v/v      : 
CARB_FLAG.UNKNOWN  : 
COAL_FLAG.UNKNOWN  : 
KLOGH    .mD       : 
PHIF     .v/v      : 
SAND_FLAG.UNKNOWN  : 
SW       .v/v      : 
VSH      .v/v      : 
~Params ----------------------------------------------------
~Other -----------------------------------------------------
PETROPHYSICAL_INTERPRETATION: INPUT

# --- LOG MNEMONICS AND UNITS ---
#Depth     ABDCQF01   ABDCQF02   ABDCQF03   ABDCQF04   BS         CALI       DRHO       DT         DTS        GR         NPHI       PEF        RACEHM     RACELM     RD         RHOB       RM         ROP        RPCEHM     RPCELM     RT
#M         g/cm3      g/cm3      g/cm3      g/cm3      inches     inches     g/cm3      us/ft      us/ft      API        v/v        b/elec     ohm.m      ohm.m      ohm.m      g/cm3      ohm.m      m/hr       ohm.m      ohm.m      ohm.m
~ASCII -----------------------------------------------------
# ...
 2726.00000    2.20500    2.21800    2.23200    2.22000    8.50000    8.54700    0.05500   94.49200  252.41200   29.22100    0.24200    4.95800    0.41900    0.39900    0.37600    2.21600    0.35200   31.62100    0.35200    0.37600    0.35200 -999.25000 -999.25000 -999.25000 -999.25000 -999.25000 -999.25000 -999.25000 -999.25000
 2726.50000    2.21900    2.21700    2.22400    2.21100    8.50000    8.54700    0.04600   94.76300  236.53200   34.45200    0.25700    5.22700    0.57000    0.39300    0.44900    2.21500    0.46600   31.42000    0.46600    0.44900    0.46600 -999.25000 -999.25000 -999.25000 -999.25000 -999.25000 -999.25000 -999.25000 -999.25000
 2727.00000    2.22500    2.19100    2.19100    2.19900    8.50000    8.57800    0.07200   99.22200  195.39300   34.95400    0.27700    5.17500    0.37900    0.34500    0.31800    2.19900    0.27600   34.13300    0.27600    0.31800    0.27600 -999.25000 -999.25000 -999.25000 -999.25000 -999.25000 -999.25000 -999.25000 -999.25000
 2727.50000    2.14600    2.15600    2.16200    2.14800    8.50000    8.57800    0.05100  100.61800  188.58500   35.15600    0.27800    5.06600    0.41800    0.32400    0.31900    2.15000    0.29700   36.72200    0.29700    0.31900    0.29700 -999.25000 -999.25000 -999.25000 -999.25000 -999.25000 -999.25000 -999.25000 -999.25000
 2728.00000    2.17100    2.16500    2.16900    2.16900    8.50000    8.57800    0.05000  101.01800  186.63900   37.81100    0.27200    4.96600    0.37700    0.31500    0.32000    2.16600    0.30500   35.68500    0.30500    0.32000    0.30500 -999.25000 -999.25000 -999.25000 -999.25000 -999.25000 -999.25000 -999.25000 -999.25000
 2728.50000    2.17900    2.18100    2.17400    2.17300    8.50000    8.54700    0.05300  100.02700  192.90700   34.27400    0.27300    5.06200    0.37600    0.31300    0.32400    2.17300    0.30400   33.31300    0.30400    0.32400    0.30400 -999.25000 -999.25000 -999.25000 -999.25000 -999.25000 -999.25000 -999.25000 -999.25000
 2729.00000    2.18300    2.18100    2.17100    2.17200    8.50000    8.57800    0.05500  101.32400  196.22500   36.54400    0.26300    5.12400    0.37100    0.31300    0.32200    2.17300    0.29900   33.25100    0.29900    0.32200    0.29900 -999.25000 -999.25000 -999.25000 -999.25000 -999.25000 -999.25000 -999.25000 -999.25000
 2729.50000    2.18600    2.17700    2.17900    2.19200    8.50000    8.57800    0.06200  101.54900  194.78200   33.05800    0.27000    5.16800    0.36900    0.31000    0.31900    2.18100    0.29700   34.32600    0.29700    0.31900    0.29700 -999.25000 -999.25000 -999.25000 -999.25000 -999.25000 -999.25000 -999.25000 -999.25000
 2730.00000    2.17400    2.16600    2.17700    2.17300    8.50000    8.57800    0.05300   99.74300  188.98700   31.97700    0.27200    4.96000    0.37100    0.30700    0.31700    2.17200    0.29800   34.27000    0.29800    0.31700    0.29800 -999.25000 -999.25000 -999.25000 -999.25000 -999.25000 -999.25000 -999.25000 -999.25000
 2730.50000    2.18100    2.17700    2.17300    2.18400    8.50000    8.57800    0.05400   99.56100  186.58300   33.29200    0.27400    4.99400    0.36800    0.30700    0.31800    2.17700    0.30200   33.77400    0.30200    0.31800    0.30200 -999.25000 -999.25000 -999.25000 -999.25000 -999.25000 -999.25000 -999.25000 -999.25000
 2731.00000    2.16400    2.17700    2.16700    2.16300    8.50000    8.57800    0.05000  100.58300  186.96900   29.74000    0.26400    4.99000    0.36900    0.30700    0.31600    2.16500    0.29900   34.86900    0.29900    0.31600    0.29900 -999.25000 -999.25000 -999.25000 -999.25000 -999.25000 -999.25000 -999.25000 -999.25000
 2731.50000    2.15100    2.17600    2.17300    2.16700    8.50000    8.57800    0.05000  100.64100  187.30700   32.25400    0.27400    4.83500    0.36700    0.30700    0.31700    2.16700    0.30000   36.21500    0.30000    0.31700    0.30000 -999.25000 -999.25000 -999.25000 -999.25000 -999.25000 -999.25000 -999.25000 -999.25000
 2732.00000    2.17800    2.17200    2.17500    2.18500    8.50000    8.57800    0.05200  100.71300  186.55700   28.31300    0.26900    4.89300    0.37000    0.30800    0.32000    2.17700    0.30100   36.15100    0.30100    0.32000    0.30100 -999.25000 -999.25000 -999.25000 -999.25000 -999.25000 -999.25000 -999.25000 -999.25000
 2732.50000    2.17600    2.17900    2.18600    2.18500    8.50000    8.57800    0.05200   99.78400  186.32100   33.17500    0.25900    4.91100    0.37200    0.31100    0.32400    2.18000    0.30600   36.39200    0.30600    0.32400    0.30600 -999.25000 -999.25000 -999.25000 -999.25000 -999.25000 -999.25000 -999.25000 -999.25000
 2733.00000    2.19600    2.18200    2.18100    2.19200    8.50000    8.57800    0.05500   99.20300  185.56100   31.00100    0.25600    4.96800    0.36900    0.31300    0.32500    2.18600    0.30600   35.69400    0.30600    0.32500    0.30600 -999.25000 -999.25000 -999.25000 -999.25000 -999.25000 -999.25000 -999.25000 -999.25000
 2733.50000    2.19100    2.18900    2.19900    2.19600    8.50000    8.54700    0.05500   98.86900  185.16800   28.77600    0.26400    4.87600    0.38100    0.31700    0.32900    2.19300    0.31200   34.35500    0.31200    0.32900    0.31200 -999.25000 -999.25000 -999.25000 -999.25000 -999.25000 -999.25000 -999.25000 -999.25000
 2734.00000    2.18000    2.17700    2.19900    2.18900    8.50000    8.57800    0.05400   99.24200  185.62700   30.60700    0.25200    4.89200    0.37400    0.32700    0.32600    2.18700    0.30900   33.59300    0.30900    0.32600    0.30900 -999.25000 -999.25000 -999.25000 -999.25000 -999.25000 -999.25000 -999.25000 -999.25000
 2734.50000    2.18500    2.20100    2.21600    2.19900    8.50000    8.57800    0.05700   99.38200  186.46400   33.05900    0.25200    4.90600    0.37400    0.33500    0.33000    2.20400    0.30800   33.06400    0.30800    0.33000    0.30800 -999.25000 -999.25000 -999.25000 -999.25000 -999.25000 -999.25000 -999.25000 -999.25000
 2735.00000    2.20800    2.20700    2.21200    2.21200    8.50000    8.54700    0.06100   99.61700  182.63200   30.84200    0.25000    4.95700    0.37600    0.33600    0.33900    2.21000    0.31900   31.83700    0.31900    0.33900    0.31900 -999.25000 -999.25000 -999.25000 -999.25000 -999.25000 -999.25000 -999.25000 -999.25000
 2735.50000    2.21200    2.21000    2.21300    2.20300    8.50000    8.57800    0.06000   99.43600  182.99800   28.62100    0.25300    5.04800    0.37800    0.33300    0.34200    2.20600    0.31400   31.91200    0.31400    0.34200    0.31400 -999.25000 -999.25000 -999.25000 -999.25000 -999.25000 -999.25000 -999.25000 -999.25000
 2736.00000    2.19600    2.20200    2.21700    2.20400    8.50000    8.57800    0.05400   99.24600  177.14700   29.81900    0.23900    4.94400    0.38200    0.33100    0.34500    2.20500    0.32000   31.46600    0.32000    0.34500    0.32000 -999.25000 -999.25000 -999.25000 -999.25000 -999.25000 -999.25000 -999.25000 -999.25000
 2736.50000    2.19700    2.21800    2.21500    2.22200    8.50000    8.57800    0.05700   98.04300  176.76600   30.64400    0.25600    4.92300    0.37900    0.33000    0.34200    2.21200    0.31500   31.24500    0.31500    0.34200    0.31500 -999.25000 -999.25000 -999.25000 -999.25000 -999.25000 -999.25000 -999.25000 -999.25000
 2737.00000    2.21800    2.20000    2.20100    2.21200    8.50000    8.62500    0.05600   99.15600  181.92300   33.73100    0.25000    4.96800    0.38300    0.32700    0.34000    2.20700    0.31000   29.24600    0.31000    0.34000    0.31000 -999.25000 -999.25000 -999.25000 -999.25000 -999.25000 -999.25000 -999.25000 -999.25000
 2737.50000    2.20200    2.20400    2.18600    2.19800    8.50000    8.57800    0.05100   98.83300  186.79500   30.92500    0.25100    5.11000    0.40600    0.32600    0.34300    2.19600    0.31100   16.86600    0.31100    0.34300    0.31100 -999.25000 -999.25000 -999.25000 -999.25000 -999.25000 -999.25000 -999.25000 -999.25000
 2738.00000    2.19000    2.21400    2.19500    2.20900    8.50000    8.57800    0.05100   99.12300  187.65900   31.15900    0.25700    4.87000    0.40300    0.32700    0.33800    2.20000    0.30100   17.25800    0.30100    0.33800    0.30100 -999.25000 -999.25000 -999.25000 -999.25000 -999.25000 -999.25000 -999.25000 -999.25000
