~Version ---------------------------------------------------
VERS.   2.0 : CWLS log ASCII Standard -VERSION 2.0
WRAP.    NO : One line per depth step
DLM . SPACE : Column Data Section Delimiter
~Well ------------------------------------------------------
STRT.ft          145.90000 : START DEPTH
STOP.ft         3681.90000 : STOP DEPTH
STEP.ft            0.50000 : STEP
NULL.              -999.25 : NULL VALUE
COMP. Statoil Petroleum AS : COMPANY
WELL.           15/9-F-1 A : WELL
FLD .                VOLVE : FIELD
LOC .      Maersk Inspirer : LOCATION
PROV.                      : PROVINCE
CNTY.               Unused : COUNTY
STAT.                      : STATE
CTRY.                      : COUNTRY
SRVC.                      : SERVICE COMPANY
DATE.                      : DATE
UWI .                      : UNIQUE WELL ID
API .                      : API NUMBER
~Curve Information -----------------------------------------
DEPT     .ft        : 
ABDCQF01 .g/cm3     : 
ABDCQF02 .g/cm3     : 
ABDCQF03 .g/cm3     : 
ABDCQF04 .g/cm3     : 
BS       .inches    : 
CALI     .inches    : 
DRHO     .g/cm3     : 
DT       .us/ft     : 
DTS      .us/ft     : 
GR       .API       : 
NPHI     .v/v       : 
PEF      .b/elec    : 
RACEHM   .UNKNOWN   : 
RACELM   .UNKNOWN   : 
RHOB     .g/cm3     : 
ROP      .m/hr      : 
RPCEHM   .UNKNOWN   : 
RPCELM   .UNKNOWN   : 
RT       .ohm.m     : 
BVW      .V/V       : 
COAL_FLAG.unitless  : 
KLOGH    .mD        : 
PHIF     .V/V       : 
SAND_FLAG.unitless  : 
SW       .V/V       : 
VCARB    .V/V       : 
VSH      .V/V       : 
~Params ----------------------------------------------------
~Other -----------------------------------------------------
PETROPHYSICAL INTERPRETATION: INPUT

# --- LOG MNEMONICS AND UNITS ---
#Depth          ABDCQF01        ABDCQF02        ABDCQF03        ABDCQF04        BS              CALI            DRHO            DT              DTS             GR              NPHI            PEF             RACEHM          RACELM          RHOB            ROP             RPCEHM          RPCELM          RT
#M              g/cm3           g/cm3           g/cm3           g/cm3           inches          inches          g/cm3           us/ft           us/ft           API             v/v             b/elec          UNKNOWN         UNKNOWN         g/cm3           m/hr            UNKNOWN         UNKNOWN         ohm.m
~ASCII -----------------------------------------------------
# ...
 2667.90000    2.27810    2.29940    2.29790    2.28900    8.50000    8.57820    0.02470   69.61110  148.41810   30.25590    0.06210    5.13830    0.69560    0.48190    2.29860   23.43790    0.89680    0.73960    0.89680 -999.25000 -999.25000 -999.25000 -999.25000 -999.25000 -999.25000 -999.25000 -999.25000
 2668.40000    2.55790    2.58200    2.58630    2.55980    8.50000    8.60150    0.06160   64.72880  141.54990   24.94380    0.04630    6.21720    1.58750    0.55550    2.57390   17.52570   17.86150    2.51330   17.86150 -999.25000 -999.25000 -999.25000 -999.25000 -999.25000 -999.25000 -999.25000 -999.25000
 2668.90000    2.56550    2.57800    2.55880    2.57050    8.50000    8.62500    0.07280   70.16870  145.51660   26.60170    0.12610    5.88980    1.42120    0.52870    2.56350   14.29560   21.18450    2.36580   21.18450 -999.25000 -999.25000 -999.25000 -999.25000 -999.25000 -999.25000 -999.25000 -999.25000
 2669.40000    2.35920    2.31130    2.30650    2.33910    8.50000    8.54680    0.08070   81.70020  157.36740   32.70960    0.22800    4.80160    0.54790    0.42850    2.31200   16.44740    0.98120    0.74460    0.98120 -999.25000 -999.25000 -999.25000 -999.25000 -999.25000 -999.25000 -999.25000 -999.25000
 2669.90000    2.21700    2.23590    2.22410    2.23860    8.50000    8.54690    0.05620   90.75770  167.83780   32.21980    0.23960    4.67760    0.39200    0.38860    2.22580   21.14400    0.39080    0.38550    0.39080 -999.25000 -999.25000 -999.25000 -999.25000 -999.25000 -999.25000 -999.25000 -999.25000
 2670.40000    2.23120    2.21760    2.21150    2.21160    8.50000    8.54690    0.05570   95.59620  175.03620   32.52590    0.26750    4.69590    0.35760    0.38010    2.21390   24.81230    0.35100    0.35510    0.35100 -999.25000 -999.25000 -999.25000 -999.25000 -999.25000 -999.25000 -999.25000 -999.25000
 2670.90000    2.20990    2.24230    2.20540    2.20950    8.50000    8.54690    0.04130   97.49470  180.24230   38.43150    0.29310    4.84520    0.39440    0.41070    2.21300   27.38100    0.36680    0.37450    0.36680 -999.25000 -999.25000 -999.25000 -999.25000 -999.25000 -999.25000 -999.25000 -999.25000
 2671.40000    2.26010    2.28800    2.29410    2.26640    8.50000    8.54690    0.04070   96.86010  184.65460   50.47030    0.29360    5.31210    0.46110    0.46270    2.27750   27.35860    0.52410    0.48600    0.52410 -999.25000 -999.25000 -999.25000 -999.25000 -999.25000 -999.25000 -999.25000 -999.25000
 2671.90000    2.32220    2.35030    2.31590    2.30670    8.50000    8.57800    0.05590   97.45380  189.10960   59.89310    0.32150    5.56650    0.52010    0.49070    2.32000   27.34360    0.69900    0.60150    0.69900 -999.25000 -999.25000 -999.25000 -999.25000 -999.25000 -999.25000 -999.25000 -999.25000
 2672.40000    2.29270    2.27160    2.25560    2.27730    8.50000    8.54690    0.05880  100.53200  187.97570   65.64460    0.32060    5.32700    0.51550    0.46290    2.26570   27.35390    0.56460    0.53120    0.56460 -999.25000 -999.25000 -999.25000 -999.25000 -999.25000 -999.25000 -999.25000 -999.25000
 2672.90000    2.22050    2.20400    2.17800    2.18030    8.50000    8.54690    0.05960  101.43230  177.23480   71.81080    0.33080    5.04400    0.39940    0.41320    2.18390   27.29090    0.41570    0.40490    0.41570 -999.25000 -999.25000 -999.25000 -999.25000 -999.25000 -999.25000 -999.25000 -999.25000
 2673.40000    2.16760    2.16990    2.17500    2.15830    8.50000    8.54690    0.04000  101.11510  171.99780   55.03860    0.30440    5.42980    0.39540    0.42900    2.17010   27.35870    0.33370    0.33150    0.33370 -999.25000 -999.25000 -999.25000 -999.25000 -999.25000 -999.25000 -999.25000 -999.25000
 2673.90000    2.28840    2.35240    2.42140    2.39080    8.50000    8.57810    0.03030   96.18620  168.01580   43.21250    0.17310    6.37340    0.66420    0.62930    2.37960   28.41630    0.41700    0.54160    0.41700 -999.25000 -999.25000 -999.25000 -999.25000 -999.25000 -999.25000 -999.25000 -999.25000
 2674.40000    2.52180    2.48840    2.45650    2.47160    8.50000    8.57810    0.06780   90.41560  173.99920   56.84620    0.26480    6.63470    1.00620    0.73640    2.47210   27.77020    2.13000    1.24630    2.13000 -999.25000 -999.25000 -999.25000 -999.25000 -999.25000 -999.25000 -999.25000 -999.25000
 2674.90000    2.37300    2.31120    2.31100    2.33080    8.50000    8.54690    0.06140   97.32810  178.83670   44.40890    0.41730    6.03290    1.18200    0.88440    2.31880   26.75080    2.11180    1.40940    2.11180 -999.25000 -999.25000 -999.25000 -999.25000 -999.25000 -999.25000 -999.25000 -999.25000
 2675.40000    2.28480    2.27170    2.27990    2.28080    8.50000    8.57810    0.05200  100.90150  180.82990   45.40260    0.42420    5.74410    0.99230    0.88510    2.27490   28.01330    0.89470    0.98050    0.89470 -999.25000 -999.25000 -999.25000 -999.25000 -999.25000 -999.25000 -999.25000 -999.25000
 2675.90000    2.23800    2.24150    2.25110    2.22890    8.50000    8.57800    0.05090  100.52660  180.51420   68.82850    0.36410    5.65340    0.69210    0.70730    2.23850   30.01610    0.63960    0.67600    0.63960 -999.25000 -999.25000 -999.25000 -999.25000 -999.25000 -999.25000 -999.25000 -999.25000
 2676.40000    2.23620    2.24070    2.17420    2.17080    8.50000    8.54690    0.05670   99.42240  178.86690   76.05610    0.34520    5.17930    0.58070    0.57920    2.20590   31.05290    0.52960    0.54540    0.52960 -999.25000 -999.25000 -999.25000 -999.25000 -999.25000 -999.25000 -999.25000 -999.25000
 2676.90000    2.17190    2.17900    2.15420    2.13160    8.50000    8.54690    0.05090  100.40240  178.42340   71.94330    0.30970    4.87790    0.45520    0.46880    2.15300   31.77050    0.51260    0.48250    0.51260 -999.25000 -999.25000 -999.25000 -999.25000 -999.25000 -999.25000 -999.25000 -999.25000
 2677.40000    2.15800    2.14200    2.14660    2.14870    8.50000    8.57800    0.05010  100.09020  180.24960   58.15410    0.32590    5.20370    0.37350    0.41070    2.14540   31.75320    0.48130    0.43870    0.48130 -999.25000 -999.25000 -999.25000 -999.25000 -999.25000 -999.25000 -999.25000 -999.25000
 2677.90000    2.15320    2.13950    2.10980    2.13480    8.50000    8.57800    0.04320   95.20280  184.48210   48.93900    0.36230    5.24450    0.34090    0.38500    2.12670   31.71780    0.35790    0.36930    0.35790 -999.25000 -999.25000 -999.25000 -999.25000 -999.25000 -999.25000 -999.25000 -999.25000
 2678.40000    2.18730    2.20270    2.19820    2.16660    8.50000    8.54690    0.04760   92.41420  190.21330   47.39950    0.29920    5.00210    0.34790    0.37460    2.18510   31.40030    0.36690    0.37410    0.36690 -999.25000 -999.25000 -999.25000 -999.25000 -999.25000 -999.25000 -999.25000 -999.25000
 2678.90000    2.16740    2.15050    2.17980    2.17760    8.50000    8.54690    0.04900   96.67180  193.23880   49.84050    0.28210    4.88320    0.36420    0.37360    2.16750   31.71450    0.35880    0.36630    0.35880 -999.25000 -999.25000 -999.25000 -999.25000 -999.25000 -999.25000 -999.25000 -999.25000
 2679.40000    2.15990    2.14770    2.14630    2.16860    8.50000    8.54690    0.04230   99.08080  193.89020   43.90650    0.28490    4.69280    0.37250    0.36310    2.15450   31.71260    0.37110    0.36740    0.37110 -999.25000 -999.25000 -999.25000 -999.25000 -999.25000 -999.25000 -999.25000 -999.25000
 2679.90000    2.16640    2.16650    2.16060    2.16660    8.50000    8.54700    0.04530   99.40710  192.81850   35.56990    0.28800    4.81130    0.32610    0.34250    2.16270   31.67960    0.32760    0.32620    0.32760 -999.25000 -999.25000 -999.25000 -999.25000 -999.25000 -999.25000 -999.25000 -999.25000
 2680.40000    2.17090    2.16790    2.17620    2.17710    8.50000    8.54700    0.05000   99.83670  189.31030   33.41050    0.26920    4.83550    0.33490    0.34250    2.17150   31.54980    0.34160    0.33970    0.34160 -999.25000 -999.25000 -999.25000 -999.25000 -999.25000 -999.25000 -999.25000 -999.25000
