~Version ---------------------------------------------------
VERS.   2.0 : CWLS log ASCII Standard -VERSION 2.0
WRAP.    NO : One line per depth step
DLM . SPACE : Column Data Section Delimiter
~Well ------------------------------------------------------
STRT.ft          188.50000 : START DEPTH
STOP.ft         4770.50000 : STOP DEPTH
STEP.ft            0.50000 : STEP
NULL.              -999.25 : NULL VALUE
COMP. Statoil Petroleum AS : COMPANY
WELL.          15/9-F-11 B : WELL
FLD .                VOLVE : FIELD
LOC .      Maersk Inspirer : LOCATION
PROV.                      : PROVINCE
CNTY.                      : COUNTY
STAT.                      : STATE
CTRY.                      : COUNTRY
SRVC.                      : SERVICE COMPANY
DATE.                      : DATE
UWI .                      : UNIQUE WELL ID
API .                      : API NUMBER
~Curve Information -----------------------------------------
DEPT     .ft        : 
ABDCQF01 .g/cm3     : 
ABDCQF02 .g/cm3     : 
ABDCQF03 .g/cm3     : 
ABDCQF04 .g/cm3     : 
BS       .inches    : 
CALI     .inches    : 
DRHO     .g/cm3     : 
GR       .API       : 
NPHI     .v/v       : 
PEF      .b/elec    : 
RACEHM   .ohm.m     : 
RACELM   .ohm.m     : 
RD       .ohm.m     : 
RHOB     .g/cm3     : 
RM       .ohm.m     : 
ROP      .m/hr      : 
RPCEHM   .ohm.m     : 
RPCELM   .ohm.m     : 
RT       .ohm.m     : 
BVW      .v/v       : 
CARB_FLAG.unitless  : 
COAL_FLAG.unitless  : 
KLOGH    .mD        : 
PHIF     .v/v       : 
SAND_FLAG.UNKNOWN   : 
SW       .v/v       : 
VSH      .v/v       : 
~Params ----------------------------------------------------
~Other -----------------------------------------------------
PETROPHYSICAL_INTERPRETATION: INPUT

# --- LOG MNEMONICS AND UNITS ---
#Depth     ABDCQF01   ABDCQF02   ABDCQF03   ABDCQF04   BS         CALI       DRHO       GR         NPHI       PEF        RACEHM     RACELM     RD         RHOB       RM         ROP        RPCEHM     RPCELM     RT
#M         g/cm3      g/cm3      g/cm3      g/cm3      inches     inches     g/cm3      API        v/v        b/elec     ohm.m      ohm.m      ohm.m      g/cm3      ohm.m      m/hr       ohm.m      ohm.m      ohm.m
~ASCII -----------------------------------------------------
# ...
 4530.50000    2.21200    2.20100    2.25000    2.20200    8.50000    8.62500    0.04600   27.44300    0.20400    4.40800   14.14300   11.46300   14.90100    2.21800   18.28900   24.97600   18.29000   14.90200   18.28900    0.04300    0.00000    0.00000  182.02000    0.23900    1.00000    0.17900    0.18400
 4531.00000    2.23100    2.21400    2.20400    2.19800    8.50000    8.64900    0.05800   28.20800    0.20000    4.18100   14.44200   10.53500   14.81500    2.20800   18.79300   24.97200   18.79200   14.81500   18.79300    0.04200    0.00000    0.00000  165.69700    0.24100    1.00000    0.17600    0.19000
 4531.50000    2.17700    2.18100    2.18600    2.18300    8.50000    8.62500    0.04400   31.02000    0.21300    4.07100   17.02000   10.35000   15.60600    2.17900   20.73100   24.98300   20.73100   15.60600   20.73100    0.04200    0.00000    0.00000  136.36800    0.25700    1.00000    0.16200    0.21300
 4532.00000    2.19300    2.20600    2.22500    2.19400    8.50000    8.62500    0.05600   32.45000    0.21200    4.23600   32.01400   10.25000   20.33400    2.20200   29.76000   25.02200   29.76000   20.33400   29.76000    0.03600    0.00000    0.00000   91.27600    0.24800    1.00000    0.14400    0.22500
 4532.50000    2.17600    2.26600    2.40400    2.20000    8.50000    8.62500    0.03700   38.30900    0.21200    4.42300 6381.09900    9.98100   26.43300    2.24200   35.96000   25.00600   35.95600   26.43400   35.96000    0.03300    0.00000    0.00000   26.35600    0.23500    1.00000    0.14000    0.27300
 4533.00000    2.18600    2.35900    2.36700    2.30700    8.50000    8.67200    0.02800   45.14600    0.21900    5.06400 6366.77000    8.88700   24.30900    2.28900   50.88600   24.91700   50.89600   24.31100   50.88600    0.02800    0.00000    0.00000    6.46300    0.22100    1.00000    0.12800    0.32900
 4533.50000    2.42800    2.42300    2.45500    2.44400    8.50000    8.62500    0.05800   55.51100    0.22000    5.56700 6373.92200    9.26600   30.77500    2.43000   23.77300   24.93800   23.77400   30.78000   23.77300    0.03500    0.00000    0.00000    0.19100    0.12600    1.00000    0.28000    0.41400
 4534.00000    2.44400    2.46500    2.64300    2.36400    8.50000    8.79700    0.07100   53.22400    0.20700    6.45800    8.90600    9.74500   12.11200    2.49000  107.52900   24.82200   90.42200   12.10600  107.52900    0.05900    0.00000    0.00000    0.14900    0.09200    0.00000    0.63900    0.39500
 4534.50000    2.30200    2.63400    2.59600    2.50300    8.50000    8.78100    0.00900   48.67600    0.22600    7.17600 6381.09900 1980.91000    3.94900    2.54400    2.56700   23.99400    2.56800    3.94900    2.56700    0.06100    0.00000    0.00000    0.18300    0.06100    0.00000    1.00000    0.35800
 4535.00000    2.52300    2.51700    2.29800    2.54400    8.50000    8.67200    0.04500   43.46900    0.21200    5.40000    8.69500   11.77400    8.99400    2.47600    9.48800   24.53200    9.48900    8.99500    9.48800    0.04800    0.00000    0.00000    0.90400    0.09900    0.00000    0.47900    0.31500
 4535.50000    2.47000    2.33200    2.20100    2.41700    8.50000    8.62500    0.04100   41.25600    0.20900    4.82500   28.36300   10.80100   10.86100    2.33800   13.36700   24.95900   13.35900   10.85800   13.36700    0.04800    0.00000    0.00000    8.50900    0.20100    1.00000    0.23800    0.29700
 4536.00000    2.49400    2.22100    2.25000    2.54100    8.50000    8.67200    0.02300   40.45700    0.21500    5.36300   10.51100    6.34900   15.16900    2.35300   78.11000   24.97500   78.05400   15.16700   78.11000    0.04200    0.00000    0.00000    9.25700    0.19800    1.00000    0.21000    0.29100
 4536.50000    2.61800    2.33700    2.21300    2.52500    8.50000    8.67200    0.04100   40.60900    0.20100    5.11300  194.80700    6.72100   23.24400    2.36300   78.37600   25.00700   78.33600   23.24500   78.37600    0.03800    0.00000    0.00000    7.64100    0.18900    1.00000    0.20100    0.29200
 4537.00000    2.80100    2.25100    2.16700    2.35600    8.50000    8.62500    0.08600   33.42400    0.21800    4.43100 6381.09900    7.90500   31.65900    2.29700   22.21300   25.00600   22.21200   31.66300   22.21300    0.03800    0.00000    0.00000   44.65200    0.21800    1.00000    0.17200    0.23300
 4537.50000    2.22700    2.16600    2.17200    2.18200    8.50000    8.62500    0.05200   27.68300    0.20200    4.01000   22.23200    7.06400   15.23100    2.17900   25.15000   25.00600   25.15100   15.23100   25.15000    0.03800    0.00000    0.00000  221.74000    0.25200    1.00000    0.15100    0.18600
 4538.00000    2.18400    2.19000    2.18900    2.18500    8.50000    8.67200    0.06000   24.12000    0.20100    4.25000   50.88800    6.83400   16.81500    2.18500   25.81200   24.88000   25.81200   16.81600   25.81200    0.03700    0.00000    0.00000  388.93500    0.25000    1.00000    0.14900    0.15700
 4538.50000    2.17900    2.18300    2.17500    2.16900    8.50000    8.67200    0.05000   25.76100    0.19800    4.10600   13.42000    6.63300   12.63000    2.17200   23.33100   24.96200   23.33200   12.63100   23.33100    0.03900    0.00000    0.00000  310.59300    0.25300    1.00000    0.15500    0.17000
 4539.00000    2.19200    2.20600    2.19500    2.18800    8.50000    8.64100    0.05600   24.21000    0.19800    4.21200   10.79500    6.76000   11.78900    2.19300   18.92200   24.94500   18.92200   11.78900   18.92200    0.04200    0.00000    0.00000  355.56500    0.24600    1.00000    0.17200    0.15700
 4539.50000    2.18700    2.18900    2.18100    2.20200    8.50000    8.62500    0.04700   24.60900    0.19700    4.30100   10.28400    6.90000   11.99900    2.18600   18.81100   24.96200   18.81000   11.99800   18.81100    0.04200    0.00000    0.00000  345.20900    0.24800    1.00000    0.17100    0.16100
 4540.00000    2.20600    2.17000    2.16900    2.18300    8.50000    8.62500    0.05200   24.25500    0.20100    4.19500   10.37600    7.10400   12.63900    2.17700   19.23900   24.88700   19.23900   12.63900   19.23900    0.04200    0.00000    0.00000  399.93200    0.25300    1.00000    0.16700    0.15800
 4540.50000    2.16900    2.18300    2.18000    2.17100    8.50000    8.65600    0.05200   23.91700    0.19200    4.09800   10.66700    7.31400   12.80400    2.17600   18.67300   25.02800   18.67300   12.80400   18.67300    0.04300    0.00000    0.00000  395.55700    0.24900    1.00000    0.17100    0.15500
 4541.00000    2.17100    2.17400    2.16500    2.17100    8.50000    8.62500    0.04500   23.35400    0.20200    4.08200   11.06600    7.30400   13.16000    2.16700   18.81000   25.01000   18.81000   13.15900   18.81000    0.04300    0.00000    0.00000  499.66600    0.25700    1.00000    0.16700    0.15000
 4541.50000    2.17800    2.18800    2.16600    2.18100    8.50000    8.62500    0.04400   23.52100    0.19900    3.99800   11.13200    7.30000   13.31800    2.17400   18.87400   23.33300   18.87400   13.31800   18.87400    0.04300    0.00000    0.00000  452.55900    0.25300    1.00000    0.16800    0.15200
 4542.00000    2.19100    2.18200    2.18100    2.17100    8.50000    8.62500    0.04600   25.35200    0.20200    3.99300   11.15000    7.15400   13.31700    2.17900   19.18500   17.37600   19.18500   13.31700   19.18500    0.04200    0.00000    0.00000  328.04300    0.25200    1.00000    0.16800    0.16700
 4542.50000    2.18200    2.18200    2.19300    2.16500    8.50000    8.62500    0.05100   27.26200    0.20600    4.13900   11.07800    6.94000   13.11100    2.17900   19.84800   16.09900   19.84800   13.11100   19.84800    0.04200    0.00000    0.00000  244.40700    0.25400    1.00000    0.16500    0.18300
 4543.00000    2.18600    2.18400    2.18900    2.17700    8.50000    8.67200    0.05300   30.71800    0.21300    4.21800   11.31700    6.65100   12.72400    2.18200   20.53200   20.44300   20.53200   12.72300   20.53200    0.04200    0.00000    0.00000  140.82900    0.25600    1.00000    0.16300    0.21100
