~Version ---------------------------------------------------
VERS.   2.0 : CWLS log ASCII Standard -VERSION 2.0
WRAP.    NO : One line per depth step
DLM . SPACE : Column Data Section Delimiter
~Well ------------------------------------------------------
STRT.ft          188.50000 : START DEPTH
STOP.ft         4770.50000 : STOP DEPTH
STEP.ft            0.50000 : STEP
NULL.              -999.25 : NULL VALUE
COMP. Statoil Petroleum AS : COMPANY
WELL.          15/9-F-11 B : WELL
FLD .                VOLVE : FIELD
LOC .      Maersk Inspirer : LOCATION
PROV.                      : PROVINCE
CNTY.                      : COUNTY
STAT.                      : STATE
CTRY.                      : COUNTRY
SRVC.                      : SERVICE COMPANY
DATE.                      : DATE
UWI .                      : UNIQUE WELL ID
API .                      : API NUMBER
~Curve Information -----------------------------------------
DEPT     .ft        : 
ABDCQF01 .g/cm3     : 
ABDCQF02 .g/cm3     : 
ABDCQF03 .g/cm3     : 
ABDCQF04 .g/cm3     : 
BS       .inches    : 
CALI     .inches    : 
DRHO     .g/cm3     : 
GR       .API       : 
NPHI     .v/v       : 
PEF      .b/elec    : 
RACEHM   .ohm.m     : 
RACELM   .ohm.m     : 
RD       .ohm.m     : 
RHOB     .g/cm3     : 
RM       .ohm.m     : 
ROP      .m/hr      : 
RPCEHM   .ohm.m     : 
RPCELM   .ohm.m     : 
RT       .ohm.m     : 
BVW      .v/v       : 
CARB_FLAG.unitless  : 
COAL_FLAG.unitless  : 
KLOGH    .mD        : 
PHIF     .v/v       : 
SAND_FLAG.UNKNOWN   : 
SW       .v/v       : 
VSH      .v/v       : 
~Params ----------------------------------------------------
~Other -----------------------------------------------------
PETROPHYSICAL_INTERPRETATION: INPUT

# --- LOG MNEMONICS AND UNITS ---
#Depth     ABDCQF01   ABDCQF02   ABDCQF03   ABDCQF04   BS         CALI       DRHO       GR         NPHI       PEF        RACEHM     RACELM     RD         RHOB       RM         ROP        RPCEHM     RPCELM     RT
#M         g/cm3      g/cm3      g/cm3      g/cm3      inches     inches     g/cm3      API        v/v        b/elec     ohm.m      ohm.m      ohm.m      g/cm3      ohm.m      m/hr       ohm.m      ohm.m      ohm.m
~ASCII -----------------------------------------------------
# ...
 4634.50000    2.31800    2.23700    2.28100    2.27800    8.50000    8.62500    0.05900   32.64800    0.21400    4.31100    5.15400    4.54900    5.26700    2.27400    5.79000   25.06200    5.79000    5.26700    5.79000    0.06800    0.00000    0.00000   56.93400    0.22400    1.00000    0.30100    0.22700
 4635.00000    2.25300    2.28100    2.32900    2.30400    8.50000    8.62500    0.06700   31.31500    0.20200    4.43400    5.00300    4.33700    5.16800    2.29900    5.81400   25.08500    5.81400    5.16800    5.81400    0.06600    0.00000    0.00000   55.66800    0.21100    1.00000    0.31500    0.21600
 4635.50000    2.29400    2.25100    2.26000    2.26500    8.50000    8.62500    0.05600   26.42000    0.19100    4.19200    4.88300    4.16600    5.04200    2.26100    5.88000   25.06000    5.88000    5.04200    5.88000    0.06600    0.00000    0.00000  150.36000    0.22000    1.00000    0.30100    0.17600
 4636.00000    2.28600    2.27200    2.26800    2.26100    8.50000    8.62500    0.05800   29.45700    0.19500    4.27100    4.75900    3.98100    4.76200    2.26900    5.70400   25.06200    5.70400    4.76200    5.70400    0.06700    0.00000    0.00000   88.45900    0.21900    1.00000    0.30800    0.20000
 4636.50000    2.27200    2.31100    2.35700    2.27500    8.50000    8.62500    0.06300   31.07200    0.19400    4.37200    4.36600    3.77300    4.68900    2.30800    6.13200   25.04100    6.13200    4.68900    6.13200    0.06500    0.00000    0.00000   52.17700    0.20500    1.00000    0.31500    0.21400
 4637.00000    2.39200    2.30500    2.28500    2.29100    8.50000    8.62500    0.06700   32.68700    0.18500    4.24200    4.34800    3.80200    4.28700    2.30300    5.24200   25.09900    5.24200    4.28700    5.24200    0.06900    0.00000    0.00000   38.01100    0.20300    1.00000    0.34000    0.22700
 4637.50000    2.28800    2.28700    2.28300    2.28800    8.50000    8.63900    0.05400   34.65300    0.19900    4.12800    3.58900    3.74100    3.85000    2.28400    4.48800   25.10600    4.48800    3.85000    4.48800    0.07500    0.00000    0.00000   34.17100    0.21500    1.00000    0.34700    0.24300
 4638.00000    2.28500    2.30400    2.32200    2.29900    8.50000    8.67200    0.05300   35.31300    0.21100    4.35100    3.91000    4.15200    2.68900    2.30300    2.15000   25.08100    2.15000    2.68900    2.15000    0.10100    0.00000    0.00000   29.57100    0.21300    1.00000    0.47100    0.24800
 4638.50000    2.34600    2.37400    2.37500    2.33800    8.50000    8.68500    0.06900   48.96600    0.21300    4.68900    3.05100    3.87600    2.79800    2.36000    2.40200   25.05800    2.40100    2.79800    2.40200    0.09700    0.00000    0.00000    2.07100    0.19500    1.00000    0.49500    0.36000
 4639.00000    2.40500    2.48100    2.49600    2.50700    8.50000    8.64100    0.06300   45.30500    0.18900    5.41900    4.42000    4.33300    2.75700    2.47600    2.11700   24.93100    2.11700    2.75700    2.11700    0.08800    0.00000    0.00000    0.66400    0.09900    0.00000    0.88200    0.33000
 4639.50000    2.44900    2.41700    2.43100    2.45200    8.50000    8.62500    0.06900   37.33900    0.15600    4.67900    3.61400    3.45900    4.21100    2.42400    5.97100   24.67700    5.97100    4.21100    5.97100    0.06200    0.00000    0.00000    6.49300    0.15000    1.00000    0.41100    0.26500
 4640.00000    2.44700    2.53500    2.53400    2.49000    8.50000    8.67200    0.06500   34.58700    0.14700    5.04800    3.99500    3.37500    4.38300    2.49500    6.64500   22.72700    6.64500    4.38300    6.64500    0.05600    0.00000    0.00000    6.20000    0.12200    0.00000    0.45900    0.24300
 4640.50000    2.48300    2.55100    2.48700    2.50500    8.50000    8.67200    0.07700   31.86800    0.14300    5.17700    4.13100    3.39900    4.28100    2.50700    5.96100   20.94800    5.96100    4.28100    5.96100    0.05300    1.00000    0.00000    4.68900    0.08200    0.00000    0.65100    0.22000
 4641.00000    2.53000    2.49600    2.50200    2.50000    8.50000    8.67200    0.08300   27.84400    0.15300    4.93700    3.74600    3.32000    4.02400    2.50600    5.13600   17.68900    5.13600    4.02500    5.13600    0.05600    1.00000    0.00000    9.41400    0.08200    0.00000    0.68000    0.18700
 4641.50000    2.49200    2.51000    2.50300    2.49500    8.50000    8.62500    0.07900   38.36400    0.19700    5.13800    3.79600    3.16200    3.58800    2.49000    3.97500   16.08700    3.97600    3.58800    3.97500    0.06500    1.00000    0.00000    1.86800    0.09200    0.00000    0.71500    0.27300
 4642.00000    2.44700    2.27000    2.23800    2.31400    8.50000    8.62500    0.07500   49.32100    0.23400    4.32800    3.56600    3.09400    2.65400    2.29300    2.33500   15.78800    2.33400    2.65400    2.33500    0.10100    0.00000    0.00000    3.45700    0.22600    1.00000    0.44600    0.36300
 4642.50000    2.24400    2.25100    2.24800    2.24400    8.50000    8.62500    0.05500   50.71800    0.23700    4.29900    2.50600    2.67800    2.46800    2.24500    2.51800   17.53300    2.51800    2.46800    2.51800    0.09900    0.00000    0.00000    3.77100    0.24400    1.00000    0.40800    0.37500
 4643.00000    2.26000    2.27100    2.27800    2.24800    8.50000    8.64800    0.05700   48.21800    0.23400    4.40900    2.17200    2.48300    2.20200    2.26300    2.38700   19.46500    2.38700    2.20200    2.38700    0.10100    0.00000    0.00000    5.03800    0.23600    1.00000    0.42600    0.35400
 4643.50000    2.28700    2.28300    2.28500    2.30100    8.50000    8.62500    0.05200   52.73700    0.23800    4.47300    2.01500    2.35600    2.01900    2.28300    2.20300   19.83200    2.20300    2.01900    2.20300    0.10400    0.00000    0.00000    2.11200    0.23100    1.00000    0.45100    0.39100
 4644.00000    2.36100    2.28600    2.27900    2.31800    8.50000    8.62500    0.07100   46.66500    0.22800    4.30100    2.03100    2.31600    1.81800    2.29800    1.71700   19.81600    1.71700    1.81800    1.71700    0.11300    0.00000    0.00000    5.04900    0.22200    1.00000    0.51000    0.34200
 4644.50000    2.27000    2.30800    2.31200    2.34200    8.50000    8.62500    0.06600   43.02100    0.20500    4.21200    1.96300    2.31200    1.71100    2.30500    1.50900   19.54600    1.50900    1.71100    1.50900    0.11700    0.00000    0.00000    7.53700    0.21000    1.00000    0.55800    0.31200
 4645.00000    2.30200    2.33200    2.32500    2.32600    8.50000    8.62500    0.06300   39.20900    0.18200    4.22400    1.91600    2.31700    1.77600    2.32200    1.65000   19.15000    1.65000    1.77600    1.65000    0.11100    0.00000    0.00000   10.95700    0.19500    1.00000    0.56600    0.28000
 4645.50000    2.32600    2.32300    2.33700    2.34400    8.50000    8.62500    0.06300   33.97600    0.15700    4.06700    2.07400    2.40100    1.96300    2.32600    1.90800   18.96100    1.90800    1.96300    1.90800    0.10200    0.00000    0.00000   21.54500    0.18400    1.00000    0.55400    0.23700
 4646.00000    2.32200    2.34800    2.37400    2.31400    8.50000    8.62500    0.06700   32.63400    0.15800    3.97300    2.46200    2.51500    2.46400    2.34300    2.80800   19.09200    2.80800    2.46400    2.80800    0.08600    0.00000    0.00000   24.57800    0.17900    1.00000    0.48300    0.22700
 4646.50000    2.31700    2.31700    2.32400    2.33700    8.50000    8.64900    0.07200   30.59100    0.18100    4.22600    3.03800    2.65100    2.88500    2.31800    3.25800   19.47600    3.25800    2.88500    3.25800    0.08300    0.00000    0.00000   48.17300    0.19600    1.00000    0.42100    0.21000
 4647.00000    2.32100    2.32300    2.33200    2.32000    8.50000    8.64800    0.06100   36.06400    0.15200    3.92600    3.10700    2.66800    3.25000    2.31900    3.97500   19.88400    3.97500    3.25000    3.97500    0.07600    0.00000    0.00000   15.21900    0.18400    1.00000    0.41200    0.25500
