~Version ---------------------------------------------------
VERS.   2.0 : CWLS log ASCII Standard -VERSION 2.0
WRAP.    NO : One line per depth step
DLM . SPACE : Column Data Section Delimiter
~Well ------------------------------------------------------
STRT.ft       145.90000 : START DEPTH
STOP.ft      3464.90000 : STOP DEPTH
STEP.ft         0.50000 : STEP
NULL.           -999.25 : NULL VALUE
COMP. Statoil Petroleum : COMPANY
WELL.        15/9-F-1 B : WELL
FLD .             VOLVE : FIELD
LOC .   Maersk Inspirer : LOCATION
PROV.                   : PROVINCE
CNTY.                   : COUNTY
STAT.                   : STATE
CTRY.                   : COUNTRY
SRVC.                   : SERVICE COMPANY
DATE.                   : DATE
UWI .                   : UNIQUE WELL ID
API .                   : API NUMBER
~Curve Information -----------------------------------------
DEPT     .ft        : 
ABDCQF01 .g/cm3     : 
ABDCQF02 .g/cm3     : 
ABDCQF03 .g/cm3     : 
ABDCQF04 .g/cm3     : 
BS       .inches    : 
CALI     .inches    : 
DRHO     .g/cm3     : 
DT       .us/ft     : 
DTS      .us/ft     : 
GR       .API       : 
NBGRCFM  .API       : 
NPHI     .v/v       : 
PEF      .b/elec    : 
RACEHM   .ohm.m     : 
RACELM   .ohm.m     : 
RD       .ohm.m     : 
RHOB     .g/cm3     : 
RM       .ohm.m     : 
ROP      .m/hr      : 
RPCEHM   .ohm.m     : 
RPCELM   .ohm.m     : 
RT       .ohm.m     : 
BVW      .V/V       : 
CARB_FLAG.V/V       : 
COAL_FLAG.UNITLESS  : 
KLOGH    .mD        : 
PHIF     .V/V       : 
SAND_FLAG.UNITLESS  : 
SW       .V/V       : 
VCARB    .V/V       : 
VSH      .V/V       : 
~Params ----------------------------------------------------
~Other -----------------------------------------------------
PETROPHYSICAL INTERPRETATION: INPUT

# --- LOG MNEMONICS AND UNITS ---
#Depth          ABDCQF01        ABDCQF02        ABDCQF03        ABDCQF04        BS              CALI            DRHO            DT              DTS             GR              NBGRCFM         NPHI            PEF             RACEHM          RACELM          RD              RHOB            RM              ROP             RPCEHM          RPCELM          RT
#M              g/cm3           g/cm3           g/cm3           g/cm3           inches          inches          g/cm3           us/ft           us/ft           API             API             v/v             b/elec          ohm.m           ohm.m           ohm.m           g/cm3           ohm.m           m/hr            ohm.m           ohm.m           ohm.m
~ASCII -----------------------------------------------------
# ...
 3434.90000    2.49700    2.47660    2.50080    2.48150    8.50000    8.69760    0.06100 -999.25000 -999.25000   64.71450 -999.25000    0.21980    6.73700    1.28020    1.34140    1.31700    2.48980    1.26730   30.01860    1.26720    1.31700    1.26720    0.09150    0.00000    0.00000    0.12770    0.09150    0.00000    1.00000    0.00000    0.41160
 3435.40000    2.48190    2.47130    2.48390    2.46270    8.50000    8.69800    0.05440 -999.25000 -999.25000   90.85530 -999.25000    0.21860    6.44890    1.26080    1.34100    1.21250    2.47330    1.06770   29.99730    1.06770    1.21260    1.06770    0.10100    0.00000    0.00000    0.11140    0.10100    0.00000    1.00000    0.00000    0.59210
 3435.90000    2.48640    2.48760    2.48920    2.48970    8.50000    8.69760    0.06250 -999.25000 -999.25000   80.61400 -999.25000    0.21140    6.61150    1.21390    1.31660    1.21520    2.48830    1.11460   29.71300    1.11460    1.21520    1.11460    0.09250    0.00000    0.00000    0.08240    0.09250    0.00000    1.00000    0.00000    0.52150
 3436.40000    2.50240    2.50790    2.49290    2.50130    8.50000    8.69760    0.06600 -999.25000 -999.25000   76.65890 -999.25000    0.20600    6.48590    1.18200    1.27890    1.23090    2.49610    1.17990   29.07710    1.17990    1.23090    1.17990    0.08790    0.00000    0.00000    0.06660    0.08790    0.00000    1.00000    0.00000    0.49430
 3436.90000    2.48440    2.44810    2.44690    2.48030    8.50000    8.69750    0.04620 -999.25000 -999.25000   68.25450 -999.25000    0.21600    6.69610    1.23480    1.27950    1.23540    2.46420    1.23230   28.93510    1.23230    1.23540    1.23230    0.10620    0.00000    0.00000    0.33680    0.10620    0.00000    1.00000    0.00000    0.43600
 3437.40000    2.49230    2.50820    2.49850    2.48430    8.50000    8.69750    0.06630 -999.25000 -999.25000   92.21580 -999.25000    0.22000    6.84250    1.29600    1.37040    1.26590    2.49410    1.14810   28.98740    1.14820    1.26600    1.14820    0.08910    0.00000    0.00000    0.04450    0.08910    0.00000    1.00000    0.00000    0.60130
 3437.90000    2.48010    2.49830    2.48690    2.49250    8.50000    8.69760    0.05650 -999.25000 -999.25000   86.07420 -999.25000    0.20120    6.58000    1.46370    1.47280    1.51580    2.49190    1.53250   27.53630    1.53250    1.51580    1.53250    0.09040    0.00000    0.00000    0.05950    0.09040    0.00000    1.00000    0.00000    0.55910
 3438.40000    2.50010    2.49300    2.48790    2.49850    8.50000    8.66400    0.06210 -999.25000 -999.25000   66.42650 -999.25000    0.17050    6.28660    1.58830    1.54750    1.66770    2.49400    1.72410   27.59220    1.72410    1.66770    1.72410    0.08910    0.00000    0.00000    0.10120    0.08910    0.00000    1.00000    0.00000    0.42370
 3438.90000    2.50760    2.50790    2.51250    2.51200    8.50000    8.69760    0.06540 -999.25000 -999.25000   71.40890 -999.25000    0.16900    6.56370    1.58470    1.50910    1.66060    2.51010    1.77560   28.93710    1.77560    1.66050    1.77560    0.07990    0.00000    0.00000    0.04380    0.07990    0.00000    1.00000    0.00000    0.45820
 3439.40000    2.51560    2.50870    2.52950    2.53500    8.50000    8.69760    0.07580 -999.25000 -999.25000   67.95670 -999.25000    0.17710    6.63270    1.49820    1.43880    1.59690    2.51880    1.78000   29.57710    1.78000    1.59680    1.78000    0.07500    0.00000    0.00000    0.03390    0.07500    0.00000    1.00000    0.00000    0.43430
 3439.90000    2.50000    2.49890    2.50940    2.47470    8.50000    8.69730    0.07380 -999.25000 -999.25000   57.86660 -999.25000 -999.25000    6.73330    1.21070    1.32490    1.33680    2.48860    1.47200   29.67230    1.47170    1.33660    1.47170 -999.25000    0.00000    0.00000 -999.25000 -999.25000    0.00000 -999.25000 -999.25000    0.36490
 3440.40000    2.47330    2.49510    2.45030    2.46230    8.50000    8.69760    0.06400 -999.25000 -999.25000   48.66680 -999.25000 -999.25000    6.46390    1.16100    1.31760    1.32420    2.47350    1.43060   29.52190    1.43060    1.32430    1.43060 -999.25000    0.00000    0.00000 -999.25000 -999.25000 -999.25000 -999.25000 -999.25000    0.30130
 3440.90000    2.43080    2.44210    2.43540    2.42940    8.50000    8.69760    0.06740 -999.25000 -999.25000   58.73980 -999.25000 -999.25000    6.36470    1.38590    1.45970    1.30720    2.43130    1.14390   29.69280    1.14400    1.30730    1.14400 -999.25000    0.00000    0.00000 -999.25000 -999.25000 -999.25000 -999.25000 -999.25000    0.37040
 3441.40000    2.53280    2.50120    2.48940    2.52880    8.50000    8.66370    0.04710 -999.25000 -999.25000   90.70810 -999.25000 -999.25000    6.65970    1.68120    1.59500    1.74900    2.51710    1.81890   29.78500    1.81880    1.74900    1.81880 -999.25000    0.00000    0.00000 -999.25000 -999.25000 -999.25000 -999.25000 -999.25000    0.59060
 3441.90000    2.53240    2.53680    2.54120    2.53580    8.50000 -999.25000    0.05850 -999.25000 -999.25000   91.88980 -999.25000 -999.25000    6.55610    1.75700    1.64200    1.77670    2.52860    1.76430   29.70810    1.76440    1.77680    1.76440 -999.25000    0.00000    0.00000 -999.25000 -999.25000 -999.25000 -999.25000 -999.25000    0.59960
 3442.40000    2.52520    2.53740    2.53120    2.54250    8.50000 -999.25000    0.06520 -999.25000 -999.25000   59.89140 -999.25000 -999.25000    6.40850    1.68480    1.58420    1.80960    2.53340    1.95060   29.55940    1.95050    1.80950    1.95050 -999.25000    0.00000    0.00000 -999.25000 -999.25000 -999.25000 -999.25000 -999.25000    0.37870
 3442.90000 -999.25000 -999.25000 -999.25000 -999.25000    8.50000 -999.25000 -999.25000 -999.25000 -999.25000   53.47600 -999.25000 -999.25000 -999.25000    1.52720    1.49110    1.55440 -999.25000    1.50070   29.48730    1.50070    1.55440    1.50070 -999.25000    0.00000    0.00000 -999.25000 -999.25000 -999.25000 -999.25000 -999.25000    0.33450
 3443.40000 -999.25000 -999.25000 -999.25000 -999.25000    8.50000 -999.25000 -999.25000 -999.25000 -999.25000   51.85610 -999.25000 -999.25000 -999.25000    1.29750    1.41350    1.21880 -999.25000    1.00770   29.62190    1.00770    1.21880    1.00770 -999.25000    0.00000    0.00000 -999.25000 -999.25000 -999.25000 -999.25000 -999.25000    0.32320
 3443.90000 -999.25000 -999.25000 -999.25000 -999.25000    8.50000 -999.25000 -999.25000 -999.25000 -999.25000   47.78570 -999.25000 -999.25000 -999.25000    1.34630    1.36760    1.44250 -999.25000    1.50340   29.79700    1.50340    1.44250    1.50340 -999.25000    0.00000    0.00000 -999.25000 -999.25000 -999.25000 -999.25000 -999.25000    0.29500
 3444.40000 -999.25000 -999.25000 -999.25000 -999.25000    8.50000 -999.25000 -999.25000 -999.25000 -999.25000   49.85750 -999.25000 -999.25000 -999.25000    1.33300    1.35670    1.41290 -999.25000    1.40680   29.88800    1.40680    1.41290    1.40680 -999.25000    0.00000    0.00000 -999.25000 -999.25000 -999.25000 -999.25000 -999.25000    0.30930
 3444.90000 -999.25000 -999.25000 -999.25000 -999.25000    8.50000 -999.25000 -999.25000 -999.25000 -999.25000   51.38570 -999.25000 -999.25000 -999.25000    1.45210    1.32490    1.61490 -999.25000    1.88140   29.97810    1.88150    1.61490    1.88150 -999.25000    0.00000    0.00000 -999.25000 -999.25000 -999.25000 -999.25000 -999.25000    0.31980
 3445.40000 -999.25000 -999.25000 -999.25000 -999.25000    8.50000 -999.25000 -999.25000 -999.25000 -999.25000   51.55430 -999.25000 -999.25000 -999.25000    1.23760    1.16540    1.34980 -999.25000    1.52640   29.39070    1.52610    1.34970    1.52610 -999.25000    0.00000    0.00000 -999.25000 -999.25000 -999.25000 -999.25000 -999.25000    0.32130
 3445.90000 -999.25000 -999.25000 -999.25000 -999.25000    8.50000 -999.25000 -999.25000 -999.25000 -999.25000   43.20300 -999.25000 -999.25000 -999.25000    0.98260    0.98380    1.04030 -999.25000    1.01570   29.16400    1.01560    1.04020    1.01560 -999.25000    0.00000    0.00000 -999.25000 -999.25000 -999.25000 -999.25000 -999.25000    0.26360
