~Version ---------------------------------------------------
VERS.   2.0 : CWLS log ASCII Standard -VERSION 2.0
WRAP.    NO : One line per depth step
DLM . SPACE : Column Data Section Delimiter
~Well ------------------------------------------------------
STRT.ft  239.87760 : START DEPTH
STOP.ft 4186.87760 : STOP DEPTH
STEP.ft    0.50000 : STEP
NULL.      -999.25 : NULL VALUE
COMP. STATOILHYDRO : COMPANY
WELL.    15/9-F-12 : WELL
FLD .        VOLVE : FIELD
LOC .      UNKNOWN : LOCATION
PROV.              : PROVINCE
CNTY.      UNKNOWN : COUNTY
STAT.      UNKNOWN : STATE
CTRY.       Norway : COUNTRY
SRVC.      UNKNOWN : SERVICE COMPANY
DATE.      UNKNOWN : DATE
UWI . NO 15/9-F-12 : UNIQUE WELL ID
API .              : API NUMBER
~Curve Information -----------------------------------------
DEPT     .ft           : 
CARB_FLAG.UNKNOWN      : 
COAL_FLAG.UNKNOWN      : 
DT       .us/ft        : 
GR       .API          : 
NPHI     .v/v_decimal  : 
RD       .UNKNOWN      : 
RHOB     .g/cm3        : 
ROP5_RM  .UNKNOWN      : 
RS       .UNKNOWN      : 
RT       .ohm.m        : 
SAND_FLAG.UNKNOWN      : 
BVW      .v/v_decimal  : 
KLOGH    .mD           : 
PHIF     .v/v_decimal  : 
SW       .v/v_decimal  : 
VSH      .v/v_decimal  : 
~Params ----------------------------------------------------
~Other -----------------------------------------------------
~ASCII -----------------------------------------------------
# ...
 2647.87760 -999.25000 -999.25000   97.84519   39.26170    0.36728    0.30226    2.11817    8.51021    0.61220    0.39448 -999.25000 -999.25000 -999.25000 -999.25000 -999.25000 -999.25000
 2648.37760 -999.25000 -999.25000   98.79278   45.80695    0.30051    0.33864    2.15108    6.17325    0.66910    0.31146 -999.25000 -999.25000 -999.25000 -999.25000 -999.25000 -999.25000
 2648.87760 -999.25000 -999.25000  104.76712   46.16264    0.24646    0.25039    2.16638   19.98939    0.79156    0.28943 -999.25000 -999.25000 -999.25000 -999.25000 -999.25000 -999.25000
 2649.37760 -999.25000 -999.25000  107.32340   58.05462    0.36271    2.33614    2.23285   20.05367    0.62777    0.38464 -999.25000 -999.25000 -999.25000 -999.25000 -999.25000 -999.25000
 2649.87760 -999.25000 -999.25000  110.01907   71.21018    0.37397    0.97717    2.30521   20.08718    1.40077    1.14663 -999.25000 -999.25000 -999.25000 -999.25000 -999.25000 -999.25000
 2650.37760 -999.25000 -999.25000  102.77930   70.80682    0.35190    0.81000    2.36091   24.18009    0.94238    1.04121 -999.25000 -999.25000 -999.25000 -999.25000 -999.25000 -999.25000
 2650.87760 -999.25000 -999.25000  104.20628   71.88955    0.28737    0.91861    2.40329   22.99574    1.28681    1.42336 -999.25000 -999.25000 -999.25000 -999.25000 -999.25000 -999.25000
 2651.37760 -999.25000 -999.25000   92.69700   59.53044    0.26904    0.25546    2.22203   17.60173    2.11661    2.36172 -999.25000 -999.25000 -999.25000 -999.25000 -999.25000 -999.25000
 2651.87760 -999.25000 -999.25000   95.29074   55.10545    0.31821    0.42772    2.10876   19.05050    0.38404    0.33642 -999.25000 -999.25000 -999.25000 -999.25000 -999.25000 -999.25000
 2652.37760 -999.25000 -999.25000   93.46041   51.65709    0.28314    1.07995    2.10192   21.28497    0.34923    0.12533 -999.25000 -999.25000 -999.25000 -999.25000 -999.25000 -999.25000
 2652.87760 -999.25000 -999.25000   88.57784   52.99400    0.25963    0.74000    2.14740   28.72230    0.37530    0.37993 -999.25000 -999.25000 -999.25000 -999.25000 -999.25000 -999.25000
 2653.37760 -999.25000 -999.25000  102.54134   52.39543    0.31030    1.19134    2.19340   27.25616    0.58978    1.00526 -999.25000 -999.25000 -999.25000 -999.25000 -999.25000 -999.25000
 2653.87760 -999.25000 -999.25000   96.69599   59.54166    0.23711    0.89735    2.33568   24.26517    1.25762    2.00980 -999.25000 -999.25000 -999.25000 -999.25000 -999.25000 -999.25000
 2654.37760 -999.25000 -999.25000   94.32852   60.51663    0.38471    0.44945    2.16362   23.55237    0.53889    0.39491 -999.25000 -999.25000 -999.25000 -999.25000 -999.25000 -999.25000
 2654.87760 -999.25000 -999.25000   96.30210   52.81034    0.30813    0.38890    2.13125   23.54600    0.59941    0.40693 -999.25000 -999.25000 -999.25000 -999.25000 -999.25000 -999.25000
 2655.37760 -999.25000 -999.25000   95.46596   52.15025    0.32978    0.64701    2.11948   24.15809    0.49121    0.26913 -999.25000 -999.25000 -999.25000 -999.25000 -999.25000 -999.25000
 2655.87760 -999.25000 -999.25000   94.90393   57.89115    0.33787    0.74706    2.15781   25.16467    0.52974    0.21994 -999.25000 -999.25000 -999.25000 -999.25000 -999.25000 -999.25000
 2656.37760 -999.25000 -999.25000   97.59697   54.88157    0.25899    0.73118    2.18870   25.05270    0.50210    0.37879 -999.25000 -999.25000 -999.25000 -999.25000 -999.25000 -999.25000
 2656.87760 -999.25000 -999.25000   98.71070   51.12581    0.29207    0.50580    2.17697   25.11906    0.46707    0.35054 -999.25000 -999.25000 -999.25000 -999.25000 -999.25000 -999.25000
 2657.37760 -999.25000 -999.25000   94.08477   57.47242    0.25674    0.41696    2.24651   25.05917    0.67325    0.42185 -999.25000 -999.25000 -999.25000 -999.25000 -999.25000 -999.25000
 2657.87760 -999.25000 -999.25000   96.48988   53.93947    0.25257    0.31150    2.21111   25.06176    0.89803    0.47917 -999.25000 -999.25000 -999.25000 -999.25000 -999.25000 -999.25000
 2658.37760 -999.25000 -999.25000   98.85582   52.45356    0.26148    0.26619    2.14936   25.05517    0.49081    0.18978 -999.25000 -999.25000 -999.25000 -999.25000 -999.25000 -999.25000
 2658.87760 -999.25000 -999.25000   95.82209   48.98418    0.27817    1.54436    2.13362   25.05270    0.32253    0.11332 -999.25000 -999.25000 -999.25000 -999.25000 -999.25000 -999.25000
 2659.37760 -999.25000 -999.25000   96.87219   45.73510    0.26974    1.86055    2.13674   25.16711    0.28477    0.29524 -999.25000 -999.25000 -999.25000 -999.25000 -999.25000 -999.25000
 2659.87760 -999.25000 -999.25000  114.24639   44.80437    0.26314    0.88627    2.13065   25.05270    0.32965    0.45760 -999.25000 -999.25000 -999.25000 -999.25000 -999.25000 -999.25000
 2660.37760 -999.25000 -999.25000  108.75279   45.70607    0.19049    1.09806    2.29921   25.00864    0.43345    6.67341 -999.25000 -999.25000 -999.25000 -999.25000 -999.25000 -999.25000
 2660.87760 -999.25000 -999.25000  103.48817   42.78864    0.08950    1.09756    2.44236   23.10413    2.76715    2.37906 -999.25000 -999.25000 -999.25000 -999.25000 -999.25000 -999.25000
 2661.37760 -999.25000 -999.25000  107.23645   51.33483    0.16058    0.99570    2.38477   17.34099    6.26193    3.10778 -999.25000 -999.25000 -999.25000 -999.25000 -999.25000 -999.25000
 2661.87760 -999.25000 -999.25000  109.25868   73.24816    0.34152    0.90892    2.36009   16.19342    0.79241    0.81769 -999.25000 -999.25000 -999.25000 -999.25000 -999.25000 -999.25000
 2662.37760 -999.25000 -999.25000  113.41507   73.18650    0.36433    0.78031    2.29941   17.24891    0.66542    0.46463 -999.25000 -999.25000 -999.25000 -999.25000 -999.25000 -999.25000
 2662.87760 -999.25000 -999.25000  116.62753   68.27179    0.29348    0.80199    2.32413   22.17919    0.82624    0.73118 -999.25000 -999.25000 -999.25000 -999.25000 -999.25000 -999.25000
 2663.37760 -999.25000 -999.25000  111.87414   66.75169    0.31555    0.88769    2.29762   25.05270    0.84645    0.76794 -999.25000 -999.25000 -999.25000 -999.25000 -999.25000 -999.25000
 2663.87760 -999.25000 -999.25000  115.09230   69.74163    0.28968    0.90677    2.34804   25.05270    1.01403    0.93788 -999.25000 -999.25000 -999.25000 -999.25000 -999.25000 -999.25000
 2664.37760 -999.25000 -999.25000   98.83095   71.89823    0.24902    0.96304    2.33873   24.71041    1.51800    1.09641 -999.25000 -999.25000 -999.25000 -999.25000 -999.25000 -999.25000
 2664.87760 -999.25000 -999.25000  113.57070   71.13175    0.25764    0.86339    2.20550   24.38400    1.04151    0.86359 -999.25000 -999.25000 -999.25000 -999.25000 -999.25000 -999.25000
 2665.37760 -999.25000 -999.25000  110.97879   72.81638    0.34519    0.83417    2.21865   24.38400    0.70713    0.73188 -999.25000 -999.25000 -999.25000 -999.25000 -999.25000 -999.25000
 2665.87760 -999.25000 -999.25000  110.16358   71.06553    0.28991    1.04446    2.31988   24.73823    0.92246    0.95029 -999.25000 -999.25000 -999.25000 -999.25000 -999.25000 -999.25000
 2666.37760 -999.25000 -999.25000  112.41087   69.45342    0.26093    0.96336    2.23670   23.75000    1.42251    1.24215 -999.25000 -999.25000 -999.25000 -999.25000 -999.25000 -999.25000
 2666.87760 -999.25000 -999.25000  126.60117   66.67337    0.30626    0.79378    2.32022   23.85340    0.87074    0.87391 -999.25000 -999.25000 -999.25000 -999.25000 -999.25000 -999.25000
 2667.37760 -999.25000 -999.25000  107.13007   75.42678    0.33056    0.86567    2.36178   23.76559    0.74898    0.71698 -999.25000 -999.25000 -999.25000 -999.25000 -999.25000 -999.25000
 2667.87760 -999.25000 -999.25000  113.51987   67.24905    0.33151    0.94483    2.38024   25.10883    0.77729    0.77056 -999.25000 -999.25000 -999.25000 -999.25000 -999.25000 -999.25000
 2668.37760 -999.25000 -999.25000  114.51516   63.20360    0.29911    0.97921    2.36195   25.05266    0.79095    0.72755 -999.25000 -999.25000 -999.25000 -999.25000 -999.25000 -999.25000
 2668.87760 -999.25000 -999.25000  109.34098   65.69266    0.28226    1.01916    2.33226   25.03622    0.88992    0.89773 -999.25000 -999.25000 -999.25000 -999.25000 -999.25000 -999.25000
