~Version ---------------------------------------------------
VERS.   2.0 : CWLS log ASCII Standard -VERSION 2.0
WRAP.    NO : One line per depth step
DLM . SPACE : Column Data Section Delimiter
~Well ------------------------------------------------------
STRT.ft          145.90000 : START DEPTH
STOP.ft         3681.90000 : STOP DEPTH
STEP.ft            0.50000 : STEP
NULL.              -999.25 : NULL VALUE
COMP. Statoil Petroleum AS : COMPANY
WELL.           15/9-F-1 A : WELL
FLD .                VOLVE : FIELD
LOC .      Maersk Inspirer : LOCATION
PROV.                      : PROVINCE
CNTY.               Unused : COUNTY
STAT.                      : STATE
CTRY.                      : COUNTRY
SRVC.                      : SERVICE COMPANY
DATE.                      : DATE
UWI .                      : UNIQUE WELL ID
API .                      : API NUMBER
~Curve Information -----------------------------------------
DEPT     .ft        : 
ABDCQF01 .g/cm3     : 
ABDCQF02 .g/cm3     : 
ABDCQF03 .g/cm3     : 
ABDCQF04 .g/cm3     : 
BS       .inches    : 
CALI     .inches    : 
DRHO     .g/cm3     : 
DT       .us/ft     : 
DTS      .us/ft     : 
GR       .API       : 
NPHI     .v/v       : 
PEF      .b/elec    : 
RACEHM   .UNKNOWN   : 
RACELM   .UNKNOWN   : 
RHOB     .g/cm3     : 
ROP      .m/hr      : 
RPCEHM   .UNKNOWN   : 
RPCELM   .UNKNOWN   : 
RT       .ohm.m     : 
BVW      .V/V       : 
COAL_FLAG.unitless  : 
KLOGH    .mD        : 
PHIF     .V/V       : 
SAND_FLAG.unitless  : 
SW       .V/V       : 
VCARB    .V/V       : 
VSH      .V/V       : 
~Params ----------------------------------------------------
~Other -----------------------------------------------------
PETROPHYSICAL INTERPRETATION: INPUT

# --- LOG MNEMONICS AND UNITS ---
#Depth          ABDCQF01        ABDCQF02        ABDCQF03        ABDCQF04        BS              CALI            DRHO            DT              DTS             GR              NPHI            PEF             RACEHM          RACELM          RHOB            ROP             RPCEHM          RPCELM          RT
#M              g/cm3           g/cm3           g/cm3           g/cm3           inches          inches          g/cm3           us/ft           us/ft           API             v/v             b/elec          UNKNOWN         UNKNOWN         g/cm3           m/hr            UNKNOWN         UNKNOWN         ohm.m
~ASCII -----------------------------------------------------
# ...
 3512.90000    2.64140    2.64290    2.63730    2.63290    8.50000    8.67190    0.06340   67.23090  111.07740   40.62830    0.08240    6.20500    3.65000    3.53010    2.63800   23.04510    4.31480    4.01990    4.31480    0.02000    0.00000    0.00120    0.02000    0.00000    1.00000    0.32840    0.28500
 3513.40000    2.62050    2.64500    2.64280    2.64200    8.50000    8.67190    0.08200   67.47510  111.35390   40.45640    0.09710    6.22310    3.16630    3.23760    2.63710   23.64020    3.69170    3.47330    3.69170    0.02000    0.00000    0.00120    0.02000    0.00000    1.00000    0.33090    0.28340
 3513.90000    2.58580    2.58230    2.61880    2.59510    8.50000    8.70310    0.06360   67.38500  111.73980   38.01000    0.09050    6.20840    2.87980    3.02300    2.59600   23.83640    3.15120    3.09680    3.15120    0.03090    0.00000    0.00290    0.03090    0.00000    1.00000    0.32130    0.26120
 3514.40000    2.60700    2.61660    2.63760    2.62550    8.50000    8.67190    0.05350   68.46850  115.37590   51.40090    0.08680    6.18250    2.97470    2.86740    2.62510   23.66910    3.35830    3.19650    3.35830    0.02000    0.00000    0.00100    0.02000    0.00000    1.00000    0.19540    0.38210
 3514.90000    2.62590    2.62230    2.60160    2.60360    8.50000    8.67190    0.05860   70.50900  120.92560   38.22910    0.12110    6.07020    2.99120    2.67060    2.60700   22.97190    3.82800    3.33010    3.82800    0.02460    0.00000    0.00180    0.02460    0.00000    1.00000    0.34330    0.26330
 3515.40000    2.54560    2.49700    2.53590    2.56140    8.50000    8.70310    0.07480   71.88680  122.99390   35.48280    0.10200    5.99820    2.75740    2.46430    2.51910   24.67660    3.77850    3.15970    3.77850    0.06720    0.00000    0.08250    0.07480    0.00000    0.89800    0.18410    0.23860
 3515.90000    2.55730    2.53110    2.55330    2.58290    8.50000    8.72650    0.09510   71.84340  121.32770   34.33230    0.17340    6.29920    2.65270    2.23840    2.55170   26.08530    2.87740    2.62170    2.87740    0.05610    0.00000    0.02180    0.05610    0.00000    1.00000    0.27000    0.22820
 3516.40000    2.53000    2.40650    2.39220    2.47920    8.50000    8.67190    0.06470   67.78330  119.05660   52.54310    0.17030    5.77710    1.92480    1.84240    2.43980   27.61030    2.54540    2.12630    2.54540    0.08460    0.00000    1.14600    0.12010    1.00000    0.70460    0.00000    0.39220
 3516.90000    2.53030    2.46750    2.44170    2.50490    8.50000    8.70300    0.05740   64.45880  117.20720   60.91000    0.14570    5.82900    1.79990    1.63850    2.48250   28.21820    2.83000    2.07820    2.83000    0.07930    0.00000    0.13410    0.09570    0.00000    0.82830    0.00000    0.46760
 3517.40000    2.54240    2.50640    2.41540    2.54130    8.50000    8.64850    0.06050   66.37010  117.41280   61.70110    0.14040    5.67840    2.05990    1.60790    2.48790   28.57220    2.04670    1.87010    2.04670    0.09020    0.00000    0.10330    0.09260    0.00000    0.97380    0.00000    0.47490
 3517.90000    2.57500    2.50950    2.45070    2.53980    8.50000    8.67190    0.04340   70.38960  119.05320   44.02210    0.12300    5.90070    1.90400    1.49110    2.50550   28.31780    3.53290    2.18340    3.53290    0.07030    0.00000    0.10260    0.08260    0.00000    0.85170    0.06850    0.31560
 3518.40000    2.59280    2.54380    2.51380    2.57020    8.50000    8.67190    0.06090   71.98670  118.62090   41.80380    0.12320    5.88150    1.63480    1.50390    2.54400   27.30200    2.38750    1.86280    2.38750    0.06060    0.00000    0.02230    0.06060    0.00000    1.00000    0.16360    0.29540
 3518.90000    2.51730    2.54050    2.54380    2.52390    8.50000    8.70310    0.06170   73.15470  123.42320   51.44630    0.13920    5.91800    1.94540    1.63100    2.53150   27.02040    2.26570    1.98720    2.26570    0.06770    0.00000    0.02520    0.06770    0.00000    1.00000    0.04830    0.38240
 3519.40000    2.49290    2.55870    2.59240    2.50400    8.50000    8.70310    0.06510   73.66270  127.39920   56.22510    0.12570    6.15100    2.29830    1.86170    2.54780   27.49500    1.89950    1.99140    1.89950    0.05840    0.00000    0.01040    0.05840    0.00000    1.00000    0.03610    0.42540
 3519.90000    2.55990    2.57650    2.54090    2.54920    8.50000    8.70310    0.07290   72.34190  126.73160   59.53070    0.16520    5.68100    2.25430    1.80450    2.55140   27.88520    2.38660    2.19730    2.38660    0.05630    0.00000    0.00780    0.05630    0.00000    1.00000    0.01730    0.45520
 3520.40000    2.51340    2.49450    2.51380    2.51660    8.50000    8.68750    0.05700   69.81720  121.96270   55.91820    0.10870    6.05390    1.89540    1.62730    2.50750   28.53670    2.82920    2.14910    2.82920    0.07750    0.00000    0.05760    0.08140    0.00000    0.95140    0.00000    0.42280
 3520.90000    2.55540    2.58240    2.62840    2.58970    8.50000    8.67190    0.05140   68.93600  118.73390   54.28350    0.09480    6.39500    1.98560    1.74910    2.59510   28.55320    1.98300    1.94310    1.98300    0.03140    0.00000    0.00150    0.03140    0.00000    1.00000    0.12950    0.40790
 3521.40000    2.63340    2.65000    2.63850    2.64190    8.50000    8.67190    0.07460   70.02880  119.32640   73.73240    0.09720    6.36320    2.41380    2.01800    2.63640   28.56150    3.18960    2.65080    3.18960    0.02000    0.00000    0.00100    0.02000    0.00000    1.00000    0.01000    0.58310
 3521.90000    2.60960    2.61190    2.60500    2.59540    8.50000    8.67190    0.05800   71.55440  121.16550   45.03840    0.10590    6.29970    2.53400    2.18700    2.60340   26.90160    2.74870    2.58310    2.74870    0.02660    0.00000    0.00160    0.02660    0.00000    1.00000    0.24620    0.32480
 3522.40000    2.60720    2.56360    2.56600    2.56530    8.50000    8.62500    0.06860   71.51160  121.24830   37.12230    0.12720    5.70040    2.53050    2.22090    2.56800   25.15000    2.32310    2.43480    2.32310    0.04690    0.00000    0.00980    0.04690    0.00000    1.00000    0.26990    0.25340
 3522.90000    2.55450    2.56450    2.58910    2.50540    8.50000    8.67190    0.05570   69.95650  120.82630   35.79370    0.13500    5.81650    2.65020    2.19310    2.55920   24.73250    2.28360    2.40820    2.28360    0.05190    0.00000    0.01510    0.05190    0.00000    1.00000    0.26750    0.24140
 3523.40000    2.58580    2.62690    2.66360    2.64520    8.50000    8.67190    0.05630   70.39480  125.18780   43.14050    0.12640    6.46340    2.09360    1.80260    2.64260   24.90970    2.92340    2.36570    2.92340    0.02000    0.00000    0.00110    0.02000    0.00000    1.00000    0.29500    0.30750
 3523.90000    2.64020    2.56270    2.54950    2.61430    8.50000    8.67180    0.09870   74.88730  135.50210   56.54930    0.08810    5.78360    1.69360    1.45720    2.56960   26.46740    2.90820    1.99540    2.90820    0.04580    0.00000    0.00410    0.04580    0.00000    1.00000    0.06760    0.42830
 3524.40000    2.48320    2.38150    2.38070    2.38220    8.50000    8.62500    0.06320   81.68420  146.90810   64.02770    0.16970    5.46870    1.34240    1.21230    2.39180   27.68830    1.30540    1.20430    1.30540    0.11460    0.00000    5.37020    0.14750    1.00000    0.77660    0.00000    0.49570
 3524.90000    2.40490    2.39730    2.38160    2.41330    8.50000    8.62500    0.05360   84.10250  151.59230   45.26100    0.20570    5.68190    0.90230    1.07810    2.39560   24.58940    0.74260    0.86290    0.74260    0.14270    0.00000    9.96750    0.14540    1.00000    0.98150    0.00000    0.32660
 3525.40000    2.41100    2.41640    2.44000    2.42530    8.50000    8.67200    0.05640   81.56100  145.91230   53.93030    0.18560    5.82830    1.10190    1.16550    2.42450   24.67330    1.05230    1.11010    1.05230    0.12250    0.00000    2.06020    0.12890    1.00000    0.95030    0.00000    0.40480
