~Version ---------------------------------------------------
VERS.   2.0 : CWLS log ASCII Standard -VERSION 2.0
WRAP.    NO : One line per depth step
DLM . SPACE : Column Data Section Delimiter
~Well ------------------------------------------------------
STRT.ft       145.90000 : START DEPTH
STOP.ft      4093.90000 : STOP DEPTH
STEP.ft         0.50000 : STEP
NULL.           -999.25 : NULL VALUE
COMP. Statoil Petroleum : COMPANY
WELL.        15/9-F-1 C : WELL
FLD .             VOLVE : FIELD
LOC .   Maersk Inspirer : LOCATION
PROV.                   : PROVINCE
CNTY.                   : COUNTY
STAT.                   : STATE
CTRY.                   : COUNTRY
SRVC.                   : SERVICE COMPANY
DATE.                   : DATE
UWI .                   : UNIQUE WELL ID
API .                   : API NUMBER
~Curve Information -----------------------------------------
DEPT        .ft        : 
ABDCQF01    .g/cm3     : 
ABDCQF02    .g/cm3     : 
ABDCQF03    .g/cm3     : 
ABDCQF04    .g/cm3     : 
BS          .inches    : 
CALI        .inches    : 
DRHO        .g/cm3     : 
GR          .API       : 
NBGRCFM     .API       : 
NPHI        .v/v       : 
PEF         .b/elec    : 
RACEHM      .ohm.m     : 
RACELM      .ohm.m     : 
RD          .ohm.m     : 
RHOB        .g/cm3     : 
RM          .ohm.m     : 
ROP         .m/hr      : 
RPCEHM      .ohm.m     : 
RPCELM      .ohm.m     : 
RT          .ohm.m     : 
BADDATA_FLAG.unitless  : 
BVW         .v/v       : 
COAL_FLAG   .unitless  : 
KLOGH       .mD        : 
PHIF        .v/v       : 
SAND_FLAG   .unitless  : 
SW          .v/v       : 
VCARB       .v/v       : 
VSH         .v/v       : 
~Params ----------------------------------------------------
~Other -----------------------------------------------------
PETROPHYSICAL INTERPRETATION: INPUT

# --- LOG MNEMONICS AND UNITS ---
#Depth          ABDCQF01        ABDCQF02        ABDCQF03        ABDCQF04        BS              CALI            DRHO            GR              NBGRCFM         NPHI            PEF             RACEHM          RACELM          RD              RHOB            RM              ROP             RPCEHM          RPCELM          RT
#M              g/cm3           g/cm3           g/cm3           g/cm3           inches          inches          g/cm3           API             API             v/v             b/elec          ohm.m           ohm.m           ohm.m           g/cm3           ohm.m           m/hr            ohm.m           ohm.m           ohm.m
~ASCII -----------------------------------------------------
# ...
 3670.90000    2.30870    2.31730    2.25130    2.29670    8.50000    8.52430    0.02580   45.28090   48.33580    0.20680    5.51390    4.39140    2.64650    2.53870    2.29120    2.69680   29.96790    2.69620    2.53860    2.69680    0.00000    0.09450    0.00000    4.75450    0.21570    1.00000    0.43820    0.00000    0.33880
 3671.40000    2.31730    2.26830    2.28360    2.26430    8.50000    8.52430    0.02970   52.26300   58.48960    0.21690    5.14050    2.50480    2.46180    2.65550    2.27910    3.52310   29.98660    3.52300    2.65550    3.52310    0.00000    0.08640    0.00000    1.54030    0.22390    1.00000    0.38590    0.00000    0.40040
 3671.90000    2.27330    2.36560    2.49110    2.32070    8.50000    8.60570    0.02820   67.71100   72.46090    0.20520    5.79280    2.35440    2.40100    2.56840    2.36770    3.66990   29.93610    3.67000    2.56850    3.66990    0.00000    0.08460    0.00000    0.04740    0.18890    0.00000    0.44810    0.00000    0.53730
 3672.40000    2.27170    2.42580    2.52240    2.45810    8.50000    8.55690    0.03010   71.58460   78.85760    0.20960    6.29430    2.28710    2.39920    2.43810    2.43180    3.33840   29.97740    3.33830    2.43810    3.33840    0.00000    0.08240    0.00000    0.00720    0.12470    0.00000    0.66080    0.00000    0.57150
 3672.90000    2.48740    2.49480    2.55800    2.53570    8.50000    8.55690    0.05280   71.66050   79.89020    0.20870    6.46210    2.11260    2.47210    2.14750    2.52030    2.44880   29.93890    2.44870    2.14740    2.44880    0.00000    0.07410    0.00000    0.00280    0.07410    0.00000    1.00000    0.00000    0.57220
 3673.40000    2.51950    2.49010    2.43760    2.49390    8.50000    8.52430    0.05150   64.31870   71.65750    0.20150    6.18000    2.29850    2.56890    2.07740    2.47780    2.09550   29.95950    2.09550    2.07740    2.09550    0.00000    0.09370    0.00000    0.01670    0.09840    0.00000    0.95210    0.00000    0.50730
 3673.90000    2.50790    2.42610    2.35530    2.40370    8.50000    8.55690    0.05550   64.67960   69.03860    0.20010    5.67740    2.38520    2.61870    2.27760    2.41600    2.30850   29.96310    2.30850    2.27750    2.30850    0.00000    0.09540    0.00000    0.02990    0.13370    0.00000    0.71330    0.00000    0.51040
 3674.40000    2.48670    2.35890    2.34640    2.37330    8.50000    8.52430    0.04370   57.62500   63.18220    0.20920    5.69890    2.53720    2.65730    2.45510    2.38490    2.57350   29.92040    2.57350    2.45510    2.57350    0.00000    0.09550    0.00000    0.27790    0.18460    1.00000    0.51730    0.00000    0.44810
 3674.90000    2.41570    2.37230    2.30850    2.37070    8.50000    8.52430    0.03640   49.67080   50.69430    0.20350    5.69100    2.63610    2.62690    2.70200    2.35830    3.01560   29.97280    3.01550    2.70200    3.01560    0.00000    0.08880    0.00000    1.35770    0.19140    1.00000    0.46380    0.00000    0.37760
 3675.40000    2.38650    2.33900    2.31570    2.31000    8.50000    8.52430    0.04550   45.40180   50.40770    0.20070    5.14640    3.33520    2.63800    2.74570    2.33070    2.93360   29.77960    2.93370    2.74570    2.93360    0.00000    0.08980    0.00000    3.46330    0.19980    1.00000    0.44970    0.00000    0.33980
 3675.90000    2.29580    2.33230    2.39570    2.34360    8.50000    8.55690    0.04550   48.70500   50.31000    0.20240    5.64360    2.97750    2.56400    2.88870    2.34810    3.87080   29.99020    3.87060    2.88870    3.87080    0.00000    0.08030    0.00000    1.71420    0.19450    1.00000    0.41280    0.00000    0.36910
 3676.40000    2.28220    2.38010    2.39720    2.34540    8.50000    8.55690    0.04060   49.71070   53.20050    0.20700    5.81110    2.37380    2.44020    3.16630    2.36300    5.56830   29.93700    5.56820    3.16630    5.56830    0.00000    0.06910    0.00000    1.34200    0.19120    1.00000    0.36140    0.00000    0.37800
 3676.90000    2.24530    2.39510    2.43230    2.38030    8.50000    8.55690    0.04540   49.20070   50.74750    0.19420    5.86970    2.74670    2.50620    3.16640    2.37610    5.01910   29.98240    5.01910    3.16630    5.01910    0.00000    0.07130    0.00000    1.23440    0.18160    1.00000    0.39240    0.00000    0.37350
 3677.40000    2.26340    2.43010    2.42150    2.40120    8.50000    8.58120    0.04170   49.22140   50.22660    0.18570    5.92200    3.28350    2.58620    3.09000    2.38410    4.00710   29.94940    4.00740    3.09010    4.00710    0.00000    0.07760    0.00000    1.09810    0.17540    1.00000    0.44210    0.00000    0.37370
 3677.90000    2.33730    2.42630    2.34240    2.42760    8.50000    8.55690    0.01880   45.94310   48.41050    0.19050    5.97240    3.21520    2.58270    2.84070    2.38170    3.32190   29.97020    3.32210    2.84080    3.32190    0.00000    0.08350    0.00000    2.10720    0.17820    1.00000    0.46840    0.00000    0.34460
 3678.40000    2.58950    2.43010    2.28880    2.41470    8.50000    8.54060    0.05500   43.17060   46.92940    0.19980    5.88100    2.31280    2.41170    2.78530    2.42060    3.77370   29.96340    3.77400    2.78540    3.77370    0.00000    0.07380    0.00000    1.47220    0.13110    1.00000    0.56340    0.00000    0.32010
 3678.90000    2.52340    2.37570    2.27360    2.40090    8.50000    8.55690    0.04300   41.94190   45.91550    0.19220    5.69680    2.02920    2.36140    2.48510    2.36970    3.32100   29.92460    3.32090    2.48510    3.32100    0.00000    0.08330    0.00000    4.79890    0.18300    1.00000    0.45510    0.00000    0.30920
 3679.40000    2.41330    2.35000    2.22010    2.36860    8.50000    8.55690    0.03840   40.40480   45.10500    0.19440    5.50520    2.07460    2.34780    2.45920    2.32330    3.27680   29.96570    3.27680    2.45920    3.27680    0.00000    0.08510    0.00000    8.65790    0.19980    1.00000    0.42590    0.00000    0.29560
 3679.90000    2.45830    2.26530    2.19630    2.30920    8.50000    8.60550    0.04330   40.01550   39.36180    0.19930    5.28800    2.02930    2.33450    2.50260    2.27810    3.67310   23.54720    3.67310    2.50260    3.67310    0.00000    0.08260    0.00000   12.83100    0.21720    1.00000    0.38040    0.00000    0.29220
 3680.40000    2.41340    2.25390    2.22920    2.27750    8.50000    8.52430    0.04680   39.95020   44.11240    0.20470    5.32940    2.23600    2.43330    2.42060    2.27290    2.89080   20.75790    2.89090    2.42060    2.89080    0.00000    0.09150    0.00000   13.96940    0.22120    1.00000    0.41350    0.00000    0.29160
 3680.90000    2.35360    2.25310    2.22750    2.27250    8.50000    8.52420    0.03640   43.30160   47.07970    0.20920    5.03060    2.27010    2.44140    2.46370    2.26970    3.00590   24.37780    3.00590    2.46370    3.00590    0.00000    0.09080    0.00000    7.96740    0.22410    1.00000    0.40520    0.00000    0.32120
 3681.40000    2.33740    2.24490    2.24080    2.25680    8.50000    8.47560    0.04200   40.44470   47.24990    0.22560    4.94610    2.40500    2.43550    2.70290    2.25870    3.75200   28.80940    3.75180    2.70290    3.75200    0.00000    0.08330    0.00000   16.28800    0.23440    1.00000    0.35560    0.00000    0.29590
 3681.90000    2.28780    2.22930    2.25730    2.24860    8.50000    8.52430    0.04410   41.59390   46.03900    0.22200    5.23000    2.36810    2.39710    2.84090    2.24940    4.53980   29.91070    4.53980    2.84090    4.53980    0.00000    0.07740    0.00000   13.61200    0.23610    1.00000    0.32760    0.00000    0.30610
 3682.40000    2.24910    2.24010    2.23630    2.24280    8.50000    8.52430    0.04250   45.00640   47.23270    0.22750    5.26960    2.28750    2.38430    2.64570    2.24030    3.97570   29.95950    3.97570    2.64570    3.97570    0.00000    0.08250    0.00000    8.02940    0.24150    1.00000    0.34170    0.00000    0.33630
 3682.90000    2.23300    2.22940    2.24590    2.23100    8.50000    8.52430    0.03730   46.53500   47.65540    0.23250    5.38140    2.23030    2.38120    2.43470    2.23270    3.34150   29.91490    3.34160    2.43470    3.34150    0.00000    0.08920    0.00000    6.60060    0.24610    1.00000    0.36230    0.00000    0.34990
