~Version ---------------------------------------------------
VERS.   2.0 : CWLS log ASCII Standard -VERSION 2.0
WRAP.    NO : One line per depth step
DLM . SPACE : Column Data Section Delimiter
~Well ------------------------------------------------------
STRT.ft          145.90000 : START DEPTH
STOP.ft         3681.90000 : STOP DEPTH
STEP.ft            0.50000 : STEP
NULL.              -999.25 : NULL VALUE
COMP. Statoil Petroleum AS : COMPANY
WELL.           15/9-F-1 A : WELL
FLD .                VOLVE : FIELD
LOC .      Maersk Inspirer : LOCATION
PROV.                      : PROVINCE
CNTY.               Unused : COUNTY
STAT.                      : STATE
CTRY.                      : COUNTRY
SRVC.                      : SERVICE COMPANY
DATE.                      : DATE
UWI .                      : UNIQUE WELL ID
API .                      : API NUMBER
~Curve Information -----------------------------------------
DEPT     .ft        : 
ABDCQF01 .g/cm3     : 
ABDCQF02 .g/cm3     : 
ABDCQF03 .g/cm3     : 
ABDCQF04 .g/cm3     : 
BS       .inches    : 
CALI     .inches    : 
DRHO     .g/cm3     : 
DT       .us/ft     : 
DTS      .us/ft     : 
GR       .API       : 
NPHI     .v/v       : 
PEF      .b/elec    : 
RACEHM   .UNKNOWN   : 
RACELM   .UNKNOWN   : 
RHOB     .g/cm3     : 
ROP      .m/hr      : 
RPCEHM   .UNKNOWN   : 
RPCELM   .UNKNOWN   : 
RT       .ohm.m     : 
BVW      .V/V       : 
COAL_FLAG.unitless  : 
KLOGH    .mD        : 
PHIF     .V/V       : 
SAND_FLAG.unitless  : 
SW       .V/V       : 
VCARB    .V/V       : 
VSH      .V/V       : 
~Params ----------------------------------------------------
~Other -----------------------------------------------------
PETROPHYSICAL INTERPRETATION: INPUT

# --- LOG MNEMONICS AND UNITS ---
#Depth          ABDCQF01        ABDCQF02        ABDCQF03        ABDCQF04        BS              CALI            DRHO            DT              DTS             GR              NPHI            PEF             RACEHM          RACELM          RHOB            ROP             RPCEHM          RPCELM          RT
#M              g/cm3           g/cm3           g/cm3           g/cm3           inches          inches          g/cm3           us/ft           us/ft           API             v/v             b/elec          UNKNOWN         UNKNOWN         g/cm3           m/hr            UNKNOWN         UNKNOWN         ohm.m
~ASCII -----------------------------------------------------
# ...
 2953.90000    2.60240    2.61800    2.62820    2.62140    8.50000    8.57810    0.04180   61.38240  115.58380    7.69920    0.05100    7.62340    5.93000    6.18830    2.62130   27.76460    6.10810    6.07510    6.10810 -999.25000 -999.25000 -999.25000 -999.25000 -999.25000 -999.25000 -999.25000 -999.25000
 2954.40000    2.64700    2.65380    2.64000    2.62910    8.50000    8.57810    0.05450   62.17700  116.48070    9.00530    0.05490    7.92410    6.20370    6.48540    2.63970   28.00140    6.48970    6.38070    6.48970 -999.25000 -999.25000 -999.25000 -999.25000 -999.25000 -999.25000 -999.25000 -999.25000
 2954.90000    2.62140    2.63240    2.61050    2.62240    8.50000    8.57810    0.05250   63.14300  116.67110    8.04550    0.06570    7.82270    6.41580    6.63110    2.61960   28.11370    6.79290    6.63270    6.79290 -999.25000 -999.25000 -999.25000 -999.25000 -999.25000 -999.25000 -999.25000 -999.25000
 2955.40000    2.60870    2.63060    2.61610    2.62030    8.50000    8.57810    0.05240   63.01550  116.46560    8.65590    0.06110    7.76610    6.45160    6.76810    2.61790   28.59660    6.92410    6.75860    6.92410 -999.25000 -999.25000 -999.25000 -999.25000 -999.25000 -999.25000 -999.25000 -999.25000
 2955.90000    2.61200    2.62640    2.62450    2.60800    8.50000    8.57810    0.04280   62.25660  116.12350    8.60780    0.05580    7.59530    6.43330    6.82280    2.62060   28.86820    6.88580    6.78570    6.88580 -999.25000 -999.25000 -999.25000 -999.25000 -999.25000 -999.25000 -999.25000 -999.25000
 2956.40000    2.60080    2.63020    2.62120    2.60610    8.50000    8.57810    0.03950   61.74130  116.08180    9.47040    0.05600    7.53930    6.44610    6.99970    2.61730   28.78750    6.42520    6.52100    6.42520 -999.25000 -999.25000 -999.25000 -999.25000 -999.25000 -999.25000 -999.25000 -999.25000
 2956.90000    2.63600    2.60730    2.64940    2.62770    8.50000    8.57810    0.04510   62.53490  117.11190    7.22160    0.07290    7.66770    6.42140    7.01040    2.62630   28.10030    6.17070    6.43390    6.17070 -999.25000 -999.25000 -999.25000 -999.25000 -999.25000 -999.25000 -999.25000 -999.25000
 2957.40000    2.60710    2.62640    2.60230    2.62690    8.50000    8.57810    0.04360   63.33840  117.55970    7.55250    0.06490    7.58130    6.49990    7.06780    2.60880   27.93500    6.13990    6.39140    6.13990 -999.25000 -999.25000 -999.25000 -999.25000 -999.25000 -999.25000 -999.25000 -999.25000
 2957.90000    2.61250    2.61310    2.62160    2.61070    8.50000    8.57810    0.04270   62.82270  117.00650    7.53690    0.06030    7.61530    6.40970    7.07950    2.61350   29.10970    6.73520    6.68560    6.73520 -999.25000 -999.25000 -999.25000 -999.25000 -999.25000 -999.25000 -999.25000 -999.25000
 2958.40000    2.60070    2.62310    2.64040    2.61280    8.50000    8.57810    0.04640   62.12060  116.80300   10.50170    0.06400    7.64120    6.34690    6.97160    2.61890   30.01410    6.89300    6.76210    6.89300 -999.25000 -999.25000 -999.25000 -999.25000 -999.25000 -999.25000 -999.25000 -999.25000
 2958.90000    2.61600    2.61540    2.62890    2.60600    8.50000    8.57810    0.04790   62.04970  117.03490    9.00060    0.06280    7.70930    6.40420    7.11720    2.61170   29.69620    6.32660    6.43030    6.32660 -999.25000 -999.25000 -999.25000 -999.25000 -999.25000 -999.25000 -999.25000 -999.25000
 2959.40000    2.63130    2.63980    2.64320    2.63260    8.50000    8.57810    0.04950   61.95330  116.38090    7.81360    0.04950    7.69030    6.41530    7.18090    2.63650   28.60140    6.12520    6.32800    6.12520 -999.25000 -999.25000 -999.25000 -999.25000 -999.25000 -999.25000 -999.25000 -999.25000
 2959.90000    2.64530    2.65040    2.63210    2.65100    8.50000    8.57810    0.05300   61.03330  114.04950   10.19270    0.04560    7.98400    6.41130    7.30440    2.64390   28.43150    6.28420    6.47350    6.28420 -999.25000 -999.25000 -999.25000 -999.25000 -999.25000 -999.25000 -999.25000 -999.25000
 2960.40000    2.63430    2.67170    2.66180    2.65610    8.50000    8.57810    0.06060   60.11260  111.94870    7.25520    0.04310    7.83310    6.59790    7.52110    2.65850   28.01490    6.64280    6.75460    6.64280 -999.25000 -999.25000 -999.25000 -999.25000 -999.25000 -999.25000 -999.25000 -999.25000
 2960.90000    2.64540    2.64800    2.66150    2.64460    8.50000    8.57810    0.05360   59.71230  111.99380    7.25400    0.04460    7.86360    7.03930    7.80650    2.64990   27.12570    6.70820    6.92890    6.70820 -999.25000 -999.25000 -999.25000 -999.25000 -999.25000 -999.25000 -999.25000 -999.25000
 2961.40000    2.64930    2.65560    2.62380    2.64030    8.50000    8.57810    0.05460   59.97860  113.49400    6.80880    0.05190    7.83700    7.43200    8.09580    2.63840   26.76640    7.62100    7.59940    7.62100 -999.25000 -999.25000 -999.25000 -999.25000 -999.25000 -999.25000 -999.25000 -999.25000
 2961.90000    2.62240    2.62160    2.64530    2.60750    8.50000    8.57810    0.04720   60.42740  114.69010    7.23780    0.05200    7.70740    7.78270    8.46720    2.62540   26.62710    8.36640    8.17660    8.36640 -999.25000 -999.25000 -999.25000 -999.25000 -999.25000 -999.25000 -999.25000 -999.25000
 2962.40000    2.65170    2.65850    2.65450    2.63160    8.50000    8.57810    0.04820   60.61350  114.67060    8.74100    0.04160    7.93220    8.06840    8.79970    2.64840   26.33510    8.58490    8.46970    8.58490 -999.25000 -999.25000 -999.25000 -999.25000 -999.25000 -999.25000 -999.25000 -999.25000
 2962.90000    2.62080    2.64220    2.66890    2.62690    8.50000    8.57810    0.04920   59.46580  113.33860    8.62040    0.04480    7.81290    8.37230    9.17390    2.63970   26.34160    8.06850    8.38220    8.06850 -999.25000 -999.25000 -999.25000 -999.25000 -999.25000 -999.25000 -999.25000 -999.25000
 2963.40000    2.63320    2.63670    2.63830    2.63040    8.50000    8.57810    0.04300   58.26770  111.36510    6.35250    0.04260    7.74250    8.76970    9.62850    2.63160   26.27780    7.62990    8.26410    7.62990 -999.25000 -999.25000 -999.25000 -999.25000 -999.25000 -999.25000 -999.25000 -999.25000
 2963.90000    2.63550    2.64420    2.66510    2.62970    8.50000    8.57810    0.05590   57.91100  109.68820    7.13270    0.04380    8.03900    8.95540    9.97760    2.64620   25.90960    9.22890    9.31690    9.22890 -999.25000 -999.25000 -999.25000 -999.25000 -999.25000 -999.25000 -999.25000 -999.25000
 2964.40000    2.61230    2.64130    2.66840    2.63700    8.50000    8.57810    0.04990   57.94700  107.87940    5.58300    0.04040    7.89950    9.59340   10.58540    2.64650   25.62330   10.05410   10.07580   10.05410 -999.25000 -999.25000 -999.25000 -999.25000 -999.25000 -999.25000 -999.25000 -999.25000
 2964.90000    2.65300    2.66030    2.66170    2.66610    8.50000    8.57810    0.04480   57.89740  107.34790    5.86180    0.03290    7.69520   10.35230   11.32140    2.66120   25.79260   10.04470   10.34950   10.04470 -999.25000 -999.25000 -999.25000 -999.25000 -999.25000 -999.25000 -999.25000 -999.25000
 2965.40000    2.68230    2.66030    2.65440    2.65810    8.50000    8.57810    0.05180   57.42980  107.46800    6.53400    0.03010    7.98870   11.25950   12.29160    2.65710   25.71630   11.02290   11.25060   11.02290 -999.25000 -999.25000 -999.25000 -999.25000 -999.25000 -999.25000 -999.25000 -999.25000
 2965.90000    2.65190    2.64010    2.66200    2.62070    8.50000    8.57810    0.04830   56.48840  106.62220    4.48420    0.03390    7.93240   12.06350   12.77230    2.64460   25.76440   11.96760   12.08690   11.96760 -999.25000 -999.25000 -999.25000 -999.25000 -999.25000 -999.25000 -999.25000 -999.25000
 2966.40000    2.62410    2.64370    2.67810    2.66720    8.50000    8.57800    0.05010   56.53180  106.21210    4.87440    0.03580    8.05150   12.71000   13.04640    2.65810   25.80070   14.12850   13.56900   14.12850 -999.25000 -999.25000 -999.25000 -999.25000 -999.25000 -999.25000 -999.25000 -999.25000
