~Version ---------------------------------------------------
VERS.   2.0 : CWLS log ASCII Standard -VERSION 2.0
WRAP.    NO : One line per depth step
DLM . SPACE : Column Data Section Delimiter
~Well ------------------------------------------------------
STRT.ft          145.90000 : START DEPTH
STOP.ft         3681.90000 : STOP DEPTH
STEP.ft            0.50000 : STEP
NULL.              -999.25 : NULL VALUE
COMP. Statoil Petroleum AS : COMPANY
WELL.           15/9-F-1 A : WELL
FLD .                VOLVE : FIELD
LOC .      Maersk Inspirer : LOCATION
PROV.                      : PROVINCE
CNTY.               Unused : COUNTY
STAT.                      : STATE
CTRY.                      : COUNTRY
SRVC.                      : SERVICE COMPANY
DATE.                      : DATE
UWI .                      : UNIQUE WELL ID
API .                      : API NUMBER
~Curve Information -----------------------------------------
DEPT     .ft        : 
ABDCQF01 .g/cm3     : 
ABDCQF02 .g/cm3     : 
ABDCQF03 .g/cm3     : 
ABDCQF04 .g/cm3     : 
BS       .inches    : 
CALI     .inches    : 
DRHO     .g/cm3     : 
DT       .us/ft     : 
DTS      .us/ft     : 
GR       .API       : 
NPHI     .v/v       : 
PEF      .b/elec    : 
RACEHM   .UNKNOWN   : 
RACELM   .UNKNOWN   : 
RHOB     .g/cm3     : 
ROP      .m/hr      : 
RPCEHM   .UNKNOWN   : 
RPCELM   .UNKNOWN   : 
RT       .ohm.m     : 
BVW      .V/V       : 
COAL_FLAG.unitless  : 
KLOGH    .mD        : 
PHIF     .V/V       : 
SAND_FLAG.unitless  : 
SW       .V/V       : 
VCARB    .V/V       : 
VSH      .V/V       : 
~Params ----------------------------------------------------
~Other -----------------------------------------------------
PETROPHYSICAL INTERPRETATION: INPUT

# --- LOG MNEMONICS AND UNITS ---
#Depth          ABDCQF01        ABDCQF02        ABDCQF03        ABDCQF04        BS              CALI            DRHO            DT              DTS             GR              NPHI            PEF             RACEHM          RACELM          RHOB            ROP             RPCEHM          RPCELM          RT
#M              g/cm3           g/cm3           g/cm3           g/cm3           inches          inches          g/cm3           us/ft           us/ft           API             v/v             b/elec          UNKNOWN         UNKNOWN         g/cm3           m/hr            UNKNOWN         UNKNOWN         ohm.m
~ASCII -----------------------------------------------------
# ...
 3239.90000    2.55780    2.57810    2.54630    2.55980    8.50000    8.62490    0.04800   75.20110  136.79280   46.72690    0.13600    7.05100    3.00020    2.98720    2.55680   21.80210    3.62110    3.20080    3.62110 -999.25000 -999.25000 -999.25000 -999.25000 -999.25000 -999.25000 -999.25000 -999.25000
 3240.40000    2.54750    2.55800    2.55870    2.54130    8.50000    8.62500    0.04250   74.27050  135.26840   48.67590    0.12870    6.81570    3.07520    3.02680    2.55000   22.02450    3.55870    3.23110    3.55870 -999.25000 -999.25000 -999.25000 -999.25000 -999.25000 -999.25000 -999.25000 -999.25000
 3240.90000    2.55520    2.54450    2.56850    2.55770    8.50000    8.62500    0.05070   72.17870  132.45500   50.20010    0.12940    6.97520    3.21090    3.07170    2.55710   21.20370    3.59520    3.28880    3.59520 -999.25000 -999.25000 -999.25000 -999.25000 -999.25000 -999.25000 -999.25000 -999.25000
 3241.40000    2.55230    2.53790    2.56570    2.55970    8.50000    8.57820    0.04620   71.27150  131.19270   41.57620    0.13090    6.82790    3.17450    3.05760    2.55330   19.71360    4.25910    3.55460    4.25910 -999.25000 -999.25000 -999.25000 -999.25000 -999.25000 -999.25000 -999.25000 -999.25000
 3241.90000    2.56310    2.56030    2.57600    2.56110    8.50000    8.62500    0.05170   71.43530  129.14400   36.52290    0.13180    6.81420    3.28390    3.09880    2.56410   18.77680    4.35010    3.60170    4.35010 -999.25000 -999.25000 -999.25000 -999.25000 -999.25000 -999.25000 -999.25000 -999.25000
 3242.40000    2.55620    2.56670    2.55370    2.56670    8.50000    8.62500    0.05270   71.62930  128.81440   36.90230    0.13610    6.73630    3.34030    3.11790    2.55730   18.51780    4.38020    3.64740    4.38020 -999.25000 -999.25000 -999.25000 -999.25000 -999.25000 -999.25000 -999.25000 -999.25000
 3242.90000    2.55100    2.54560    2.54680    2.55690    8.50000    8.62500    0.04580   72.31400  130.36430   35.65910    0.15300    6.78610    3.35170    3.18150    2.54610   18.81560    4.46800    3.72070    4.46800 -999.25000 -999.25000 -999.25000 -999.25000 -999.25000 -999.25000 -999.25000 -999.25000
 3243.40000    2.53160    2.54920    2.56000    2.54560    8.50000    8.62500    0.04720   73.41240  131.78100   38.66800    0.15090    6.70430    3.39660    3.23910    2.54700   19.17580    4.06630    3.61630    4.06630 -999.25000 -999.25000 -999.25000 -999.25000 -999.25000 -999.25000 -999.25000 -999.25000
 3243.90000    2.53860    2.56640    2.54090    2.55470    8.50000    8.62500    0.04820   73.84990  134.04620   43.49670    0.14280    6.79730    3.40480    3.29040    2.54740   20.36680    3.79170    3.52390    3.79170 -999.25000 -999.25000 -999.25000 -999.25000 -999.25000 -999.25000 -999.25000 -999.25000
 3244.40000    2.53000    2.54670    2.56060    2.54560    8.50000    8.62500    0.05160   73.52990  134.20000   44.29920    0.13420    6.68150    3.33300    3.27910    2.54670   21.25740    3.93400    3.57490    3.93400 -999.25000 -999.25000 -999.25000 -999.25000 -999.25000 -999.25000 -999.25000 -999.25000
 3244.90000    2.54960    2.53120    2.54510    2.53440    8.50000    8.57820    0.04340   73.07700  132.45690   42.67250    0.13120    6.65420    3.29210    3.26500    2.53620   21.08620    4.11660    3.61590    4.11660 -999.25000 -999.25000 -999.25000 -999.25000 -999.25000 -999.25000 -999.25000 -999.25000
 3245.40000    2.53040    2.52690    2.52870    2.53210    8.50000    8.62500    0.03940   72.88290  131.45650   39.46730    0.13500    6.48810    3.31370    3.24920    2.52820   20.21250    4.12680    3.60000    4.12680 -999.25000 -999.25000 -999.25000 -999.25000 -999.25000 -999.25000 -999.25000 -999.25000
 3245.90000    2.53680    2.54700    2.58180    2.54320    8.50000    8.57820    0.04970   72.93110  130.67670   38.35990    0.14470    6.91240    3.34800    3.23160    2.55510   19.19130    4.02150    3.55540    4.02150 -999.25000 -999.25000 -999.25000 -999.25000 -999.25000 -999.25000 -999.25000 -999.25000
 3246.40000    2.56410    2.57860    2.56540    2.56840    8.50000    8.62500    0.05920   72.86230  130.51050   39.59480    0.14010    6.98200    3.30070    3.21240    2.56550   18.65680    4.29800    3.65560    4.29800 -999.25000 -999.25000 -999.25000 -999.25000 -999.25000 -999.25000 -999.25000 -999.25000
 3246.90000    2.55530    2.55160    2.53630    2.53690    8.50000    8.62500    0.04570   72.62240  130.65330   40.51400    0.14810    6.54770    3.31210    3.21310    2.54030   18.84810    4.15350    3.59870    4.15350 -999.25000 -999.25000 -999.25000 -999.25000 -999.25000 -999.25000 -999.25000 -999.25000
 3247.40000    2.55240    2.54550    2.53930    2.54010    8.50000    8.62500    0.04830   72.64430  131.77810   41.45390    0.14810    6.69630    3.28960    3.22610    2.54050   18.68730    4.03720    3.55500    4.03720 -999.25000 -999.25000 -999.25000 -999.25000 -999.25000 -999.25000 -999.25000 -999.25000
 3247.90000    2.55440    2.54580    2.55610    2.54630    8.50000    8.62500    0.04830   73.37010  133.44610   45.16150    0.15190    6.73060    3.26970    3.23630    2.54900   18.72440    3.94340    3.52380    3.94340 -999.25000 -999.25000 -999.25000 -999.25000 -999.25000 -999.25000 -999.25000 -999.25000
 3248.40000    2.54370    2.54700    2.56440    2.55140    8.50000    8.62500    0.04570   74.00160  135.22700   45.87190    0.15160    6.75250    3.26180    3.22550    2.54990   19.42440    3.88070    3.48480    3.88070 -999.25000 -999.25000 -999.25000 -999.25000 -999.25000 -999.25000 -999.25000 -999.25000
 3248.90000    2.55410    2.54980    2.54920    2.54930    8.50000    8.62500    0.04640   74.04420  136.61670   45.29270    0.15050    6.79600    3.23780    3.19320    2.54730   20.87250    3.97530    3.51080    3.97530 -999.25000 -999.25000 -999.25000 -999.25000 -999.25000 -999.25000 -999.25000 -999.25000
 3249.40000    2.54240    2.53710    2.54160    2.55320    8.50000    8.62500    0.04290   74.07680  135.81270   43.66430    0.14650    6.72280    3.23330    3.15600    2.54090   20.69080    4.03670    3.52710    4.03670 -999.25000 -999.25000 -999.25000 -999.25000 -999.25000 -999.25000 -999.25000 -999.25000
 3249.90000    2.55920    2.55370    2.55620    2.56390    8.50000    8.62500    0.05650   73.88120  133.84180   38.19840    0.13430    7.08190    3.24900    3.14930    2.55650   19.22760    4.07280    3.52060    4.07280 -999.25000 -999.25000 -999.25000 -999.25000 -999.25000 -999.25000 -999.25000 -999.25000
 3250.40000    2.53940    2.56400    2.56650    2.55470    8.50000    8.62500    0.04690   73.21610  131.70940   39.23320    0.13610    6.81990    3.23880    3.12940    2.55530   17.29050    4.15880    3.55050    4.15880 -999.25000 -999.25000 -999.25000 -999.25000 -999.25000 -999.25000 -999.25000 -999.25000
 3250.90000    2.55650    2.56740    2.58140    2.57660    8.50000    8.62500    0.06080   72.83870  130.75630   41.80090    0.13830    7.09470    3.25000    3.12200    2.57120   19.13600    4.03990    3.50620    4.03990 -999.25000 -999.25000 -999.25000 -999.25000 -999.25000 -999.25000 -999.25000 -999.25000
 3251.40000    2.55020    2.56920    2.55160    2.58290    8.50000    8.62500    0.05170   72.62720  130.78670   42.38120    0.13760    6.82060    3.23110    3.12890    2.56110   19.35720    3.96300    3.47250    3.96300 -999.25000 -999.25000 -999.25000 -999.25000 -999.25000 -999.25000 -999.25000 -999.25000
 3251.90000    2.54580    2.55670    2.55650    2.55630    8.50000    8.62500    0.04920   72.81220  131.68570   43.92410    0.14120    6.79240    3.17300    3.12910    2.55100   17.56570    4.03400    3.48880    4.03400 -999.25000 -999.25000 -999.25000 -999.25000 -999.25000 -999.25000 -999.25000 -999.25000
 3252.40000    2.53470    2.53950    2.54920    2.55580    8.50000    8.62500    0.04450   73.27560  132.77420   43.21370    0.14210    6.76430    3.20010    3.13350    2.54400   16.00070    3.76350    3.39560    3.76350 -999.25000 -999.25000 -999.25000 -999.25000 -999.25000 -999.25000 -999.25000 -999.25000
