~Version ---------------------------------------------------
VERS.   2.0 : CWLS log ASCII Standard -VERSION 2.0
WRAP.    NO : One line per depth step
DLM . SPACE : Column Data Section Delimiter
~Well ------------------------------------------------------
STRT.ft          145.90000 : START DEPTH
STOP.ft         3681.90000 : STOP DEPTH
STEP.ft            0.50000 : STEP
NULL.              -999.25 : NULL VALUE
COMP. Statoil Petroleum AS : COMPANY
WELL.           15/9-F-1 A : WELL
FLD .                VOLVE : FIELD
LOC .      Maersk Inspirer : LOCATION
PROV.                      : PROVINCE
CNTY.               Unused : COUNTY
STAT.                      : STATE
CTRY.                      : COUNTRY
SRVC.                      : SERVICE COMPANY
DATE.                      : DATE
UWI .                      : UNIQUE WELL ID
API .                      : API NUMBER
~Curve Information -----------------------------------------
DEPT     .ft        : 
ABDCQF01 .g/cm3     : 
ABDCQF02 .g/cm3     : 
ABDCQF03 .g/cm3     : 
ABDCQF04 .g/cm3     : 
BS       .inches    : 
CALI     .inches    : 
DRHO     .g/cm3     : 
DT       .us/ft     : 
DTS      .us/ft     : 
GR       .API       : 
NPHI     .v/v       : 
PEF      .b/elec    : 
RACEHM   .UNKNOWN   : 
RACELM   .UNKNOWN   : 
RHOB     .g/cm3     : 
ROP      .m/hr      : 
RPCEHM   .UNKNOWN   : 
RPCELM   .UNKNOWN   : 
RT       .ohm.m     : 
BVW      .V/V       : 
COAL_FLAG.unitless  : 
KLOGH    .mD        : 
PHIF     .V/V       : 
SAND_FLAG.unitless  : 
SW       .V/V       : 
VCARB    .V/V       : 
VSH      .V/V       : 
~Params ----------------------------------------------------
~Other -----------------------------------------------------
PETROPHYSICAL INTERPRETATION: INPUT

# --- LOG MNEMONICS AND UNITS ---
#Depth          ABDCQF01        ABDCQF02        ABDCQF03        ABDCQF04        BS              CALI            DRHO            DT              DTS             GR              NPHI            PEF             RACEHM          RACELM          RHOB            ROP             RPCEHM          RPCELM          RT
#M              g/cm3           g/cm3           g/cm3           g/cm3           inches          inches          g/cm3           us/ft           us/ft           API             v/v             b/elec          UNKNOWN         UNKNOWN         g/cm3           m/hr            UNKNOWN         UNKNOWN         ohm.m
~ASCII -----------------------------------------------------
# ...
 3304.90000    2.51660    2.51960    2.54360    2.52700    8.50000    8.67190    0.04980   75.18800  134.05980   60.32820    0.16110    6.37000    2.21840    2.23480    2.52650    1.76310    2.37540    2.28510    2.37540 -999.25000 -999.25000 -999.25000 -999.25000 -999.25000 -999.25000 -999.25000 -999.25000
 3305.40000    2.52010    2.51560    2.51510    2.52160    8.50000    8.62500    0.04980   74.52660  133.42370   52.01850    0.17520    6.41490    2.20770    2.19740    2.51680   12.60630    2.35980    2.26590    2.35980 -999.25000 -999.25000 -999.25000 -999.25000 -999.25000 -999.25000 -999.25000 -999.25000
 3305.90000    2.52470    2.52460    2.50290    2.50780    8.50000    8.67180    0.04990   75.21690  134.95950   50.36180    0.16270    6.79280    2.21520    2.19260    2.50980   22.12220    2.30920    2.24250    2.30920 -999.25000 -999.25000 -999.25000 -999.25000 -999.25000 -999.25000 -999.25000 -999.25000
 3306.40000    2.49190    2.50160    2.53400    2.51590    8.50000    8.62500    0.04200   76.69120  136.66360   52.55440    0.15650    6.50100    2.20140    2.17970    2.51230   19.68510    2.32190    2.24750    2.32190 -999.25000 -999.25000 -999.25000 -999.25000 -999.25000 -999.25000 -999.25000 -999.25000
 3306.90000    2.52790    2.52850    2.50910    2.52110    8.50000    8.62500    0.04900   77.45960  138.11900   55.17260    0.15970    6.55830    2.20670    2.16440    2.51610   18.57520    2.32480    2.24870    2.32480 -999.25000 -999.25000 -999.25000 -999.25000 -999.25000 -999.25000 -999.25000 -999.25000
 3307.40000    2.52020    2.53160    2.52720    2.52990    8.50000    8.62500    0.05290   78.16120  138.56960   57.10890    0.15780    6.60040    2.18560    2.16080    2.52580   17.25200    2.38230    2.26910    2.38230 -999.25000 -999.25000 -999.25000 -999.25000 -999.25000 -999.25000 -999.25000 -999.25000
 3307.90000    2.51250    2.51750    2.52350    2.51600    8.50000    8.62500    0.04860   79.14550  135.35010   58.97460    0.16470    6.29400    2.19530    2.15870    2.51580   20.04810    2.38410    2.26780    2.38410 -999.25000 -999.25000 -999.25000 -999.25000 -999.25000 -999.25000 -999.25000 -999.25000
 3308.40000    2.54210    2.51010    2.51720    2.51630    8.50000    8.62500    0.05490   79.62230  138.63990   64.64030    0.16230    6.38520    2.16130    2.13220    2.51710   23.51580    2.43970    2.27930    2.43970 -999.25000 -999.25000 -999.25000 -999.25000 -999.25000 -999.25000 -999.25000 -999.25000
 3308.90000    2.50740    2.50730    2.51330    2.52620    8.50000    8.62500    0.04960   80.25960  142.32930   70.73220    0.16860    6.31390    2.18370    2.13080    2.51040   26.13390    2.31500    2.22520    2.31500 -999.25000 -999.25000 -999.25000 -999.25000 -999.25000 -999.25000 -999.25000 -999.25000
 3309.40000    2.51540    2.50800    2.52120    2.51810    8.50000    8.62500    0.05560   79.87090  141.78360   67.46030    0.17060    6.25870    2.15210    2.09800    2.51240   26.56790    2.25200    2.18600    2.25200 -999.25000 -999.25000 -999.25000 -999.25000 -999.25000 -999.25000 -999.25000 -999.25000
 3309.90000    2.50870    2.51540    2.49830    2.51670    8.50000    8.62500    0.04930   78.59310  140.02950   62.40990    0.16940    6.12620    2.07680    2.06040    2.50650   26.59450    2.29640    2.17280    2.29640 -999.25000 -999.25000 -999.25000 -999.25000 -999.25000 -999.25000 -999.25000 -999.25000
 3310.40000    2.50190    2.50500    2.51640    2.50820    8.50000    8.62500    0.05380   77.67620  140.44010   60.36380    0.17090    6.07430    2.05360    2.05310    2.50580   26.56780    2.25140    2.13180    2.25140 -999.25000 -999.25000 -999.25000 -999.25000 -999.25000 -999.25000 -999.25000 -999.25000
 3310.90000    2.50070    2.50400    2.53020    2.52060    8.50000    8.62500    0.05300   77.11410  140.63980   56.77120    0.16960    6.41980    2.03000    2.02850    2.51230   26.56630    2.25340    2.10780    2.25340 -999.25000 -999.25000 -999.25000 -999.25000 -999.25000 -999.25000 -999.25000 -999.25000
 3311.40000    2.52310    2.53920    2.52750    2.53720    8.50000    8.62500    0.06250   76.93280  138.79730   60.38060    0.17340    6.70390    2.01420    2.02270    2.52670   26.58970    2.20040    2.08740    2.20040 -999.25000 -999.25000 -999.25000 -999.25000 -999.25000 -999.25000 -999.25000 -999.25000
 3311.90000    2.52830    2.51950    2.53820    2.52660    8.50000    8.67180    0.05450   77.49000  133.81380   57.09250    0.17340    6.67370    2.00670    2.05000    2.52580   26.56480    2.14430    2.07300    2.14430 -999.25000 -999.25000 -999.25000 -999.25000 -999.25000 -999.25000 -999.25000 -999.25000
 3312.40000    2.52180    2.52200    2.51700    2.53590    8.50000    8.62500    0.04640   79.27720  125.17720   56.15040    0.18050    6.50970    2.04140    2.08070    2.52070   26.56320    2.10860    2.08300    2.10860 -999.25000 -999.25000 -999.25000 -999.25000 -999.25000 -999.25000 -999.25000 -999.25000
 3312.90000    2.53230    2.52850    2.52540    2.53920    8.50000    8.62500    0.05730   81.47070  126.56040   53.62750    0.18570    6.74940    2.10260    2.10690    2.52810   26.58970    2.17000    2.13180    2.17000 -999.25000 -999.25000 -999.25000 -999.25000 -999.25000 -999.25000 -999.25000 -999.25000
 3313.40000    2.51830    2.52450    2.51520    2.54190    8.50000    8.67180    0.06230   82.35190  138.74270   55.73100    0.17900    6.56100    2.15500    2.14500    2.52300   26.53690    2.23960    2.19070    2.23960 -999.25000 -999.25000 -999.25000 -999.25000 -999.25000 -999.25000 -999.25000 -999.25000
 3313.90000    2.50030    2.49870    2.50690    2.50000    8.50000    8.57820    0.05420   80.79800  141.84010   58.93210    0.17650    6.23040    2.18610    2.15640    2.49800   26.56160    2.33590    2.23880    2.33590 -999.25000 -999.25000 -999.25000 -999.25000 -999.25000 -999.25000 -999.25000 -999.25000
 3314.40000    2.50410    2.50990    2.51360    2.50420    8.50000    8.62500    0.05570   78.01700  141.82170   66.69700    0.16660    6.27690    2.21430    2.17720    2.50720   26.58940    2.40830    2.28770    2.40830 -999.25000 -999.25000 -999.25000 -999.25000 -999.25000 -999.25000 -999.25000 -999.25000
 3314.90000    2.50640    2.50540    2.51750    2.51330    8.50000    8.62500    0.05180   76.10230  142.60490   66.90590    0.17110    6.24940    2.26420    2.19480    2.50880   26.46810    2.40050    2.30400    2.40050 -999.25000 -999.25000 -999.25000 -999.25000 -999.25000 -999.25000 -999.25000 -999.25000
 3315.40000    2.50360    2.49500    2.50120    2.51350    8.50000    8.64850    0.04890   74.99160  139.75670   70.38760    0.16250    6.27860    2.29830    2.22970    2.50120   26.56160    2.44670    2.33040    2.44670 -999.25000 -999.25000 -999.25000 -999.25000 -999.25000 -999.25000 -999.25000 -999.25000
 3315.90000    2.50310    2.51520    2.53340    2.50460    8.50000    8.62500    0.04750   73.82800  131.94110   65.02100    0.16160    6.52530    2.28090    2.24270    2.51760   26.44650    2.51640    2.37640    2.51640 -999.25000 -999.25000 -999.25000 -999.25000 -999.25000 -999.25000 -999.25000 -999.25000
 3316.40000    2.51650    2.55670    2.53390    2.55000    8.50000    8.67190    0.05430   74.81370  133.46690   58.72500    0.15440    6.80850    2.32080    2.26890    2.53710   26.25240    2.50940    2.39720    2.50940 -999.25000 -999.25000 -999.25000 -999.25000 -999.25000 -999.25000 -999.25000 -999.25000
 3316.90000    2.53820    2.51830    2.52100    2.52990    8.50000    8.62500    0.05280   76.26450  137.62930   50.59840    0.15620    6.46680    2.37610    2.28820    2.52270   24.47520    2.47460    2.40700    2.47460 -999.25000 -999.25000 -999.25000 -999.25000 -999.25000 -999.25000 -999.25000 -999.25000
 3317.40000    2.52760    2.52090    2.51020    2.51220    8.50000    8.67180    0.05030   76.73020  133.81630   54.27350    0.15650    6.48470    2.38940    2.32260    2.51280   24.99370    2.47090    2.41540    2.47090 -999.25000 -999.25000 -999.25000 -999.25000 -999.25000 -999.25000 -999.25000 -999.25000
