~Version ---------------------------------------------------
VERS.   2.0 : CWLS log ASCII Standard -VERSION 2.0
WRAP.    NO : One line per depth step
DLM . SPACE : Column Data Section Delimiter
~Well ------------------------------------------------------
STRT.ft          145.90000 : START DEPTH
STOP.ft         3681.90000 : STOP DEPTH
STEP.ft            0.50000 : STEP
NULL.              -999.25 : NULL VALUE
COMP. Statoil Petroleum AS : COMPANY
WELL.           15/9-F-1 A : WELL
FLD .                VOLVE : FIELD
LOC .      Maersk Inspirer : LOCATION
PROV.                      : PROVINCE
CNTY.               Unused : COUNTY
STAT.                      : STATE
CTRY.                      : COUNTRY
SRVC.                      : SERVICE COMPANY
DATE.                      : DATE
UWI .                      : UNIQUE WELL ID
API .                      : API NUMBER
~Curve Information -----------------------------------------
DEPT     .ft        : 
ABDCQF01 .g/cm3     : 
ABDCQF02 .g/cm3     : 
ABDCQF03 .g/cm3     : 
ABDCQF04 .g/cm3     : 
BS       .inches    : 
CALI     .inches    : 
DRHO     .g/cm3     : 
DT       .us/ft     : 
DTS      .us/ft     : 
GR       .API       : 
NPHI     .v/v       : 
PEF      .b/elec    : 
RACEHM   .UNKNOWN   : 
RACELM   .UNKNOWN   : 
RHOB     .g/cm3     : 
ROP      .m/hr      : 
RPCEHM   .UNKNOWN   : 
RPCELM   .UNKNOWN   : 
RT       .ohm.m     : 
BVW      .V/V       : 
COAL_FLAG.unitless  : 
KLOGH    .mD        : 
PHIF     .V/V       : 
SAND_FLAG.unitless  : 
SW       .V/V       : 
VCARB    .V/V       : 
VSH      .V/V       : 
~Params ----------------------------------------------------
~Other -----------------------------------------------------
PETROPHYSICAL INTERPRETATION: INPUT

# --- LOG MNEMONICS AND UNITS ---
#Depth          ABDCQF01        ABDCQF02        ABDCQF03        ABDCQF04        BS              CALI            DRHO            DT              DTS             GR              NPHI            PEF             RACEHM          RACELM          RHOB            ROP             RPCEHM          RPCELM          RT
#M              g/cm3           g/cm3           g/cm3           g/cm3           inches          inches          g/cm3           us/ft           us/ft           API             v/v             b/elec          UNKNOWN         UNKNOWN         g/cm3           m/hr            UNKNOWN         UNKNOWN         ohm.m
~ASCII -----------------------------------------------------
# ...
 3447.90000    2.38980    2.28690    2.25810    2.31110    8.50000    8.54680    0.06480   84.86210  135.93850   61.89730    0.22560    4.72740    0.63150    0.46840    2.30870   27.34400    1.41980    0.74620    1.41980    0.12190    0.00000    0.60340    0.19500    1.00000    0.62510    0.00000    0.41990
 3448.40000    2.25060    2.25150    2.26400    2.25550    8.50000    8.53920    0.04670   83.41370  133.34840   39.29400    0.21730    4.45310    0.46150    0.50260    2.25580   27.36860    0.35660    0.42100    0.35660    0.21300    0.00000   43.43820    0.22530    1.00000    0.94580    0.00000    0.24050
 3448.90000    2.25130    2.25520    2.26710    2.25690    8.50000    8.57800    0.04970   82.70780  132.47080   31.18550    0.22360    4.89930    0.41160    0.48930    2.25520   27.33470    0.35770    0.38490    0.35770    0.21030    0.00000  166.00250    0.22560    1.00000    0.93210    0.00000    0.17610
 3449.40000    2.24200    2.27720    2.36070    2.25980    8.50000    8.57810    0.04400   83.09120  135.42050   32.94470    0.22460    4.95390    0.60190    0.54510    2.29210   27.66230    0.65550    0.61940    0.65550    0.16100    0.00000   84.29060    0.20450    1.00000    0.78720    0.00000    0.19000
 3449.90000    2.25970    2.35480    2.48990    2.32630    8.50000    8.60150    0.05090   83.50830  141.22240   39.71710    0.22680    5.71860    0.81640    0.62060    2.39440   28.33110    1.25080    0.98570    1.25080    0.11600    0.00000    9.44430    0.14610    1.00000    0.79420    0.00000    0.24370
 3450.40000    2.31950    2.49960    2.56980    2.43150    8.50000    8.67180    0.03920   83.53270  144.11130   49.24770    0.23790    6.74740    0.99860    0.68500    2.47880   28.44210    2.00790    1.36520    2.00790    0.08960    0.00000    0.80960    0.09780    0.00000    0.91550    0.01850    0.31940
 3450.90000    2.48840    2.46210    2.50520    2.45340    8.50000    8.67180    0.05950   82.85370  141.42240   65.53720    0.24130    6.17640    1.01840    0.73450    2.46900   25.93460    1.37740    1.13890    1.37740    0.10340    0.00000    0.06160    0.10340    1.00000    1.00000    0.00000    0.44860
 3451.40000    2.44330    2.45750    2.45040    2.46580    8.50000    8.67180    0.04990   82.16850  136.35040   67.94980    0.22070    6.14680    0.85120    0.74320    2.44960   25.40230    1.36580    0.98840    1.36580    0.11310    0.00000    0.05080    0.11450    1.00000    0.98730    0.00000    0.46780
 3451.90000    2.43580    2.41410    2.42180    2.39950    8.50000    8.62510    0.04290   82.91150  137.27250   68.64460    0.22630    6.00460    0.88060    0.82410    2.41080   24.78310    0.71780    0.74970    0.71780    0.13670    0.00000    0.06810    0.13670    1.00000    1.00000    0.00000    0.47340
 3452.40000    2.46790    2.36190    2.35000    2.41940    8.50000    8.60150    0.05370   83.65100  139.24660   47.06770    0.20440    5.15260    0.91780    0.87520    2.38070   24.24130    0.44240    0.61350    0.44240    0.15390    0.00000    3.24470    0.15390    1.00000    1.00000    0.00000    0.30220
 3452.90000    2.35470    2.39610    2.44890    2.40270    8.50000    8.62500    0.05520   83.44370  138.45010   43.79630    0.21640    5.83220    1.09740    0.79910    2.41140   23.90150    1.14910    1.06560    1.14910    0.11930    0.00000    4.03870    0.13630    1.00000    0.87470    0.00000    0.27610
 3453.40000    2.36580    2.43970    2.44490    2.33710    8.50000    8.62500    0.04710   83.13180  138.40900   57.86910    0.22360    5.94040    1.43560    0.78900    2.40770   23.91140    2.86270    1.68100    2.86270    0.08480    0.00000    0.41470    0.13850    1.00000    0.61270    0.00000    0.38780
 3453.90000    2.39700    2.50460    2.53520    2.46040    8.50000    8.67180    0.03200   82.03340  134.31480   83.74420    0.25380    6.53160    1.28920    0.73160    2.48960   23.90910    2.57520    1.68160    2.57520    0.08710    0.00000    0.00250    0.09170    0.00000    0.95020    0.00000    0.59300
 3454.40000    2.52650    2.51310    2.44620    2.54600    8.50000    8.62490    0.05950   79.99660  129.45070   70.04210    0.24990    6.17970    0.79150    0.56020    2.49820   23.89450    2.02770    1.40040    2.02770    0.08670    0.00000    0.02140    0.08670    0.00000    1.00000    0.00000    0.48480
 3454.90000    2.47040    2.30100    2.25040    2.34910    8.50000    8.57810    0.06380   80.31670  132.74070   17.72720    0.20690    4.67720    0.32070    0.42550    2.31630   23.90450    0.24100    0.32340    0.24100    0.19060    0.00000  795.98880    0.19060    1.00000    1.00000    0.00000    0.06930
 3455.40000    2.24470    2.25340    2.23550    2.25210    8.50000    8.62480    0.04450   82.11120  135.38080   11.25850    0.20740    4.68960    0.28170    0.31960    2.24380   23.90200    0.23000    0.22910    0.23000    0.23210    0.00000 4960.21340    0.23210    1.00000    1.00000    0.00000    0.01790
 3455.90000    2.23430    2.26020    2.26630    2.25590    8.50000    8.57810    0.04360   82.91170  134.89570   11.97710    0.20910    4.73320    0.23080    0.26590    2.25610   23.93530    0.21090    0.21540    0.21090    0.22510    0.00000 3871.75100    0.22510    1.00000    1.00000    0.00000    0.02360
 3456.40000    2.26950    2.27030    2.26810    2.27580    8.50000    8.57810    0.05500   83.62330  135.99950   12.90430    0.21010    4.69510    0.21510    0.23530    2.26750   23.87690    0.21620    0.20790    0.21620    0.21860    0.00000 2948.97950    0.21860    1.00000    1.00000    0.00000    0.03100
 3456.90000    2.24200    2.23840    2.26210    2.25410    8.50000    8.57810    0.04380   84.56380  138.45980   13.66330    0.20960    4.74360    0.21530    0.23760    2.24710   23.89510    0.22330    0.20850    0.22330    0.23020    0.00000 3228.11840    0.23020    1.00000    1.00000    0.00000    0.03700
 3457.40000    2.25120    2.27490    2.27790    2.25390    8.50000    8.57810    0.04150   84.65060  139.25520   15.66600    0.21710    5.03390    0.19780    0.27240    2.26850   23.88060    0.23310    0.22820    0.23310    0.21800    0.00000 1852.85940    0.21800    1.00000    1.00000    0.00000    0.05290
 3457.90000    2.28790    2.32400    2.33990    2.31240    8.50000    8.57810    0.03290   82.97680  136.46150   34.22230    0.20390    5.79000    0.28670    0.32630    2.32390   23.89040    0.30170    0.27670    0.30170    0.18630    0.00000   48.88940    0.18630    1.00000    1.00000    0.00000    0.20020
 3458.40000    2.51320    2.34470    2.31520    2.34950    8.50000    8.57820    0.06370   78.72970  131.68890   29.65910    0.22480    5.55580    1.07820    0.63180    2.35210   23.88810    1.25460    0.99950    1.25460    0.11780    0.00000   77.08920    0.17020    1.00000    0.69180    0.00000    0.16390
 3458.90000    2.37130    2.34270    2.43890    2.33790    8.50000    8.57820    0.01470   71.38090  122.95330   27.88630    0.15370    5.78870    1.31750    0.75050    2.37840   23.87360    2.94390    1.80690    2.94390    0.08110    0.00000   78.09090    0.15530    1.00000    0.52220    0.00000    0.14990
 3459.40000    2.58620    2.62410    2.60600    2.61300    8.50000    8.67190    0.05870   66.95180  116.73370   24.76880    0.09400    6.66340    1.27340    0.74710    2.60850   23.89850    3.52270    1.74370    3.52270    0.02370    0.00000   11.55640    0.02370    0.00000    1.00000    0.59030    0.12520
 3459.90000    2.53160    2.42650    2.33720    2.41220    8.50000    8.57810    0.07300   71.98820  122.62140   16.87260    0.13070    5.11990    0.74770    0.60700    2.39670   23.88110    0.71310    0.75680    0.71310    0.13920    0.00000  393.61460    0.14470    1.00000    0.96200    0.14500    0.06250
 3460.40000    2.32710    2.32190    2.32860    2.32240    8.50000    8.57810    0.05100   79.54710  131.60650   17.68450    0.17980    5.05410    0.49940    0.49460    2.32440   23.92560    0.37490    0.44580    0.37490    0.18610    0.00000  738.36600    0.18610    1.00000    1.00000    0.00000    0.06890
