~Version ---------------------------------------------------
VERS.   2.0 : CWLS log ASCII Standard -VERSION 2.0
WRAP.    NO : One line per depth step
DLM . SPACE : Column Data Section Delimiter
~Well ------------------------------------------------------
STRT.ft          145.90000 : START DEPTH
STOP.ft         4684.90000 : STOP DEPTH
STEP.ft            0.50000 : STEP
NULL.              -999.25 : NULL VALUE
COMP. STATOIL PETROLEUM AS : COMPANY
WELL.          15/9-F-15 D : WELL
FLD .                VOLVE : FIELD
LOC .                      : LOCATION
PROV.                      : PROVINCE
CNTY.      MAERSK INSPIRER : COUNTY
STAT.                      : STATE
CTRY.                      : COUNTRY
SRVC.                      : SERVICE COMPANY
DATE.                      : DATE
UWI .                      : UNIQUE WELL ID
API .                      : API NUMBER
~Curve Information -----------------------------------------
DEPT     .ft        : 
ABDCQF01 .g/cm3     : 
ABDCQF02 .g/cm3     : 
ABDCQF03 .g/cm3     : 
ABDCQF04 .g/cm3     : 
BS       .inches    : 
CALI     .inches    : 
DRHO     .g/cm3     : 
GR       .API       : 
NBGRCFM  .API       : 
NPHI     .v/v       : 
PEF      .b/elec    : 
RACEHM   .ohm.m     : 
RACELM   .ohm.m     : 
RD       .ohm.m     : 
RHOB     .g/cm3     : 
RM       .ohm.m     : 
ROP      .m/hr      : 
RPCEHM   .ohm.m     : 
RPCELM   .ohm.m     : 
RT       .ohm.m     : 
BVW      .v/v       : 
COAL_FLAG.unitless  : 
KLOGH    .mD        : 
PHIF     .v/v       : 
SAND_FLAG.unitless  : 
SW       .v/v       : 
VCARB    .v/v       : 
VSH      .v/v       : 
~Params ----------------------------------------------------
~Other -----------------------------------------------------
PETROPHYSICAL INTERPRETATION: INPUT

# --- LOG MNEMONICS AND UNITS ---
#Depth          ABDCQF01        ABDCQF02        ABDCQF03        ABDCQF04        BS              CALI            DRHO            GR              NBGRCFM         NPHI            PEF             RACEHM          RACELM          RD              RHOB            RM              ROP             RPCEHM          RPCELM          RT
#M              g/cm3           g/cm3           g/cm3           g/cm3           inches          inches          g/cm3           API             API             v/v             b/elec          ohm.m           ohm.m           ohm.m           g/cm3           ohm.m           m/hr            ohm.m           ohm.m           ohm.m
~ASCII -----------------------------------------------------
# ...
 4383.40000    2.26990    2.27980    2.28930    2.26300    8.50000    8.54690    0.04770   17.41960   14.04210    0.15450    4.08060    3.25690    2.97260    3.57580    2.27270    4.13480   31.18450    4.13480    3.57580    4.14290    0.07410    0.00000  348.19970    0.20120    1.00000    0.36820    0.00000    0.11860
 4383.90000    2.26990    2.29670    2.28390    2.25630    8.50000    8.54690    0.04960   18.11520   18.02160    0.15200    4.23530    3.34610    3.02800    3.69090    2.27790    4.30290   31.15270    4.30290    3.69090    4.31580    0.07250    0.00000  380.23700    0.19840    1.00000    0.36560    0.00000    0.11190
 4384.40000    2.25830    2.27600    2.26710    2.26600    8.50000    8.54690    0.04280   17.45150   15.57570    0.14950    4.13730    3.53410    3.10120    3.80960    2.26670    4.40870   31.13970    4.40870    3.80960    4.41150    0.07220    0.00000  333.51850    0.20120    1.00000    0.35870    0.00000    0.12070
 4384.90000    2.25640    2.27840    2.27930    2.24560    8.50000    8.54690    0.04500   15.55740   17.22940    0.15260    4.16590    3.56590    3.10470    3.81960    2.26750    4.41120   31.14890    4.41130    3.81960    4.38930    0.07190    0.00000  563.03020    0.20220    1.00000    0.35560    0.00000    0.09630
 4385.40000    2.24340    2.29100    2.31090    2.24500    8.50000    8.54690    0.04680   17.26530   17.30300    0.14950    4.27050    3.69160    3.15380    3.75810    2.27710    4.19750   31.15100    4.19750    3.75810    4.21760    0.07330    0.00000  335.60490    0.19770    1.00000    0.37070    0.00000    0.11730
 4385.90000    2.24160    2.27740    2.28090    2.25360    8.50000    8.54690    0.04560   17.65860   15.79630    0.15290    4.07500    3.62330    3.13290    3.77780    2.26240    4.30410   31.12520    4.30410    3.77780    4.29610    0.07310    0.00000  358.62480    0.20410    1.00000    0.35830    0.00000    0.11980
 4386.40000    2.24530    2.27150    2.32020    2.24660    8.50000    8.54690    0.04670   15.15440   17.35440    0.15440    4.31160    3.56850    3.15610    3.70180    2.27160    4.11270   31.10320    4.11270    3.70180    4.13460    0.07390    0.00000  588.92110    0.20150    1.00000    0.36670    0.00000    0.09350
 4386.90000    2.26570    2.26690    2.27930    2.26450    8.50000    8.54690    0.04540   16.98100   17.19320    0.14570    4.14400    3.67840    3.18200    3.92440    2.27170    4.57940   31.12210    4.57940    3.92440    4.59760    0.07070    0.00000  381.68830    0.19800    1.00000    0.35690    0.00000    0.11140
 4387.40000    2.26500    2.26920    2.27760    2.27500    8.50000    8.54690    0.05190   17.06100   17.03560    0.14590    4.17370    3.82020    3.27730    3.98120    2.27170    4.56780   31.13020    4.56780    3.98120    4.56150    0.07080    0.00000  341.93690    0.19810    1.00000    0.35750    0.00000    0.11670
 4387.90000    2.25550    2.25570    2.27020    2.24380    8.50000    8.54690    0.04920   16.24060   16.55450    0.15550    4.14620    3.92320    3.34400    4.02240    2.25500    4.57090   31.14680    4.57090    4.02240    4.56960    0.07150    0.00000  504.17310    0.20760    1.00000    0.34420    0.00000    0.10650
 4388.40000    2.25450    2.26230    2.27330    2.24560    8.50000    8.54690    0.04190   17.21840   15.92970    0.15640    4.08540    3.96640    3.36830    4.08340    2.25300    4.61430   31.14550    4.61430    4.08340    4.61170    0.07140    0.00000  435.02790    0.20870    1.00000    0.34200    0.00000    0.11450
 4388.90000    2.24310    2.25570    2.24820    2.25340    8.50000    8.54690    0.03990   18.43370   15.23670    0.14520    4.04800    3.95330    3.39180    4.08010    2.24830    4.61730   31.11830    4.61730    4.08010    4.61210    0.07130    0.00000  307.99830    0.20580    1.00000    0.34650    0.00000    0.12870
 4389.40000    2.24460    2.29680    2.28700    2.26590    8.50000    8.54700    0.04890   14.77130   16.60980    0.15050    4.05640    3.99700    3.41030    4.13460    2.27020    4.72980   31.09820    4.72970    4.13460    4.73780    0.06960    0.00000  654.27440    0.20040    1.00000    0.34730    0.00000    0.08750
 4389.90000    2.24350    2.26730    2.28770    2.24400    8.50000    8.54690    0.04710   16.23840   15.94010    0.14650    3.98700    4.03320    3.44530    4.16650    2.26010    4.72960   31.11090    4.72960    4.16650    4.79340    0.07010    0.00000  438.81380    0.20230    1.00000    0.34630    0.00000    0.10840
 4390.40000    2.25690    2.27440    2.30590    2.28240    8.50000    8.54690    0.04600   16.08230   15.33280    0.13950    4.08390    4.00330    3.43030    4.42950    2.27590    5.46260   31.11290    5.46260    4.42950    5.52790    0.06530    0.00000  416.81210    0.19410    1.00000    0.33670    0.00000    0.10360
 4390.90000    2.30310    2.27000    2.30760    2.28160    8.50000    8.54690    0.04240   15.19960   15.03710    0.13320    4.12900    3.93490    3.38410    4.54750    2.28690    5.90710   31.08440    5.90710    4.54750    5.95980    0.06270    0.00000  409.01290    0.18780    1.00000    0.33400    0.00000    0.09890
 4391.40000    2.29830    2.32210    2.31040    2.28010    8.50000    8.54690    0.04920   15.22990   14.42630    0.13560    4.08950    3.87600    3.37370    4.69190    2.30100    6.36620   31.06600    6.36620    4.69190    6.35870    0.06050    0.00000  409.05310    0.18390    1.00000    0.32890    0.00000    0.09550
 4391.90000    2.32780    2.31770    2.27570    2.29030    8.50000    8.54690    0.04320   15.90590   12.96320    0.13510    4.21590    4.15900    3.47360    4.61510    2.29390    5.88230   31.08120    5.88220    4.61500    5.91110    0.06280    0.00000  359.69960    0.18610    1.00000    0.33720    0.00000    0.10370
 4392.40000    2.46830    2.27830    2.27860    2.36190    8.50000    8.54690    0.03070   15.14390   16.23560    0.15350    4.43780    4.13200    3.46090    4.84130    2.31850    6.34460   31.09160    6.34460    4.84130    6.14590    0.06060    0.00000  427.66690    0.18510    1.00000    0.32760    0.00000    0.09440
 4392.90000    2.30200    2.29150    2.27300    2.28490    8.50000    8.54690    0.05050   13.73020   15.46120    0.14040    4.11120    4.34050    3.52800    4.76090    2.28820    6.06850   31.13490    6.06850    4.76080    6.10420    0.06210    0.00000  555.43990    0.19020    1.00000    0.32630    0.00000    0.08630
 4393.40000    2.27390    2.26150    2.27200    2.27490    8.50000    8.54690    0.04420   17.17510   17.11770    0.14690    4.01100    4.14100    3.46980    4.98110    2.26800    6.87490   31.27920    6.87500    4.98110    6.84870    0.06000    0.00000  346.55920    0.19970    1.00000    0.30070    0.00000    0.11760
 4393.90000    2.29430    2.27290    2.30710    2.27460    8.50000    8.54690    0.05230   17.50300   14.23030    0.14600    3.93360    4.15720    3.47490    4.99990    2.29190    6.85840   32.50930    6.85840    4.99990    6.89520    0.05950    0.00000  298.29900    0.19120    1.00000    0.31120    0.00000    0.11720
 4394.40000    2.31210    2.25870    2.29130    2.29410    8.50000    8.54690    0.04380   15.73900   14.85400    0.14550    3.95240    4.29790    3.54850    4.94800    2.28010    6.37070   32.25480    6.37070    4.94800    6.52030    0.06150    0.00000  387.78800    0.19510    1.00000    0.31520    0.00000    0.10800
 4394.90000    2.31260    2.27810    2.27440    2.28100    8.50000    8.54690    0.04690   14.94050   14.97580    0.14730    3.93370    4.34270    3.54350    5.02720    2.28420    6.57260   31.63190    6.57260    5.02720    6.55440    0.06050    0.00000  491.66110    0.19430    1.00000    0.31130    0.00000    0.09590
 4395.40000    2.28920    2.28470    2.26970    2.28610    8.50000    8.54690    0.05060   14.66310   14.64520    0.13720    4.07150    4.31200    3.54730    4.97670    2.28400    6.47980   31.10020    6.47980    4.97670    6.47080    0.06050    0.00000  472.53240    0.19040    1.00000    0.31790    0.00000    0.09430
