~Version ---------------------------------------------------
VERS.   2.0 : CWLS log ASCII Standard -VERSION 2.0
WRAP.    NO : One line per depth step
DLM . SPACE : Column Data Section Delimiter
~Well ------------------------------------------------------
STRT.ft          145.90000 : START DEPTH
STOP.ft         4684.90000 : STOP DEPTH
STEP.ft            0.50000 : STEP
NULL.              -999.25 : NULL VALUE
COMP. STATOIL PETROLEUM AS : COMPANY
WELL.          15/9-F-15 D : WELL
FLD .                VOLVE : FIELD
LOC .                      : LOCATION
PROV.                      : PROVINCE
CNTY.      MAERSK INSPIRER : COUNTY
STAT.                      : STATE
CTRY.                      : COUNTRY
SRVC.                      : SERVICE COMPANY
DATE.                      : DATE
UWI .                      : UNIQUE WELL ID
API .                      : API NUMBER
~Curve Information -----------------------------------------
DEPT     .ft        : 
ABDCQF01 .g/cm3     : 
ABDCQF02 .g/cm3     : 
ABDCQF03 .g/cm3     : 
ABDCQF04 .g/cm3     : 
BS       .inches    : 
CALI     .inches    : 
DRHO     .g/cm3     : 
GR       .API       : 
NBGRCFM  .API       : 
NPHI     .v/v       : 
PEF      .b/elec    : 
RACEHM   .ohm.m     : 
RACELM   .ohm.m     : 
RD       .ohm.m     : 
RHOB     .g/cm3     : 
RM       .ohm.m     : 
ROP      .m/hr      : 
RPCEHM   .ohm.m     : 
RPCELM   .ohm.m     : 
RT       .ohm.m     : 
BVW      .v/v       : 
COAL_FLAG.unitless  : 
KLOGH    .mD        : 
PHIF     .v/v       : 
SAND_FLAG.unitless  : 
SW       .v/v       : 
VCARB    .v/v       : 
VSH      .v/v       : 
~Params ----------------------------------------------------
~Other -----------------------------------------------------
PETROPHYSICAL INTERPRETATION: INPUT

# --- LOG MNEMONICS AND UNITS ---
#Depth          ABDCQF01        ABDCQF02        ABDCQF03        ABDCQF04        BS              CALI            DRHO            GR              NBGRCFM         NPHI            PEF             RACEHM          RACELM          RD              RHOB            RM              ROP             RPCEHM          RPCELM          RT
#M              g/cm3           g/cm3           g/cm3           g/cm3           inches          inches          g/cm3           API             API             v/v             b/elec          ohm.m           ohm.m           ohm.m           g/cm3           ohm.m           m/hr            ohm.m           ohm.m           ohm.m
~ASCII -----------------------------------------------------
# ...
 3720.90000    2.20710    2.21520    2.20320    2.21240    8.50000    8.54690    0.04750   21.12830   21.30620    0.20210    4.85400    1.93870    1.94610    1.80510    2.20680    1.94310   29.88990    1.94310    1.80510    1.95660    0.10760    0.00000  365.46980    0.24280    1.00000    0.44340    0.00000    0.15330
 3721.40000    2.20150    2.21360    2.18720    2.19660    8.50000    8.54690    0.04340   21.57300   20.88220    0.19920    4.74670    2.08580    2.28090    2.02580    2.19790    2.14830   29.88330    2.14830    2.02580    2.18790    0.10360    0.00000  360.62830    0.24470    1.00000    0.42320    0.00000    0.15560
 3721.90000    2.22440    2.22040    2.22470    2.22650    8.50000    8.54690    0.03970   21.12190   21.97270    0.19970    4.74180    2.32390    2.52330    2.25500    2.21990    2.39770   29.69890    2.39770    2.25500    2.41020    0.09830    0.00000  322.26820    0.23730    1.00000    0.41410    0.00000    0.15450
 3722.40000    2.21440    2.21840    2.23060    2.21660    8.50000    8.54690    0.03460   21.77010   19.43260    0.19590    4.76110    2.60440    2.77160    2.59230    2.21850    2.80530   30.48200    2.80530    2.59230    2.80730    0.09220    0.00000  275.03190    0.23630    1.00000    0.39020    0.00000    0.16120
 3722.90000    2.21440    2.22540    2.23550    2.22650    8.50000    8.54690    0.03860   21.77390   20.37420    0.18960    4.81600    2.74290    2.99130    2.78800    2.22640    3.03150   30.29450    3.03160    2.78800    3.02760    0.08890    0.00000  229.84470    0.23110    1.00000    0.38480    0.00000    0.16520
 3723.40000    2.20700    2.22620    2.23300    2.23860    8.50000    8.50030    0.03790   20.46520   18.24290    0.19140    4.87380    2.85210    3.32140    2.90780    2.22400    2.99960   30.48770    2.99960    2.90780    2.98460    0.08920    0.00000  321.34920    0.23260    1.00000    0.38350    0.00000    0.15040
 3723.90000    2.21920    2.23350    2.22750    2.23920    8.50000    8.54690    0.03730   19.88660   21.23490    0.18460    5.12030    3.05120    3.71130    3.06700    2.22990    3.04090   30.69660    3.04090    3.06690    3.09690    0.08810    0.00000  370.30320    0.22790    1.00000    0.38660    0.00000    0.13940
 3724.40000    2.22410    2.24750    2.23870    2.25730    8.50000    8.54690    0.03980   19.57350   20.98760    0.18660    5.14590    3.43290    4.30840    3.66900    2.23580    3.66960   30.11730    3.66960    3.66900    3.67610    0.08150    0.00000  369.84750    0.22670    1.00000    0.35940    0.00000    0.13840
 3724.90000    2.22600    2.24450    2.22470    2.24620    8.50000    8.54690    0.04320   17.66570   19.22900    0.18400    5.18570    4.24830    5.08760    4.62830    2.23270    4.55030   29.56290    4.55020    4.62820    4.65420    0.07450    0.00000  478.03810    0.22670    1.00000    0.32850    0.00000    0.12600
 3725.40000    2.25480    2.23520    2.22880    2.30550    8.50000    8.54690    0.03640   18.51950   18.73530    0.17710    5.18480    5.30850    5.81400    5.84430    2.24580    6.04080   29.40020    6.04070    5.84420    6.08790    0.06580    0.00000  408.24960    0.21940    1.00000    0.30000    0.00000    0.12720
 3725.90000    2.35680    2.22470    2.30220    2.20600    8.50000    8.54690   -0.05100   23.16860   23.07880    0.15740    6.14980    6.91030    6.70570    7.06110    2.27670    6.99930   29.37580    6.99890    7.06090    7.30510    0.06120    0.00000  123.34530    0.20090    1.00000    0.30470    0.00000    0.16850
 3726.40000    2.39090    2.31010    2.36980    2.97120    8.50000    8.54710   -0.07700   30.82830   27.39220    0.15610    7.38670    9.15400    7.32080    7.52260    2.40560    6.85900   29.35700    6.85880    7.52250    7.12760    0.05920    0.00000   13.57290    0.15630    1.00000    0.37850    0.00000    0.23530
 3726.90000    2.78130    2.38170    2.47160    2.54480    8.50000    8.57840   -0.02710   36.16330   33.61000    0.14050    7.55770   11.64920    8.32450    8.00350    2.48610    6.67830   29.38810    6.67830    8.00340    6.83790    0.05760    0.00000    2.02310    0.12240    1.00000    0.47050    0.00000    0.29700
 3727.40000    2.64360    2.44650    2.63860    2.38550    8.50000    8.57790   -0.00730   30.66360   33.09450    0.15260    6.93680   12.51900    8.29550   13.82960    2.51180   17.57720   29.34110   17.57760   13.82970   17.51960    0.03470    0.00000    2.56070    0.07900    0.00000    0.43990    0.15810    0.24700
 3727.90000    2.41790    2.83900    2.44470    2.31750    8.50000    8.54690    0.06770   26.64660   25.64440    0.16120    6.29690   16.03400    8.53640   16.64500    2.47210   25.17140   29.28650   25.17010   16.64450   26.69080    0.03350    0.00000   15.37780    0.13540    1.00000    0.24740    0.00450    0.21070
 3728.40000    2.36250    2.48950    2.33390    2.29620    8.50000    8.54690    0.04840   23.41290   21.89760    0.15960    5.78080   16.90800    9.07200   17.10770    2.36170   25.99770   29.29670   25.99790   17.10750   25.59440    0.03460    0.00000   61.21730    0.17270    1.00000    0.20070    0.00000    0.17710
 3728.90000    2.38690    2.41400    2.29930    2.29020    8.50000    8.54690    0.04610   18.68200   18.86970    0.17320    5.93170   16.15640    9.24630   18.75090    2.33430   29.54900   29.34890   29.54950   18.75090   29.56540    0.03320    0.00000  226.61190    0.18750    1.00000    0.17680    0.00000    0.12720
 3729.40000    2.34490    2.34210    2.30420    2.31610    8.50000    8.54690    0.03360   19.36600   17.09100    0.17130    5.66910   15.52640    9.71870   17.42130    2.31780   23.33310   29.38580   23.33310   17.42140   23.28750    0.03690    0.00000  182.27200    0.19240    1.00000    0.19150    0.00000    0.14210
 3729.90000    2.35240    2.34320    2.30280    2.30550    8.50000    8.54690    0.03980   15.81300   16.72180    0.15370    5.89320   15.39880   10.20360   17.26910    2.32090   21.79530   29.36340   21.79550   17.26920   21.43600    0.03720    0.00000  328.59870    0.18430    1.00000    0.20200    0.00000    0.10640
 3730.40000    2.30180    2.34680    2.28980    2.29590    8.50000    8.57810    0.04680   15.71290   16.57900    0.15000    5.88540   15.31800   10.61290   16.77410    2.30890   19.83980   29.39520   19.83990   16.77410   19.64730    0.03880    0.00000  408.25460    0.18690    1.00000    0.20730    0.00000    0.09830
 3730.90000    2.29360    2.31120    2.27150    2.30170    8.50000    8.54690    0.03380   18.61940   16.58210    0.15650    5.32750   15.72840   10.99920   17.06720    2.29630   19.14150   29.39110   19.14130   17.06720   19.22820    0.03990    0.00000  235.33780    0.19390    1.00000    0.20600    0.00000    0.13100
 3731.40000    2.30690    2.31430    2.26980    2.31190    8.50000    8.54690    0.03250   16.45660   19.08930    0.15440    5.51240   15.47450   11.53430   18.45260    2.29180   21.86370   29.38060   21.86360   18.45260   21.90090    0.03770    0.00000  372.90160    0.19460    1.00000    0.19370    0.00000    0.10940
 3731.90000    2.39340    2.32230    2.29000    2.32740    8.50000    8.54690    0.04490   19.84970   17.76230    0.15860    5.38110   16.06710   12.37850   18.44990    2.31960   20.70270   29.18950   20.70290   18.44990   20.43290    0.03850    0.00000  148.39520    0.18670    1.00000    0.20600    0.00000    0.14690
 3732.40000    2.36130    2.33360    2.26350    2.31630    8.50000    8.57810    0.04140   18.77900   17.23560    0.15770    5.33140   16.99410   13.21980   18.28550    2.30630   19.45260   25.41790   19.45240   18.28540   20.27290    0.03950    0.00000  231.96230    0.19090    1.00000    0.20700    0.00000    0.12910
 3732.90000    2.32190    2.30590    2.26950    2.33470    8.50000    8.62530    0.04720   17.18520   16.07260    0.15580    5.30160   17.29070   13.93560   19.47890    2.30330   20.77830   24.72930   20.77790   19.47870   21.13280    0.03840    0.00000  328.89070    0.19120    1.00000    0.20060    0.00000    0.11250
