~Version ---------------------------------------------------
VERS.   2.0 : CWLS log ASCII Standard -VERSION 2.0
WRAP.    NO : One line per depth step
DLM . SPACE : Column Data Section Delimiter
~Well ------------------------------------------------------
STRT.ft          145.90000 : START DEPTH
STOP.ft         4684.90000 : STOP DEPTH
STEP.ft            0.50000 : STEP
NULL.              -999.25 : NULL VALUE
COMP. STATOIL PETROLEUM AS : COMPANY
WELL.          15/9-F-15 D : WELL
FLD .                VOLVE : FIELD
LOC .                      : LOCATION
PROV.                      : PROVINCE
CNTY.      MAERSK INSPIRER : COUNTY
STAT.                      : STATE
CTRY.                      : COUNTRY
SRVC.                      : SERVICE COMPANY
DATE.                      : DATE
UWI .                      : UNIQUE WELL ID
API .                      : API NUMBER
~Curve Information -----------------------------------------
DEPT     .ft        : 
ABDCQF01 .g/cm3     : 
ABDCQF02 .g/cm3     : 
ABDCQF03 .g/cm3     : 
ABDCQF04 .g/cm3     : 
BS       .inches    : 
CALI     .inches    : 
DRHO     .g/cm3     : 
GR       .API       : 
NBGRCFM  .API       : 
NPHI     .v/v       : 
PEF      .b/elec    : 
RACEHM   .ohm.m     : 
RACELM   .ohm.m     : 
RD       .ohm.m     : 
RHOB     .g/cm3     : 
RM       .ohm.m     : 
ROP      .m/hr      : 
RPCEHM   .ohm.m     : 
RPCELM   .ohm.m     : 
RT       .ohm.m     : 
BVW      .v/v       : 
COAL_FLAG.unitless  : 
KLOGH    .mD        : 
PHIF     .v/v       : 
SAND_FLAG.unitless  : 
SW       .v/v       : 
VCARB    .v/v       : 
VSH      .v/v       : 
~Params ----------------------------------------------------
~Other -----------------------------------------------------
PETROPHYSICAL INTERPRETATION: INPUT

# --- LOG MNEMONICS AND UNITS ---
#Depth          ABDCQF01        ABDCQF02        ABDCQF03        ABDCQF04        BS              CALI            DRHO            GR              NBGRCFM         NPHI            PEF             RACEHM          RACELM          RD              RHOB            RM              ROP             RPCEHM          RPCELM          RT
#M              g/cm3           g/cm3           g/cm3           g/cm3           inches          inches          g/cm3           API             API             v/v             b/elec          ohm.m           ohm.m           ohm.m           g/cm3           ohm.m           m/hr            ohm.m           ohm.m           ohm.m
~ASCII -----------------------------------------------------
# ...
 3908.40000    2.16850    2.17100    2.16350    2.15420    8.50000    8.54690    0.03870   30.16230   28.79800    0.19670    4.51170   16.07910    7.95700   19.28800    2.16510   26.54970   31.39580   26.54970   19.28810   26.51750    0.03780    0.00000   83.06530    0.25490    1.00000    0.14820    0.00000    0.23560
 3908.90000    2.16320    2.15690    2.17350    2.17780    8.50000    8.54690    0.03700   28.89840   29.84650    0.19590    4.65200   15.57770    7.90630   18.92720    2.16250   26.53780   32.04600   26.53780   18.92720   26.52650    0.03780    0.00000  101.36990    0.25550    1.00000    0.14780    0.00000    0.22650
 3909.40000    2.15440    2.16520    2.15570    2.17100    8.50000    8.54690    0.03600   27.80170   29.32670    0.19920    4.61970   15.37310    7.85570   18.88230    2.15870   26.59970   32.25560   26.59970   18.88230   26.64390    0.03780    0.00000  124.96340    0.25810    1.00000    0.14630    0.00000    0.21870
 3909.90000    2.16410    2.17920    2.16160    2.16770    8.50000    8.54690    0.03710   29.92400   31.23000    0.19240    4.55790   15.23930    7.88780   19.01600    2.16560   27.19210   31.77050   27.19210   19.01610   27.16920    0.03730    0.00000  106.09270    0.25300    1.00000    0.14730    0.00000    0.22210
 3910.40000    2.16310    2.15880    2.16430    2.15780    8.50000    8.54690    0.03260   27.78170   31.13680    0.19670    4.56570   15.17840    7.94490   19.19670    2.16060   27.57320   31.36300   27.57320   19.19680   27.49150    0.03710    0.00000  150.32910    0.25650    1.00000    0.14460    0.00000    0.20830
 3910.90000    2.14680    2.16330    2.15860    2.14840    8.50000    8.54690    0.02750   28.41940   28.68240    0.20340    4.48250   15.12290    7.98520   19.01690    2.15250   27.24190   31.39710   27.24190   19.01690   27.22820    0.03750    0.00000  132.09490    0.26190    1.00000    0.14330    0.00000    0.21940
 3911.40000    2.18090    2.16500    2.17020    2.16880    8.50000    8.54660    0.03490   28.64490   29.28720    0.20560    4.47140   15.25860    8.00680   18.83870    2.16670   26.40570   31.36980   26.40570   18.83870   26.42240    0.03790    0.00000  106.04260    0.25790    1.00000    0.14700    0.00000    0.22650
 3911.90000    2.18060    2.16800    2.17630    2.17440    8.50000    8.46900    0.03220   30.48260   27.66010    0.20060    4.12690   15.47830    8.09830   18.70720    2.17280   25.95490   31.38710   25.95500   18.70720   25.84580    0.03820    0.00000   63.51220    0.25390    1.00000    0.15040    0.00000    0.24760
 3912.40000    2.17470    2.16580    2.15380    2.15150    8.50000    8.54690    0.03710   31.66910   30.30670    0.20150    4.41740   15.79360    8.37970   18.83940    2.16190   25.49490   31.39490   25.49490   18.83940   25.44210    0.03860    0.00000   59.95190    0.25790    1.00000    0.14980    0.00000    0.25400
 3912.90000    2.17310    2.16250    2.15770    2.17920    8.50000    8.54690    0.03760   30.91550   29.98640    0.20350    4.43800   16.17530    8.52790   19.06210    2.16600   24.73330   31.40390   24.73330   19.06210   24.73510    0.03900    0.00000   73.30950    0.25730    1.00000    0.15170    0.00000    0.24370
 3913.40000    2.17950    2.16460    2.14910    2.16980    8.50000    8.54690    0.03480   29.98890   30.18540    0.21310    4.36610   16.33290    8.72070   19.24360    2.16770   24.85270   31.41120   24.85270   19.24360   24.88360    0.03900    0.00000   83.73140    0.26060    1.00000    0.14980    0.00000    0.24020
 3913.90000    2.17460    2.14420    2.15870    2.17460    8.50000    8.54690    0.03380   28.57790   27.73260    0.20200    4.47510   16.52130    8.83110   19.38120    2.16390   24.65840   31.37640   24.65840   19.38120   24.76530    0.03890    0.00000  139.31490    0.25750    1.00000    0.15100    0.00000    0.21290
 3914.40000    2.17150    2.15370    2.14820    2.16750    8.50000    8.54690    0.03620   29.80520   27.95950    0.20520    4.47840   16.47360    8.95090   19.33430    2.16100   24.42250   31.32670   24.42260   19.33430   24.37610    0.03930    0.00000   86.18550    0.25970    1.00000    0.15120    0.00000    0.23810
 3914.90000    2.16260    2.15620    2.15560    2.16760    8.50000    8.54640    0.02790   29.18690   28.22260    0.20000    4.42140   16.56280    8.98020   19.12810    2.15800   23.54070   31.30210   23.54070   19.12820   23.49030    0.03980    0.00000   88.09740    0.25870    1.00000    0.15390    0.00000    0.23610
 3915.40000    2.17260    2.15050    2.15010    2.15430    8.50000    8.46880    0.02500   29.88410   28.41670    0.20410    4.15670   16.30350    9.13280   18.88280    2.15950   23.01410   31.36470   23.01410   18.88280   23.08950    0.04030    0.00000   81.99470    0.25980    1.00000    0.15500    0.00000    0.24050
 3915.90000    2.16760    2.14950    2.15180    2.16420    8.50000    8.46880    0.02060   28.20950   30.13420    0.21370    4.10250   16.01190    8.98170   18.62050    2.15470   22.68990   31.34200   22.69000   18.62050   22.65670    0.04060    0.00000  135.21340    0.26530    1.00000    0.15290    0.00000    0.22130
 3916.40000    2.15300    2.16910    2.15720    2.15910    8.50000    8.46900    0.02800   29.14410   28.66080    0.20430    4.21870   15.80500    9.02310   18.07520    2.16100   21.88780   31.31210   21.88780   18.07520   21.86270    0.04100    0.00000   98.32930    0.25940    1.00000    0.15810    0.00000    0.23140
 3916.90000    2.15750    2.16730    2.15510    2.16360    8.50000    8.46880    0.02390   27.82730   30.02640    0.20590    4.34420   15.71070    8.95800   18.17830    2.15710   21.82860   31.36010   21.82850   18.17830   21.92640    0.04100    0.00000  135.23750    0.26140    1.00000    0.15700    0.00000    0.21770
 3917.40000    2.15460    2.16740    2.16850    2.15480    8.50000    8.50000    0.02980   27.98930   27.23900    0.20770    4.31860   15.79320    8.95270   18.44960    2.16100   22.52380   30.90320   22.52380   18.44960   22.53900    0.04050    0.00000  126.36300    0.26070    1.00000    0.15540    0.00000    0.22050
 3917.90000    2.15680    2.14460    2.16660    2.17870    8.50000    8.50000    0.02520   29.67240   26.36660    0.21550    4.27610   16.23500    8.99740   18.75230    2.15590   23.22760   29.89870   23.22760   18.75230   23.20990    0.04030    0.00000  100.99300    0.26560    1.00000    0.15160    0.00000    0.23560
 3918.40000    2.15870    2.17400    2.17530    2.16090    8.50000    8.50000    0.02500   32.05720   30.47430    0.20060    4.10080   16.86470    9.10750   18.88270    2.16790   22.84190   28.98160   22.84190   18.88270   22.83630    0.04040    0.00000   52.86500    0.25550    1.00000    0.15790    0.00000    0.25790
 3918.90000    2.15800    2.18760    2.21420    2.16250    8.50000    8.46880    0.02950   29.98360   29.02090    0.20690    4.16290   16.69460    9.05060   18.81730    2.18150   23.09190   28.80710   23.09180   18.81730   22.88370    0.03990    0.00000   79.51700    0.25340    1.00000    0.15760    0.00000    0.23630
 3919.40000    2.15040    2.19580    2.23300    2.16450    8.50000    8.50000    0.03110   31.38440   32.04000    0.21340    4.36730   16.96240    8.93340   18.66430    2.18310   22.39280   28.80880   22.39290   18.66430   22.44300    0.04060    0.00000   65.29370    0.25540    1.00000    0.15890    0.00000    0.24760
 3919.90000    2.14640    2.25350    2.25160    2.17320    8.50000    8.54690    0.03050   31.06660   31.14990    0.21350    4.43390   16.84070    8.89860   18.70740    2.19770   22.21500   28.83750   22.21490   18.70740   22.38080    0.04050    0.00000   62.40750    0.25050    1.00000    0.16190    0.00000    0.24540
 3920.40000    2.16760    2.22430    2.22120    2.19020    8.50000    8.54660    0.03330   30.85290   31.25600    0.19970    4.49830   16.41840    8.87590   18.83900    2.19350   23.09180   28.87100   23.09180   18.83900   23.16270    0.03980    0.00000   58.31460    0.24640    1.00000    0.16130    0.00000    0.24500
