~Version ---------------------------------------------------
VERS.   2.0 : CWLS log ASCII Standard -VERSION 2.0
WRAP.    NO : One line per depth step
DLM . SPACE : Column Data Section Delimiter
~Well ------------------------------------------------------
STRT.ft          188.50000 : START DEPTH
STOP.ft         4770.50000 : STOP DEPTH
STEP.ft            0.50000 : STEP
NULL.              -999.25 : NULL VALUE
COMP. Statoil Petroleum AS : COMPANY
WELL.          15/9-F-11 B : WELL
FLD .                VOLVE : FIELD
LOC .      Maersk Inspirer : LOCATION
PROV.                      : PROVINCE
CNTY.                      : COUNTY
STAT.                      : STATE
CTRY.                      : COUNTRY
SRVC.                      : SERVICE COMPANY
DATE.                      : DATE
UWI .                      : UNIQUE WELL ID
API .                      : API NUMBER
~Curve Information -----------------------------------------
DEPT     .ft        : 
ABDCQF01 .g/cm3     : 
ABDCQF02 .g/cm3     : 
ABDCQF03 .g/cm3     : 
ABDCQF04 .g/cm3     : 
BS       .inches    : 
CALI     .inches    : 
DRHO     .g/cm3     : 
GR       .API       : 
NPHI     .v/v       : 
PEF      .b/elec    : 
RACEHM   .ohm.m     : 
RACELM   .ohm.m     : 
RD       .ohm.m     : 
RHOB     .g/cm3     : 
RM       .ohm.m     : 
ROP      .m/hr      : 
RPCEHM   .ohm.m     : 
RPCELM   .ohm.m     : 
RT       .ohm.m     : 
BVW      .v/v       : 
CARB_FLAG.unitless  : 
COAL_FLAG.unitless  : 
KLOGH    .mD        : 
PHIF     .v/v       : 
SAND_FLAG.UNKNOWN   : 
SW       .v/v       : 
VSH      .v/v       : 
~Params ----------------------------------------------------
~Other -----------------------------------------------------
PETROPHYSICAL_INTERPRETATION: INPUT

# --- LOG MNEMONICS AND UNITS ---
#Depth     ABDCQF01   ABDCQF02   ABDCQF03   ABDCQF04   BS         CALI       DRHO       GR         NPHI       PEF        RACEHM     RACELM     RD         RHOB       RM         ROP        RPCEHM     RPCELM     RT
#M         g/cm3      g/cm3      g/cm3      g/cm3      inches     inches     g/cm3      API        v/v        b/elec     ohm.m      ohm.m      ohm.m      g/cm3      ohm.m      m/hr       ohm.m      ohm.m      ohm.m
~ASCII -----------------------------------------------------
# ...
 4231.50000    2.17000    2.18800    2.18200    2.18600    8.50000    8.67200    0.04400   24.98500    0.19400    4.42900   23.17000   10.18300   24.85400    2.18100   33.83500   29.69200   33.83500   24.85400   33.83500    0.03400    0.00000    0.00000  325.60000    0.24800    1.00000    0.13600    0.16400
 4232.00000    2.18400    2.20500    2.19500    2.18500    8.50000    8.62500    0.04700   26.36500    0.19900    4.49500   24.17100   10.20600   25.22100    2.19000   34.10800   29.98400   34.10800   25.22100   34.10800    0.03400    0.00000    0.00000  252.43500    0.24700    1.00000    0.13600    0.17500
 4232.50000    2.20000    2.18900    2.19800    2.18900    8.50000    8.67200    0.04800   26.37400    0.19000    4.49500   23.82500   10.18500   24.77100    2.19000   33.67300   29.96000   33.67300   24.77200   33.67300    0.03400    0.00000    0.00000  235.60000    0.24400    1.00000    0.13800    0.17500
 4233.00000    2.19400    2.20100    2.19900    2.20100    8.50000    8.64900    0.05000   26.70900    0.20400    4.43900   23.02000   10.37300   24.31900    2.19600   32.88300   29.92800   32.88300   24.31900   32.88300    0.03400    0.00000    0.00000  238.39800    0.24700    1.00000    0.13800    0.17800
 4233.50000    2.19800    2.19600    2.18600    2.19200    8.50000    8.62500    0.04300   26.12600    0.19600    4.29500   22.33200   10.59000   24.28800    2.19000   32.37400   29.95300   32.37400   24.28800   32.37400    0.03400    0.00000    0.00000  257.40700    0.24600    1.00000    0.13900    0.17300
 4234.00000    2.19800    2.19500    2.20700    2.20500    8.50000    8.64900    0.04900   26.86900    0.19600    4.28200   22.57400   10.90700   24.51700    2.19800   32.71600   29.94800   32.71600   24.51700   32.71600    0.03400    0.00000    0.00000  215.73400    0.24300    1.00000    0.14000    0.17900
 4234.50000    2.17900    2.18200    2.18900    2.18600    8.50000    8.62500    0.04300   26.32100    0.20000    4.20800   22.72100   11.00000   25.03600    2.18300   33.71000   29.67100   33.70900   25.03600   33.71000    0.03400    0.00000    0.00000  268.27900    0.25000    1.00000    0.13500    0.17500
 4235.00000    2.15500    2.18000    2.17600    2.18200    8.50000    8.65600    0.04100   26.74500    0.18900    4.20100   22.34500   10.31000   24.81800    2.17200   36.09900   29.94000   36.09900   24.81700   36.09900    0.03300    0.00000    0.00000  246.28200    0.24900    1.00000    0.13200    0.17800
 4235.50000    2.16000    2.17800    2.18600    2.18300    8.50000    8.62500    0.05000   25.74900    0.20300    4.30200   21.52100   10.14400   24.67300    2.17900   36.99900   29.93600   36.99900   24.67300   36.99900    0.03300    0.00000    0.00000  310.02700    0.25300    1.00000    0.12900    0.17000
 4236.00000    2.16900    2.18700    2.19600    2.20500    8.50000    8.62500    0.04800   27.18600    0.20500    4.31900   20.99700   10.34300   24.18100    2.18800   35.87700   29.90300   35.87700   24.18100   35.87700    0.03300    0.00000    0.00000  232.57700    0.25000    1.00000    0.13200    0.18200
 4236.50000    2.19500    2.20100    2.17600    2.20500    8.50000    8.64900    0.04500   27.19100    0.19900    4.40900   19.31900   10.49600   22.68300    2.19100   33.37000   29.94700   33.37000   22.68400   33.37000    0.03400    0.00000    0.00000  219.11600    0.24700    1.00000    0.13700    0.18200
 4237.00000    2.18600    2.19500    2.21600    2.21100    8.50000    8.62500    0.04700   27.94200    0.18800    4.38500   16.36100   10.28500   20.18600    2.20400   31.44100   29.81300   31.44100   20.18600   31.44100    0.03500    0.00000    0.00000  162.71900    0.23800    1.00000    0.14500    0.18800
 4237.50000    2.22800    2.21100    2.20200    2.20500    8.50000    8.64800    0.04400   30.78200    0.18600    4.24400   11.63300    9.76100   14.52300    2.20700   19.95500   29.95900   19.95700   14.52300   19.95500    0.04200    0.00000    0.00000   97.61000    0.23600    1.00000    0.17600    0.21100
 4238.00000    2.37300    2.25300    2.25400    2.33800    8.50000    8.67200    0.02800   64.55000    0.20800    4.84800   11.82900   11.15900    6.86000    2.29500    6.00000   29.94500    6.00100    6.86000    6.00000    0.07000    0.00000    0.00000    0.21300    0.21500    1.00000    0.32700    0.48800
 4238.50000    2.61900    2.52500    2.54000    2.51000    8.50000    8.70300    0.07600   71.33200    0.20900    5.75000    6.90200   10.71500    4.93900    2.54500    3.19700   29.93800    3.19700    4.94000    3.19700    0.06000    0.00000    0.00000    0.00400    0.06000    0.00000    1.00000    0.54400
 4239.00000    2.44500    2.50000    2.54300    2.43500    8.50000    8.70300    0.08600   48.04600    0.18000    5.13300    6.17300    8.55200    5.33900    2.47200    4.65300   29.94600    4.65000    5.33900    4.65300    0.06500    0.00000    0.00000    0.43400    0.10200    1.00000    0.64100    0.35300
 4239.50000    2.26800    2.28700    2.35800    2.33300    8.50000    8.62500    0.05200   32.22000    0.16300    4.54600   15.93000    6.05400   11.82200    2.29800   18.71700   29.99500   18.71100   11.82000   18.71700    0.04500    0.00000    0.00000   36.24800    0.19600    1.00000    0.23000    0.22300
 4240.00000    2.30000    2.31200    2.46000    2.43100    8.50000    8.62500    0.05300   31.67100    0.14200    4.62400 6381.09900    5.55200   28.53700    2.35800  134.04000   29.99100  133.91700   28.53000  134.04000    0.04300    0.00000    0.00000   23.39400    0.16700    1.00000    0.25800    0.21900
 4240.50000    2.34200    2.47000    2.55800    2.50600    8.50000    8.62500    0.03600   28.49800    0.10500    5.15900 6381.09900    5.40900   70.85200    2.45400 21367.23200   29.59700 21378.80100   70.85800 21367.23200    0.03900    0.00000    0.00000   16.64800    0.11900    1.00000    0.32900    0.19300
 4241.00000    2.54600    2.65000    2.64700    2.57700    8.50000    8.67200    0.04600   26.27900    0.07500    5.65200 6381.09900    5.37200 -999.25000    2.59700 62290.77000   27.80300 62290.77000 -999.25000 62290.77000    0.03300    1.00000    0.00000    7.87600    0.05800    0.00000    0.56400    0.17400
 4241.50000    2.66500    2.68400    2.68200    2.63600    8.50000    8.70300    0.07200   29.36300    0.07100    6.04500 6381.09900    5.65000 -999.25000    2.66000 62290.77000   22.34600 62290.77000 -999.25000 62290.77000    0.03200    1.00000    0.00000    4.04700    0.05100    0.00000    0.63000    0.20000
 4242.00000    2.70100    2.62500    2.59700    2.67200    8.50000    8.70300    0.07600   29.44600    0.08500    6.17500 6381.09900    6.16000 -999.25000    2.63200 62290.77000   18.77200 62290.77000 -999.25000 62290.77000    0.02000    1.00000    0.00000    2.27400    0.02000    0.00000    1.00000    0.20000
 4242.50000    2.77800    2.65300    2.44100    2.62100    8.50000    8.67200    0.05500   30.87000    0.12200    6.10400 6381.09900    6.33800 -999.25000    2.58100  169.10100   16.91000  169.09400 -999.25000  169.10100    0.03000    1.00000    0.00000    2.55300    0.03900    0.00000    0.75400    0.21200
 4243.00000    2.79100    2.66500    2.45500    2.62200    8.50000    8.67200    0.08000   28.36700    0.12400    5.81800 6381.09900    8.20200 -999.25000    2.59500   57.80100   15.44600   57.80300 -999.25000   57.80100    0.02800    1.00000    0.00000    3.38200    0.03200    0.00000    0.87800    0.19100
 4243.50000    2.49000    2.44800    2.51900    2.39100    8.50000    8.67200    0.10700   32.11100    0.14900    4.75000 6381.09900    6.35500 -999.25000    2.43600  323.73800   12.66900  323.35800 -999.25000  323.73800    0.03900    0.00000    0.00000   13.83500    0.14300    1.00000    0.27500    0.22200
 4244.00000    2.33200    2.36000    2.43400    2.33800    8.50000    8.62500    0.06700   31.36800    0.15600    4.67200 3220.12500    5.17900   25.89700    2.35600   69.39400   16.94100   69.39300   25.90000   69.39400    0.04100    0.00000    0.00000   27.67900    0.17300    1.00000    0.23600    0.21600
