~Version ---------------------------------------------------
VERS.   2.0 : CWLS log ASCII Standard -VERSION 2.0
WRAP.    NO : One line per depth step
DLM . SPACE : Column Data Section Delimiter
~Well ------------------------------------------------------
STRT.ft  239.87760 : START DEPTH
STOP.ft 4186.87760 : STOP DEPTH
STEP.ft    0.50000 : STEP
NULL.      -999.25 : NULL VALUE
COMP. STATOILHYDRO : COMPANY
WELL.    15/9-F-12 : WELL
FLD .        VOLVE : FIELD
LOC .      UNKNOWN : LOCATION
PROV.              : PROVINCE
CNTY.      UNKNOWN : COUNTY
STAT.      UNKNOWN : STATE
CTRY.       Norway : COUNTRY
SRVC.      UNKNOWN : SERVICE COMPANY
DATE.      UNKNOWN : DATE
UWI . NO 15/9-F-12 : UNIQUE WELL ID
API .              : API NUMBER
~Curve Information -----------------------------------------
DEPT     .ft           : 
CARB_FLAG.UNKNOWN      : 
COAL_FLAG.UNKNOWN      : 
DT       .us/ft        : 
GR       .API          : 
NPHI     .v/v_decimal  : 
RD       .UNKNOWN      : 
RHOB     .g/cm3        : 
ROP5_RM  .UNKNOWN      : 
RS       .UNKNOWN      : 
RT       .ohm.m        : 
SAND_FLAG.UNKNOWN      : 
BVW      .v/v_decimal  : 
KLOGH    .mD           : 
PHIF     .v/v_decimal  : 
SW       .v/v_decimal  : 
VSH      .v/v_decimal  : 
~Params ----------------------------------------------------
~Other -----------------------------------------------------
~ASCII -----------------------------------------------------
# ...
 2303.87760 -999.25000 -999.25000  117.45270   98.82446    0.25100    0.60394    2.03016   30.89381    0.74730    0.52994 -999.25000 -999.25000 -999.25000 -999.25000 -999.25000 -999.25000
 2304.37760 -999.25000 -999.25000  120.59638   94.58817    0.26497    0.63330    2.13345   32.70943    0.81204    0.60603 -999.25000 -999.25000 -999.25000 -999.25000 -999.25000 -999.25000
 2304.87760 -999.25000 -999.25000  117.58779   99.76587    0.29974    0.59984    1.99642   34.55433    0.70103    0.49702 -999.25000 -999.25000 -999.25000 -999.25000 -999.25000 -999.25000
 2305.37760 -999.25000 -999.25000  127.64868  105.86609    0.29135    0.52049    2.02270   36.28540    0.79719    0.53324 -999.25000 -999.25000 -999.25000 -999.25000 -999.25000 -999.25000
 2305.87760 -999.25000 -999.25000  130.88868  100.81615    0.27973    0.51751    2.03612   37.79339    0.78255    0.48624 -999.25000 -999.25000 -999.25000 -999.25000 -999.25000 -999.25000
 2306.37760 -999.25000 -999.25000  135.31218  107.48228    0.29968    0.42714    1.97472   39.18604    0.48236    0.36897 -999.25000 -999.25000 -999.25000 -999.25000 -999.25000 -999.25000
 2306.87760 -999.25000 -999.25000  136.98245  110.10341    0.29851    0.42189    1.93484   40.36297    0.44944    0.36407 -999.25000 -999.25000 -999.25000 -999.25000 -999.25000 -999.25000
 2307.37760 -999.25000 -999.25000  129.57066  105.25265    0.35366    0.41944    1.95732   41.21698    0.48560    0.37161 -999.25000 -999.25000 -999.25000 -999.25000 -999.25000 -999.25000
 2307.87760 -999.25000 -999.25000  129.55194  105.73621    0.24253    0.44243    2.06428   41.18994    0.50513    0.37891 -999.25000 -999.25000 -999.25000 -999.25000 -999.25000 -999.25000
 2308.37760 -999.25000 -999.25000  131.49150  120.44276    0.37462    0.43999    2.03242   41.15406    0.56699    0.40398 -999.25000 -999.25000 -999.25000 -999.25000 -999.25000 -999.25000
 2308.87760 -999.25000 -999.25000  132.01237  110.57755    0.32184    0.42877    1.97253   41.13177    0.55014    0.38135 -999.25000 -999.25000 -999.25000 -999.25000 -999.25000 -999.25000
 2309.37760 -999.25000 -999.25000  124.89738  114.60752    0.38059    0.44667    2.11307   41.14384    0.50443    0.37073 -999.25000 -999.25000 -999.25000 -999.25000 -999.25000 -999.25000
 2309.87760 -999.25000 -999.25000  121.84318  111.96954    0.26341    0.48244    2.20013   41.16026    0.53277    0.38838 -999.25000 -999.25000 -999.25000 -999.25000 -999.25000 -999.25000
 2310.37760 -999.25000 -999.25000  131.99286  110.59883    0.32041    0.54064    2.07658   41.18309    0.64967    0.51388 -999.25000 -999.25000 -999.25000 -999.25000 -999.25000 -999.25000
 2310.87760 -999.25000 -999.25000  139.74878  121.24352    0.27634    0.45447    2.09692   41.17723    0.52139    0.36817 -999.25000 -999.25000 -999.25000 -999.25000 -999.25000 -999.25000
 2311.37760 -999.25000 -999.25000  130.56327  119.22764    0.33944    0.47562    2.03882   41.24870    0.54298    0.42787 -999.25000 -999.25000 -999.25000 -999.25000 -999.25000 -999.25000
 2311.87760 -999.25000 -999.25000  129.25447  119.73835    0.31622    0.46130    2.16764   41.24870    0.53609    0.38021 -999.25000 -999.25000 -999.25000 -999.25000 -999.25000 -999.25000
 2312.37760 -999.25000 -999.25000  119.35297  109.33566    0.29094    0.55673    2.15558   41.24982    0.76760    0.50500 -999.25000 -999.25000 -999.25000 -999.25000 -999.25000 -999.25000
 2312.87760 -999.25000 -999.25000  127.44649  109.44693    0.28937    0.54010    2.20382   41.06131    0.79916    0.50744 -999.25000 -999.25000 -999.25000 -999.25000 -999.25000 -999.25000
 2313.37760 -999.25000 -999.25000  127.81812  116.64223    0.33990    0.47840    2.11619   41.13861    0.57705    0.42751 -999.25000 -999.25000 -999.25000 -999.25000 -999.25000 -999.25000
 2313.87760 -999.25000 -999.25000  126.47504  117.81820    0.36513    0.43990    2.07911   41.22523    0.55324    0.38760 -999.25000 -999.25000 -999.25000 -999.25000 -999.25000 -999.25000
 2314.37760 -999.25000 -999.25000  128.25898  116.39619    0.35008    0.47307    2.08077   41.21204    0.64871    0.41193 -999.25000 -999.25000 -999.25000 -999.25000 -999.25000 -999.25000
 2314.87760 -999.25000 -999.25000  122.39503  117.92701    0.40157    0.47508    2.08127   41.15312    0.60071    0.43322 -999.25000 -999.25000 -999.25000 -999.25000 -999.25000 -999.25000
 2315.37760 -999.25000 -999.25000  123.58287  114.79354    0.34825    0.48611    2.10015   41.06729    0.61264    0.39153 -999.25000 -999.25000 -999.25000 -999.25000 -999.25000 -999.25000
 2315.87760 -999.25000 -999.25000  129.00550  113.01873    0.32116    0.53914    2.11207   40.63710    0.69158    0.50687 -999.25000 -999.25000 -999.25000 -999.25000 -999.25000 -999.25000
 2316.37760 -999.25000 -999.25000  131.17544  119.20783    0.39605    0.51510    1.94927   40.23510    0.63320    0.46083 -999.25000 -999.25000 -999.25000 -999.25000 -999.25000 -999.25000
 2316.87760 -999.25000 -999.25000  126.23214  125.15251    0.37016    0.44563    1.97388   39.86307    0.50754    0.38859 -999.25000 -999.25000 -999.25000 -999.25000 -999.25000 -999.25000
 2317.37760 -999.25000 -999.25000  123.98785  122.11649    0.34543    0.44885    1.89779   39.84571    0.60280    0.39994 -999.25000 -999.25000 -999.25000 -999.25000 -999.25000 -999.25000
 2317.87760 -999.25000 -999.25000  133.53123  112.93965    0.28696    0.53122    1.98896   39.75868    0.60062    0.48689 -999.25000 -999.25000 -999.25000 -999.25000 -999.25000 -999.25000
 2318.37760 -999.25000 -999.25000  122.85765  115.28830    0.31806    0.51768    1.99135   39.75216    0.61365    0.44306 -999.25000 -999.25000 -999.25000 -999.25000 -999.25000 -999.25000
 2318.87760 -999.25000 -999.25000  127.94828  120.08429    0.33381    0.56176    1.95824   39.75990    0.63714    0.47915 -999.25000 -999.25000 -999.25000 -999.25000 -999.25000 -999.25000
 2319.37760 -999.25000 -999.25000  130.77421  117.19139    0.43181    0.59866    1.95814   39.93069    0.73884    0.52335 -999.25000 -999.25000 -999.25000 -999.25000 -999.25000 -999.25000
 2319.87760 -999.25000 -999.25000  127.61316  127.39504    0.34186    0.53711    1.93745   39.74881    0.63955    0.43957 -999.25000 -999.25000 -999.25000 -999.25000 -999.25000 -999.25000
 2320.37760 -999.25000 -999.25000  126.80009  125.41706    0.34824    0.50886    1.90013   39.77908    0.62700    0.42959 -999.25000 -999.25000 -999.25000 -999.25000 -999.25000 -999.25000
 2320.87760 -999.25000 -999.25000  130.42618  118.65015    0.38944    0.50294    1.85816   39.66098    0.61912    0.42781 -999.25000 -999.25000 -999.25000 -999.25000 -999.25000 -999.25000
 2321.37760 -999.25000 -999.25000  128.92056  126.80640    0.47110    0.53965    1.79613   39.79242    0.53296    0.42128 -999.25000 -999.25000 -999.25000 -999.25000 -999.25000 -999.25000
 2321.87760 -999.25000 -999.25000  132.29275  116.51317    0.45022    0.52739    1.78994   39.69079    0.54627    0.47740 -999.25000 -999.25000 -999.25000 -999.25000 -999.25000 -999.25000
 2322.37760 -999.25000 -999.25000  126.72691  116.03357    0.38089    0.55623    1.82679   36.50653    0.61294    0.48711 -999.25000 -999.25000 -999.25000 -999.25000 -999.25000 -999.25000
 2322.87760 -999.25000 -999.25000  127.61390  116.34678    0.41507    0.56264    1.82060   19.44178    0.59389    0.49285 -999.25000 -999.25000 -999.25000 -999.25000 -999.25000 -999.25000
 2323.37760 -999.25000 -999.25000  127.48774  116.99857    0.47130    0.54866    1.80333   19.40713    0.59154    0.48345 -999.25000 -999.25000 -999.25000 -999.25000 -999.25000 -999.25000
 2323.87760 -999.25000 -999.25000  119.72981  123.76912    0.40666    0.52156    1.79118   19.69018    0.57352    0.49002 -999.25000 -999.25000 -999.25000 -999.25000 -999.25000 -999.25000
 2324.37760 -999.25000 -999.25000  121.03739  113.15617    0.34665    0.58861    1.80618   22.49966    0.69789    0.55070 -999.25000 -999.25000 -999.25000 -999.25000 -999.25000 -999.25000
 2324.87760 -999.25000 -999.25000  126.61477  112.91113    0.37217    0.59290    1.81640   25.35210    0.68064    0.51871 -999.25000 -999.25000 -999.25000 -999.25000 -999.25000 -999.25000
