~Version ---------------------------------------------------
VERS.   2.0 : CWLS log ASCII Standard -VERSION 2.0
WRAP.    NO : One line per depth step
DLM . SPACE : Column Data Section Delimiter
~Well ------------------------------------------------------
STRT.ft          145.90000 : START DEPTH
STOP.ft         4684.90000 : STOP DEPTH
STEP.ft            0.50000 : STEP
NULL.              -999.25 : NULL VALUE
COMP. STATOIL PETROLEUM AS : COMPANY
WELL.          15/9-F-15 D : WELL
FLD .                VOLVE : FIELD
LOC .                      : LOCATION
PROV.                      : PROVINCE
CNTY.      MAERSK INSPIRER : COUNTY
STAT.                      : STATE
CTRY.                      : COUNTRY
SRVC.                      : SERVICE COMPANY
DATE.                      : DATE
UWI .                      : UNIQUE WELL ID
API .                      : API NUMBER
~Curve Information -----------------------------------------
DEPT     .ft        : 
ABDCQF01 .g/cm3     : 
ABDCQF02 .g/cm3     : 
ABDCQF03 .g/cm3     : 
ABDCQF04 .g/cm3     : 
BS       .inches    : 
CALI     .inches    : 
DRHO     .g/cm3     : 
GR       .API       : 
NBGRCFM  .API       : 
NPHI     .v/v       : 
PEF      .b/elec    : 
RACEHM   .ohm.m     : 
RACELM   .ohm.m     : 
RD       .ohm.m     : 
RHOB     .g/cm3     : 
RM       .ohm.m     : 
ROP      .m/hr      : 
RPCEHM   .ohm.m     : 
RPCELM   .ohm.m     : 
RT       .ohm.m     : 
BVW      .v/v       : 
COAL_FLAG.unitless  : 
KLOGH    .mD        : 
PHIF     .v/v       : 
SAND_FLAG.unitless  : 
SW       .v/v       : 
VCARB    .v/v       : 
VSH      .v/v       : 
~Params ----------------------------------------------------
~Other -----------------------------------------------------
PETROPHYSICAL INTERPRETATION: INPUT

# --- LOG MNEMONICS AND UNITS ---
#Depth          ABDCQF01        ABDCQF02        ABDCQF03        ABDCQF04        BS              CALI            DRHO            GR              NBGRCFM         NPHI            PEF             RACEHM          RACELM          RD              RHOB            RM              ROP             RPCEHM          RPCELM          RT
#M              g/cm3           g/cm3           g/cm3           g/cm3           inches          inches          g/cm3           API             API             v/v             b/elec          ohm.m           ohm.m           ohm.m           g/cm3           ohm.m           m/hr            ohm.m           ohm.m           ohm.m
~ASCII -----------------------------------------------------
# ...
 3633.40000    2.19940    2.19820    2.21810    2.19540    8.50000    8.50000    0.03740   24.63780   24.07410    0.19300    4.75510   17.52500    9.92060   17.53630    2.20160   21.50320   31.75300   21.50430   17.53680   20.60130    0.04060    0.00000  175.73450    0.24090    1.00000    0.16830    0.00000    0.18700
 3633.90000    2.18440    2.19230    2.21390    2.20520    8.50000    8.50000    0.03820   25.89980   25.18400    0.20430    4.74850    9.92520    9.01880    8.68030    2.19450    7.84070   31.71950    7.84090    8.68040    7.46380    0.06180    0.00000  132.86090    0.24790    1.00000    0.24950    0.00000    0.20660
 3634.40000    2.19320    2.19660    2.23960    2.20900    8.50000    8.54690    0.04340   27.02700   23.88930    0.20040    4.72880    6.88410    7.50440    5.83500    2.20790    4.90340   31.69950    4.90350    5.83500    4.75340    0.07460    0.00000  100.47540    0.24170    1.00000    0.30860    0.00000    0.21460
 3634.90000    2.19140    2.20390    2.23360    2.19180    8.50000    8.54660    0.04190   25.34500   25.10910    0.20990    4.79740    5.01160    6.27250    4.63740    2.20440    4.03340   31.72150    4.03340    4.63750    3.98780    0.08090    0.00000  154.15990    0.24670    1.00000    0.32800    0.00000    0.19840
 3635.40000    2.18690    2.23090    2.21480    2.18980    8.50000    8.54690    0.03990   22.92340   23.21060    0.20070    4.75160    3.76480    4.95780    3.69300    2.20650    3.40230   31.72660    3.40230    3.69310    3.37390    0.08600    0.00000  254.16900    0.24230    1.00000    0.35470    0.00000    0.17040
 3635.90000    2.20520    2.21520    2.23740    2.20280    8.50000    8.54690    0.03740   24.14490   24.33200    0.19700    5.02720    3.14120    4.22280    3.24800    2.20950    3.16860   31.69360    3.16870    3.24800    3.15420    0.08840    0.00000  204.61070    0.23980    1.00000    0.36870    0.00000    0.17860
 3636.40000    2.20320    2.21590    2.27610    2.21910    8.50000    8.54690    0.05210   23.99800   23.91530    0.19230    4.92440    2.83510    3.66240    2.93580    2.22950    3.00820   31.52300    3.00820    2.93590    3.01850    0.08960    0.00000  167.80200    0.23110    1.00000    0.38760    0.00000    0.18040
 3636.90000    2.19620    2.24050    2.26400    2.19300    8.50000    8.54690    0.04350   25.92880   23.39790    0.20220    4.84390    2.53500    3.21960    2.70190    2.21380    2.91550   30.14280    2.91550    2.70190    2.90780    0.09180    0.00000  138.14200    0.24040    1.00000    0.38200    0.00000    0.19810
 3637.40000    2.19230    2.22440    2.31810    2.20780    8.50000    8.52330    0.04190   24.99700   22.53400    0.20130    4.76140    2.37420    2.89620    2.51420    2.22080    2.83050   29.41910    2.83050    2.51420    2.82150    0.09250    0.00000  174.96520    0.23770    1.00000    0.38910    0.00000    0.18430
 3637.90000    2.19700    2.22520    2.26700    2.20990    8.50000    8.54690    0.03870   22.90610   23.27280    0.20400    4.72620    2.24960    2.63390    2.35270    2.21720    2.93570   29.37110    2.93570    2.35270    2.91010    0.09120    0.00000  220.01740    0.24000    1.00000    0.37990    0.00000    0.17530
 3638.40000    2.21740    2.24340    2.25470    2.22890    8.50000    8.54690    0.03940   23.06590   26.31620    0.20550    4.98310    2.15170    2.43140    2.17440    2.22210    2.77000   29.39300    2.77000    2.17440    2.77010    0.09330    0.00000  211.83190    0.23890    1.00000    0.39040    0.00000    0.17610
 3638.90000    2.19970    2.27280    2.26800    2.25390    8.50000    8.54690    0.03500   24.38650   21.83720    0.18180    5.25120    2.09130    2.33190    2.11810    2.23990    2.80290   29.35760    2.80290    2.11810    2.72700    0.09160    0.00000  122.96690    0.22330    1.00000    0.41000    0.00000    0.18850
 3639.40000    2.21490    2.25710    2.23340    2.24470    8.50000    8.50030    0.03640   21.52600   24.03190    0.18830    4.90000    2.33150    2.42370    2.07880    2.23440    2.35330   29.39530    2.35330    2.07880    2.40500    0.09820    0.00000  262.16120    0.22780    1.00000    0.43120    0.00000    0.15600
 3639.90000    2.22770    2.27570    2.24320    2.25980    8.50000    8.54690    0.04230   21.54000   22.46350    0.19200    5.01890    2.84080    2.56300    2.51670    2.24950    3.46560   29.33470    3.46550    2.51670    3.42960    0.08350    0.00000  261.49640    0.22410    1.00000    0.37270    0.00000    0.15280
 3640.40000    2.25030    2.29750    2.28430    2.31740    8.50000    8.54690    0.03120   22.29570   24.65540    0.18030    5.03740    4.38630    2.63390    4.37580    2.27720   11.14480   29.33710   11.14180    4.37550   17.59830    0.05830    0.00000  169.52290    0.21000    1.00000    0.27750    0.00000    0.16120
 3640.90000    2.22420    2.38890    2.44110    2.34050    8.50000    8.54690    0.02500   24.50980   23.01970    0.15730    5.34850    8.72950    2.79890    8.42900    2.33220   87.06650   29.68270   87.07200    8.42890   77.60580    0.05470    0.00000   59.50710    0.18190    1.00000    0.30040    0.00000    0.18670
 3641.40000    2.12880    2.36350    2.58090    2.21020    8.50000    8.54690    0.07050   23.92680   23.23590    0.14270    5.35200    4.62910    2.83300    5.26580    2.29320   13.14680   30.25390   13.14770    5.26590   12.54790    0.05410    0.00000   63.14100    0.18930    1.00000    0.28570    0.00000    0.19050
 3641.90000    2.09250    2.26410    2.51830    2.14840    8.50000    8.54710    0.03930   19.08220   24.69790    0.15240    4.80540    4.33130    2.90190    5.12080    2.21010   10.23600   30.64910   10.23610    5.12080   10.17160    0.05660    0.00000  387.78780    0.22180    1.00000    0.25500    0.00000    0.13180
 3642.40000    2.22010    2.47100    2.58130    2.34340    8.50000    8.57790    0.00650   22.29370   20.08680    0.13620    6.02020    3.62680    2.78970    4.23310    2.32770    7.60390   30.25700    7.60400    4.23320    7.40380    0.05950    0.00000   83.36970    0.17510    1.00000    0.34000    0.00000    0.16440
 3642.90000    2.52900    2.57430    2.60520    2.59520    8.50000    8.57810    0.04030   24.25550   19.63960    0.08410    6.04070    3.07620    2.71560    2.96520    2.56060    3.49230   29.42720    3.49240    2.96530    3.60610    0.06510    0.00000    7.75050    0.07440    0.00000    0.87550    0.25320    0.18950
 3643.40000    2.41680    2.51860    2.57870    2.58030    8.50000    8.54690    0.05510   22.92420   22.25840    0.07790    5.96460    2.50540    2.55890    2.50420    2.53980    2.99710   25.49150    2.99720    2.50420    2.94070    0.06970    0.00000   14.18340    0.07890    0.00000    0.88320    0.27160    0.16440
 3643.90000    2.30490    2.37750    2.45070    2.42480    8.50000    8.54690    0.06120   23.14830   22.38880    0.12850    5.44840    2.34680    2.45220    2.29380    2.41760    2.66650   25.68350    2.66650    2.29380    2.65790    0.08380    0.00000   36.42670    0.14100    1.00000    0.59450    0.02330    0.17400
 3644.40000    2.24300    2.33120    2.32510    2.29070    8.50000    8.54690    0.02920   22.88900   22.30670    0.17860    5.40650    2.20780    2.37060    2.13960    2.30110    2.40230   27.47210    2.40230    2.13960    2.36530    0.09490    0.00000  117.79390    0.20110    1.00000    0.47180    0.00000    0.17080
 3644.90000    2.25860    2.31950    2.32040    2.29970    8.50000    8.54660    0.04970   23.52540   23.39030    0.18030    5.02220    2.11840    2.27970    2.04650    2.30800    2.30150   28.48580    2.30150    2.04650    2.31110    0.09670    0.00000   82.52010    0.19930    1.00000    0.48490    0.00000    0.18650
 3645.40000    2.25220    2.27780    2.32610    2.27610    8.50000    8.54690    0.02880   24.36940   23.24650    0.18450    5.25780    2.02720    2.20530    1.96900    2.29120    2.21240   30.15190    2.21240    1.96900    2.21390    0.09900    0.00000  104.26750    0.20680    1.00000    0.47850    0.00000    0.18180
