~Version ---------------------------------------------------
VERS.   2.0 : CWLS log ASCII Standard -VERSION 2.0
WRAP.    NO : One line per depth step
DLM . SPACE : Column Data Section Delimiter
~Well ------------------------------------------------------
STRT.ft          188.50000 : START DEPTH
STOP.ft         4770.50000 : STOP DEPTH
STEP.ft            0.50000 : STEP
NULL.              -999.25 : NULL VALUE
COMP. Statoil Petroleum AS : COMPANY
WELL.          15/9-F-11 B : WELL
FLD .                VOLVE : FIELD
LOC .      Maersk Inspirer : LOCATION
PROV.                      : PROVINCE
CNTY.                      : COUNTY
STAT.                      : STATE
CTRY.                      : COUNTRY
SRVC.                      : SERVICE COMPANY
DATE.                      : DATE
UWI .                      : UNIQUE WELL ID
API .                      : API NUMBER
~Curve Information -----------------------------------------
DEPT     .ft        : 
ABDCQF01 .g/cm3     : 
ABDCQF02 .g/cm3     : 
ABDCQF03 .g/cm3     : 
ABDCQF04 .g/cm3     : 
BS       .inches    : 
CALI     .inches    : 
DRHO     .g/cm3     : 
GR       .API       : 
NPHI     .v/v       : 
PEF      .b/elec    : 
RACEHM   .ohm.m     : 
RACELM   .ohm.m     : 
RD       .ohm.m     : 
RHOB     .g/cm3     : 
RM       .ohm.m     : 
ROP      .m/hr      : 
RPCEHM   .ohm.m     : 
RPCELM   .ohm.m     : 
RT       .ohm.m     : 
BVW      .v/v       : 
CARB_FLAG.unitless  : 
COAL_FLAG.unitless  : 
KLOGH    .mD        : 
PHIF     .v/v       : 
SAND_FLAG.UNKNOWN   : 
SW       .v/v       : 
VSH      .v/v       : 
~Params ----------------------------------------------------
~Other -----------------------------------------------------
PETROPHYSICAL_INTERPRETATION: INPUT

# --- LOG MNEMONICS AND UNITS ---
#Depth     ABDCQF01   ABDCQF02   ABDCQF03   ABDCQF04   BS         CALI       DRHO       GR         NPHI       PEF        RACEHM     RACELM     RD         RHOB       RM         ROP        RPCEHM     RPCELM     RT
#M         g/cm3      g/cm3      g/cm3      g/cm3      inches     inches     g/cm3      API        v/v        b/elec     ohm.m      ohm.m      ohm.m      g/cm3      ohm.m      m/hr       ohm.m      ohm.m      ohm.m
~ASCII -----------------------------------------------------
# ...
 4335.50000    2.28100    2.45200    2.51100    2.44100    8.50000    8.73400    0.05200   55.87400    0.19200    5.38100   12.94000    6.11900   12.14600    2.40200   43.16000   29.96500   43.15700   12.14600   43.16000    0.03000    0.00000    0.00000    0.41700    0.17200    1.00000    0.17200    0.41700
 4336.00000    2.27800    2.45000    2.44900    2.38700    8.50000    8.70300    0.04900   55.49000    0.20100    5.29200   16.06200    5.69300   11.53000    2.38500   46.39700   29.99900   46.39100   11.53000   46.39700    0.02900    0.00000    0.00000    0.52900    0.18100    1.00000    0.16000    0.41400
 4336.50000    2.25100    2.39300    2.51500    2.36600    8.50000    8.67200    0.05800   51.36200    0.20200    5.33500   17.16600    5.34500   10.61800    2.39500   38.27500   29.94100   38.27800   10.61800   38.27500    0.03100    0.00000    0.00000    1.01800    0.17900    1.00000    0.17400    0.38000
 4337.00000    2.25100    2.28800    2.64800    2.28400    8.50000    8.62500    0.08000   42.46700    0.17100    4.67800   14.58700    5.14400   11.70700    2.36600   40.30700   29.98900   40.31100   11.70700   40.30700    0.03000    0.00000    0.00000    4.40700    0.17600    1.00000    0.17000    0.30700
 4337.50000    2.35100    2.35700    2.52900    2.35200    8.50000    8.64800    0.05800   42.09800    0.15400    4.90400    9.53700    5.07000   10.30600    2.40400   30.22000   30.02000   30.21700   10.30600   30.22000    0.03300    0.00000    0.00000    3.23200    0.15600    1.00000    0.21000    0.30400
 4338.00000    2.45000    2.44700    2.57900    2.40900    8.50000    8.67200    0.07300   42.01300    0.15300    5.11100    8.87400    4.88400   10.41800    2.47000   43.41500   29.78900   43.41500   10.41800   43.41500    0.02700    0.00000    0.00000    2.15800    0.13300    1.00000    0.20500    0.30300
 4338.50000    2.44700    2.42300    2.47900    2.40600    8.50000    8.67200    0.06900   38.95000    0.15300    5.03500    8.03300    4.88800   10.16400    2.43300   47.29400   29.99400   47.29400   10.16400   47.29400    0.02700    0.00000    0.00000    4.57700    0.14600    1.00000    0.18300    0.27800
 4339.00000    2.46500    2.40900    2.39000    2.41000    8.50000    8.67200    0.05700   38.42000    0.15100    5.06400    7.91600    4.80200   10.22700    2.40900   42.08500   29.96700   42.08400   10.22700   42.08500    0.02800    0.00000    0.00000    5.70700    0.15300    1.00000    0.18500    0.27400
 4339.50000    2.50100    2.42000    2.38200    2.44200    8.50000    8.67200    0.05800   35.75600    0.14900    5.12100    7.97100    4.69800   10.46700    2.42100   45.94400   29.94100   45.94300   10.46700   45.94400    0.02700    0.00000    0.00000    8.20800    0.14800    1.00000    0.18200    0.25200
 4340.00000    2.48700    2.42100    2.36800    2.44600    8.50000    8.65800    0.06000   34.59400    0.14900    4.95500    8.06300    4.88300   10.48400    2.41500   40.32300   22.19500   40.32400   10.48400   40.32300    0.02800    0.00000    0.00000   10.45900    0.15000    1.00000    0.18900    0.24300
 4340.50000    2.48400    2.39700    2.32900    2.40000    8.50000    8.67200    0.05700   35.08000    0.14900    4.78500    8.51700    5.15100   10.91100    2.38800   37.33100   18.77800   37.33200   10.91100   37.33100    0.03000    0.00000    0.00000   11.42300    0.16000    1.00000    0.18600    0.24700
 4341.00000    2.48600    2.38400    2.32400    2.39900    8.50000    8.67200    0.06200   32.20300    0.14500    4.81000    9.16600    5.50300   10.66800    2.38200   28.65900   25.31700   28.65800   10.66800   28.65900    0.03300    0.00000    0.00000   18.71700    0.16000    1.00000    0.20600    0.22300
 4341.50000    2.46800    2.34800    2.27800    2.35700    8.50000    8.67200    0.06200   33.40600    0.15400    4.81700    8.88800    5.78200   10.71900    2.34400   27.67200   29.68400   27.67200   10.71900   27.67200    0.03400    0.00000    0.00000   20.72400    0.17600    1.00000    0.19400    0.23300
 4342.00000    2.49000    2.34300    2.26700    2.33800    8.50000    8.67200    0.05600   35.01100    0.15700    4.83300    9.33500    5.73800   10.94700    2.34300   35.85900   29.96600   35.85900   10.94700   35.85900    0.03100    0.00000    0.00000   16.26800    0.17800    1.00000    0.17400    0.24600
 4342.50000    2.51700    2.40300    2.31000    2.37700    8.50000    8.67200    0.05900   30.85700    0.15600    4.98000    8.51900    5.74600   10.58400    2.41700   32.25200   29.93400   32.25300   10.58400   32.25200    0.03100    0.00000    0.00000   20.54100    0.15300    1.00000    0.20300    0.21200
 4343.00000    2.54100    2.40600    2.34900    2.42200    8.50000    8.67200    0.05300   33.95100    0.14800    5.03600    8.72400    5.67200   10.20300    2.43500   31.10600   29.90100   31.10700   10.20300   31.10600    0.03100    0.00000    0.00000   10.18300    0.14300    1.00000    0.21800    0.23700
 4343.50000    2.56500    2.42200    2.34600    2.44600    8.50000    8.62500    0.06100   31.98400    0.14700    5.03700    8.02600    5.75700    9.53000    2.44900   24.64100   29.95300   24.64100    9.53000   24.64100    0.03400    0.00000    0.00000   12.91100    0.13800    1.00000    0.24600    0.22100
 4344.00000    2.57800    2.46200    2.33800    2.48000    8.50000    8.67200    0.05200   32.56600    0.13900    5.26800    8.06400    5.77100    9.36200    2.45000   23.51600   29.92100   23.51600    9.36200   23.51600    0.03400    0.00000    0.00000   11.00400    0.13400    1.00000    0.25600    0.22600
 4344.50000    2.59400    2.51000    2.37500    2.50600    8.50000    8.67200    0.05700   30.78100    0.13900    5.18300    7.72000    5.90900    9.14800    2.46600   20.61500   29.89500   20.61600    9.14900   20.61500    0.03600    0.00000    0.00000   13.36700    0.12900    1.00000    0.27800    0.21100
 4345.00000    2.61100    2.53300    2.34900    2.48000    8.50000    8.67200    0.05700   33.49200    0.13800    5.19500    6.97100    6.24200    8.77500    2.45700   18.10600   29.86500   18.10600    8.77500   18.10600    0.03800    0.00000    0.00000    8.89200    0.13100    1.00000    0.29000    0.23400
 4345.50000    2.62100    2.50500    2.34100    2.49300    8.50000    8.67200    0.06100   32.95100    0.15500    5.16400    6.41900    6.29900    8.86100    2.45400   20.32600   29.85000   20.32700    8.86100   20.32600    0.03700    0.00000    0.00000   11.32200    0.13900    1.00000    0.26400    0.22900
 4346.00000    2.65900    2.50300    2.34900    2.51400    8.50000    8.67200    0.05900   34.24000    0.15500    5.44000    6.59700    6.57300    8.75000    2.49100   18.20900   29.90000   18.20700    8.75000   18.20900    0.03500    0.00000    0.00000    3.73400    0.09100    0.00000    0.38600    0.24000
 4346.50000    2.65400    2.51800    2.36500    2.54000    8.50000    8.67200    0.06500   40.35800    0.16000    5.64800    6.69300    6.79100    8.92700    2.54100   17.82200   29.93500   17.82300    8.92700   17.82200    0.03300    0.00000    0.00000    0.77200    0.06200    0.00000    0.53400    0.29000
 4347.00000    2.56300    2.52700    2.41100    2.52200    8.50000    8.70300    0.04400   38.52300    0.16100    5.72100    6.62200    7.12700    8.69100    2.51500   17.09800   29.73500   17.10000    8.69200   17.09800    0.03500    0.00000    0.00000    1.38600    0.07700    0.00000    0.45700    0.27500
 4347.50000    2.49600    2.56100    2.41600    2.55100    8.50000    8.70300    0.04100   39.23100    0.16800    5.75500    8.15100    7.80600    7.73900    2.50300   10.17200   29.95700   10.17200    7.73900   10.17200    0.04400    0.00000    0.00000    1.40800    0.08400    0.00000    0.52700    0.28100
 4348.00000    2.30400    2.52700    2.48200    2.52500    8.50000    8.70300    0.05000   40.60500    0.17500    5.72400   13.52000    9.56300    6.75100    2.46600    5.70500   29.92400    5.70500    6.75100    5.70500    0.05900    0.00000    0.00000    1.64100    0.10500    1.00000    0.56200    0.29200
