~Version ---------------------------------------------------
VERS.   2.0 : CWLS log ASCII Standard -VERSION 2.0
WRAP.    NO : One line per depth step
DLM . SPACE : Column Data Section Delimiter
~Well ------------------------------------------------------
STRT.ft  239.87760 : START DEPTH
STOP.ft 4186.87760 : STOP DEPTH
STEP.ft    0.50000 : STEP
NULL.      -999.25 : NULL VALUE
COMP. STATOILHYDRO : COMPANY
WELL.    15/9-F-12 : WELL
FLD .        VOLVE : FIELD
LOC .      UNKNOWN : LOCATION
PROV.              : PROVINCE
CNTY.      UNKNOWN : COUNTY
STAT.      UNKNOWN : STATE
CTRY.       Norway : COUNTRY
SRVC.      UNKNOWN : SERVICE COMPANY
DATE.      UNKNOWN : DATE
UWI . NO 15/9-F-12 : UNIQUE WELL ID
API .              : API NUMBER
~Curve Information -----------------------------------------
DEPT     .ft           : 
CARB_FLAG.UNKNOWN      : 
COAL_FLAG.UNKNOWN      : 
DT       .us/ft        : 
GR       .API          : 
NPHI     .v/v_decimal  : 
RD       .UNKNOWN      : 
RHOB     .g/cm3        : 
ROP5_RM  .UNKNOWN      : 
RS       .UNKNOWN      : 
RT       .ohm.m        : 
SAND_FLAG.UNKNOWN      : 
BVW      .v/v_decimal  : 
KLOGH    .mD           : 
PHIF     .v/v_decimal  : 
SW       .v/v_decimal  : 
VSH      .v/v_decimal  : 
~Params ----------------------------------------------------
~Other -----------------------------------------------------
~ASCII -----------------------------------------------------
# ...
 2991.87760 -999.25000 -999.25000   72.13213   40.60337    0.08170    4.57997    2.30913    2.99079    3.60199    3.20677 -999.25000 -999.25000 -999.25000 -999.25000 -999.25000 -999.25000
 2992.37760 -999.25000 -999.25000   72.08479   47.07651    0.07878    4.60953    2.30499    3.56410    4.86311    4.80067 -999.25000 -999.25000 -999.25000 -999.25000 -999.25000 -999.25000
 2992.87760 -999.25000 -999.25000   69.95453   43.03966    0.07793    5.07651    2.29302    3.60370    4.96654    5.12617 -999.25000 -999.25000 -999.25000 -999.25000 -999.25000 -999.25000
 2993.37760 -999.25000 -999.25000   64.19969   43.86045    0.08351    5.10415    2.29132    3.43543    6.08229    6.29268 -999.25000 -999.25000 -999.25000 -999.25000 -999.25000 -999.25000
 2993.87760 -999.25000 -999.25000   68.23007   45.30858    0.07671    5.01535    2.29310    2.64994    6.25711    6.49031 -999.25000 -999.25000 -999.25000 -999.25000 -999.25000 -999.25000
 2994.37760 -999.25000 -999.25000   72.90741   45.18654    0.09040    4.54942    2.27472    2.60294    5.65697    6.12343 -999.25000 -999.25000 -999.25000 -999.25000 -999.25000 -999.25000
 2994.87760 -999.25000 -999.25000   76.03660   49.79754    0.11928    4.05871    2.25862    2.61630    4.15233    4.80545 -999.25000 -999.25000 -999.25000 -999.25000 -999.25000 -999.25000
 2995.37760 -999.25000 -999.25000   73.15537   53.73064    0.11617    3.75874    2.24674    3.23932    3.14742    3.02723 -999.25000 -999.25000 -999.25000 -999.25000 -999.25000 -999.25000
 2995.87760 -999.25000 -999.25000   71.20647   45.13393    0.11585    3.14105    2.29918    4.42086    2.91151    3.09429 -999.25000 -999.25000 -999.25000 -999.25000 -999.25000 -999.25000
 2996.37760 -999.25000 -999.25000   74.90866   54.42514    0.10081    3.28189    2.29947    5.76601    2.95669    2.88499 -999.25000 -999.25000 -999.25000 -999.25000 -999.25000 -999.25000
 2996.87760 -999.25000 -999.25000   74.53304   50.68033    0.10574    3.32409    2.31794    7.31619    3.06194    3.08375 -999.25000 -999.25000 -999.25000 -999.25000 -999.25000 -999.25000
 2997.37760 -999.25000 -999.25000   73.48796   51.14299    0.09895    4.12168    2.32362    6.58011    3.47936    3.45103 -999.25000 -999.25000 -999.25000 -999.25000 -999.25000 -999.25000
 2997.87760 -999.25000 -999.25000   69.52036   40.79661    0.06455    3.90774    2.27862    7.59816    4.82351    4.62413 -999.25000 -999.25000 -999.25000 -999.25000 -999.25000 -999.25000
 2998.37760 -999.25000 -999.25000   67.05067   40.68752    0.07499    4.23331    2.33768    5.53535    5.06600    4.76698 -999.25000 -999.25000 -999.25000 -999.25000 -999.25000 -999.25000
 2998.87760 -999.25000 -999.25000   67.42952   44.18393    0.09132    4.84562    2.33195    4.11723    4.20927    3.91873 -999.25000 -999.25000 -999.25000 -999.25000 -999.25000 -999.25000
 2999.37760 -999.25000 -999.25000   71.52093   41.93760    0.08755    5.49349    2.32813    3.79414    4.18124    4.11674 -999.25000 -999.25000 -999.25000 -999.25000 -999.25000 -999.25000
 2999.87760 -999.25000 -999.25000   69.04703   39.68137    0.07257    6.30000    2.26806    4.29532    5.48479    5.32779 -999.25000 -999.25000 -999.25000 -999.25000 -999.25000 -999.25000
 3000.37760 -999.25000 -999.25000   63.10851   37.40052    0.06272    6.55688    2.27062    5.05534    7.56241    7.21013 -999.25000 -999.25000 -999.25000 -999.25000 -999.25000 -999.25000
 3000.87760 -999.25000 -999.25000   62.44394   35.92367    0.06608    7.18745    2.28865    2.60960    8.79946    8.17070 -999.25000 -999.25000 -999.25000 -999.25000 -999.25000 -999.25000
 3001.37760 -999.25000 -999.25000   68.74721   37.16948    0.07133    7.96339    2.29447    2.16496    8.43235    8.04644 -999.25000 -999.25000 -999.25000 -999.25000 -999.25000 -999.25000
 3001.87760 -999.25000 -999.25000   62.72971   37.82463    0.07434    8.12966    2.27886    1.93802    7.39119    7.87299 -999.25000 -999.25000 -999.25000 -999.25000 -999.25000 -999.25000
 3002.37760 -999.25000 -999.25000   60.74806   33.76613    0.06074    7.65945    2.34543    2.64570    7.73635    7.76304 -999.25000 -999.25000 -999.25000 -999.25000 -999.25000 -999.25000
 3002.87760 -999.25000 -999.25000   64.35937   36.26453    0.06231    6.29150    2.33888    2.94315    7.77666    7.79420 -999.25000 -999.25000 -999.25000 -999.25000 -999.25000 -999.25000
 3003.37760 -999.25000 -999.25000   73.33652   46.57792    0.09624    6.84885    2.29830    2.79974    4.87715    3.97554 -999.25000 -999.25000 -999.25000 -999.25000 -999.25000 -999.25000
 3003.87760 -999.25000 -999.25000   68.89547   42.55047    0.09479    7.26037    2.28081    2.94970    3.97913    3.22872 -999.25000 -999.25000 -999.25000 -999.25000 -999.25000 -999.25000
 3004.37760 -999.25000 -999.25000   57.66031   28.09911    0.04639    6.59906    2.30315    3.54806    8.92559    8.23513 -999.25000 -999.25000 -999.25000 -999.25000 -999.25000 -999.25000
 3004.87760 -999.25000 -999.25000   57.45725   25.14247    0.05074    6.74625    2.28290    3.83399   12.02355   10.18058 -999.25000 -999.25000 -999.25000 -999.25000 -999.25000 -999.25000
 3005.37760 -999.25000 -999.25000   58.57315   31.55390    0.05757    6.77213    2.32601    2.32452   12.02808   10.96543 -999.25000 -999.25000 -999.25000 -999.25000 -999.25000 -999.25000
 3005.87760 -999.25000 -999.25000   66.42578   40.79697    0.06910    6.25024    2.29490    1.79850    8.83006   10.54090 -999.25000 -999.25000 -999.25000 -999.25000 -999.25000 -999.25000
 3006.37760 -999.25000 -999.25000   69.45215   46.96265    0.09375    5.65047    2.29496    1.73964    5.05354    6.00291 -999.25000 -999.25000 -999.25000 -999.25000 -999.25000 -999.25000
 3006.87760 -999.25000 -999.25000   70.25697   37.88573    0.08282    4.96265    2.29412    2.29787    3.84177    4.17124 -999.25000 -999.25000 -999.25000 -999.25000 -999.25000 -999.25000
 3007.37760 -999.25000 -999.25000   66.95333   42.12721    0.10445    4.03063    2.28788    3.03015    3.71529    4.33800 -999.25000 -999.25000 -999.25000 -999.25000 -999.25000 -999.25000
 3007.87760 -999.25000 -999.25000   72.22807   49.37140    0.11169    3.79703    2.27252    3.60701    3.48477    3.30959 -999.25000 -999.25000 -999.25000 -999.25000 -999.25000 -999.25000
 3008.37760 -999.25000 -999.25000   70.44638   44.12747    0.11485    3.37010    2.28978    3.98844    3.52967    3.70161 -999.25000 -999.25000 -999.25000 -999.25000 -999.25000 -999.25000
 3008.87760 -999.25000 -999.25000   70.96510   47.91344    0.11494    3.50457    2.37590    3.90031    3.50132    3.43854 -999.25000 -999.25000 -999.25000 -999.25000 -999.25000 -999.25000
 3009.37760 -999.25000 -999.25000   72.84970   50.76576    0.10515    3.75150    2.34545    4.78915    3.36350    3.24650 -999.25000 -999.25000 -999.25000 -999.25000 -999.25000 -999.25000
 3009.87760 -999.25000 -999.25000   75.60637   47.04605    0.09981    4.11706    2.30392    4.42724    3.62214    3.42355 -999.25000 -999.25000 -999.25000 -999.25000 -999.25000 -999.25000
 3010.37760 -999.25000 -999.25000   70.18445   34.92546    0.06887    4.08598    2.28621    5.04416    4.36457    4.25148 -999.25000 -999.25000 -999.25000 -999.25000 -999.25000 -999.25000
 3010.87760 -999.25000 -999.25000   63.86586   34.31345    0.07042    4.32879    2.30184    3.86985    4.76396    4.59531 -999.25000 -999.25000 -999.25000 -999.25000 -999.25000 -999.25000
 3011.37760 -999.25000 -999.25000   69.12999   44.87338    0.08787    4.94606    2.29713    2.55447    4.28580    4.26398 -999.25000 -999.25000 -999.25000 -999.25000 -999.25000 -999.25000
 3011.87760 -999.25000 -999.25000   68.44142   42.56746    0.07869    5.51425    2.34938    2.13164    4.99145    4.85836 -999.25000 -999.25000 -999.25000 -999.25000 -999.25000 -999.25000
 3012.37760 -999.25000 -999.25000   66.49180   37.19339    0.07038    5.15171    2.26450    2.17030    6.08850    5.88686 -999.25000 -999.25000 -999.25000 -999.25000 -999.25000 -999.25000
 3012.87760 -999.25000 -999.25000   70.16917   44.51600    0.07624    5.77614    2.31900    2.11552    5.56857    5.51263 -999.25000 -999.25000 -999.25000 -999.25000 -999.25000 -999.25000
