~Version ---------------------------------------------------
VERS.   2.0 : CWLS log ASCII Standard -VERSION 2.0
WRAP.    NO : One line per depth step
DLM . SPACE : Column Data Section Delimiter
~Well ------------------------------------------------------
STRT.ft  239.87760 : START DEPTH
STOP.ft 4186.87760 : STOP DEPTH
STEP.ft    0.50000 : STEP
NULL.      -999.25 : NULL VALUE
COMP. STATOILHYDRO : COMPANY
WELL.    15/9-F-12 : WELL
FLD .        VOLVE : FIELD
LOC .      UNKNOWN : LOCATION
PROV.              : PROVINCE
CNTY.      UNKNOWN : COUNTY
STAT.      UNKNOWN : STATE
CTRY.       Norway : COUNTRY
SRVC.      UNKNOWN : SERVICE COMPANY
DATE.      UNKNOWN : DATE
UWI . NO 15/9-F-12 : UNIQUE WELL ID
API .              : API NUMBER
~Curve Information -----------------------------------------
DEPT     .ft           : 
CARB_FLAG.UNKNOWN      : 
COAL_FLAG.UNKNOWN      : 
DT       .us/ft        : 
GR       .API          : 
NPHI     .v/v_decimal  : 
RD       .UNKNOWN      : 
RHOB     .g/cm3        : 
ROP5_RM  .UNKNOWN      : 
RS       .UNKNOWN      : 
RT       .ohm.m        : 
SAND_FLAG.UNKNOWN      : 
BVW      .v/v_decimal  : 
KLOGH    .mD           : 
PHIF     .v/v_decimal  : 
SW       .v/v_decimal  : 
VSH      .v/v_decimal  : 
~Params ----------------------------------------------------
~Other -----------------------------------------------------
~ASCII -----------------------------------------------------
# ...
 1637.37760 -999.25000 -999.25000  132.90272  130.35846    0.32828    0.91936    1.99963   40.61730    1.11573    0.89110 -999.25000 -999.25000 -999.25000 -999.25000 -999.25000 -999.25000
 1637.87760 -999.25000 -999.25000  137.81423  133.13947    0.27349    0.91058    2.04428   40.14173    1.02103    0.83492 -999.25000 -999.25000 -999.25000 -999.25000 -999.25000 -999.25000
 1638.37760 -999.25000 -999.25000  138.17125  137.57010    0.36214    0.89699    2.01973   39.63237    1.05175    0.79505 -999.25000 -999.25000 -999.25000 -999.25000 -999.25000 -999.25000
 1638.87760 -999.25000 -999.25000  138.65292  131.38301    0.33798    0.89125    1.96462   39.46723    1.04828    0.81867 -999.25000 -999.25000 -999.25000 -999.25000 -999.25000 -999.25000
 1639.37760 -999.25000 -999.25000  135.79824  138.13845    0.47005    0.87752    1.95131   39.70917    1.00971    0.80020 -999.25000 -999.25000 -999.25000 -999.25000 -999.25000 -999.25000
 1639.87760 -999.25000 -999.25000  131.65615  137.49020    0.44739    0.82598    1.95352   39.53776    0.93824    0.72249 -999.25000 -999.25000 -999.25000 -999.25000 -999.25000 -999.25000
 1640.37760 -999.25000 -999.25000  133.50782  136.28067    0.43514    0.79376    1.95589   39.60256    0.89382    0.69526 -999.25000 -999.25000 -999.25000 -999.25000 -999.25000 -999.25000
 1640.87760 -999.25000 -999.25000  128.71319  133.69288    0.32171    0.84478    1.95696   39.47360    1.07049    0.77365 -999.25000 -999.25000 -999.25000 -999.25000 -999.25000 -999.25000
 1641.37760 -999.25000 -999.25000  127.63728  126.42104    0.37921    1.04477    1.99995   39.72643    1.25217    0.95795 -999.25000 -999.25000 -999.25000 -999.25000 -999.25000 -999.25000
 1641.87760 -999.25000 -999.25000  130.97976  130.19989    0.31793    0.97671    2.12187   39.56100    1.26610    0.95893 -999.25000 -999.25000 -999.25000 -999.25000 -999.25000 -999.25000
 1642.37760 -999.25000 -999.25000  132.81707  123.03842    0.29343    0.98775    2.20420   39.57622    1.24208    0.88778 -999.25000 -999.25000 -999.25000 -999.25000 -999.25000 -999.25000
 1642.87760 -999.25000 -999.25000  134.18632  129.56085    0.29733    0.92361    2.13423   39.47731    1.01395    0.77236 -999.25000 -999.25000 -999.25000 -999.25000 -999.25000 -999.25000
 1643.37760 -999.25000 -999.25000  138.21353  127.56663    0.28458    0.98268    2.12654   39.71019    1.45130    0.83283 -999.25000 -999.25000 -999.25000 -999.25000 -999.25000 -999.25000
 1643.87760 -999.25000 -999.25000  128.53351  127.18661    0.30013    0.92996    2.12888   39.46888    1.17888    0.89906 -999.25000 -999.25000 -999.25000 -999.25000 -999.25000 -999.25000
 1644.37760 -999.25000 -999.25000  137.98578  134.52892    0.34970    0.97780    2.09597   39.75852    1.23810    0.93470 -999.25000 -999.25000 -999.25000 -999.25000 -999.25000 -999.25000
 1644.87760 -999.25000 -999.25000  135.98522  134.94231    0.37050    0.94949    2.12324   39.49087    1.13719    0.78943 -999.25000 -999.25000 -999.25000 -999.25000 -999.25000 -999.25000
 1645.37760 -999.25000 -999.25000  137.89365  129.19862    0.41798    0.91594    2.10596   39.75800    1.13215    0.81824 -999.25000 -999.25000 -999.25000 -999.25000 -999.25000 -999.25000
 1645.87760 -999.25000 -999.25000  132.70413  124.79667    0.35155    0.93774    2.08092   39.46892    1.11470    0.82629 -999.25000 -999.25000 -999.25000 -999.25000 -999.25000 -999.25000
 1646.37760 -999.25000 -999.25000  133.73834  135.40722    0.38475    0.90614    2.10631   39.75275    1.04893    0.79029 -999.25000 -999.25000 -999.25000 -999.25000 -999.25000 -999.25000
 1646.87760 -999.25000 -999.25000  141.55466  134.27774    0.27250    0.92111    2.09617   39.46796    1.39492    0.84441 -999.25000 -999.25000 -999.25000 -999.25000 -999.25000 -999.25000
 1647.37760 -999.25000 -999.25000  132.45832  128.30555    0.33069    0.92387    2.06010   39.75781    1.20838    0.85452 -999.25000 -999.25000 -999.25000 -999.25000 -999.25000 -999.25000
 1647.87760 -999.25000 -999.25000  133.18275  133.93361    0.40088    0.94344    2.05425   39.47284    1.25207    0.81001 -999.25000 -999.25000 -999.25000 -999.25000 -999.25000 -999.25000
 1648.37760 -999.25000 -999.25000  135.50174  133.22591    0.46601    0.95503    2.02239   39.75405    1.23568    0.87068 -999.25000 -999.25000 -999.25000 -999.25000 -999.25000 -999.25000
 1648.87760 -999.25000 -999.25000  136.30346  132.17528    0.32294    1.01392    2.06924   39.46847    1.44977    0.89698 -999.25000 -999.25000 -999.25000 -999.25000 -999.25000 -999.25000
 1649.37760 -999.25000 -999.25000  141.55899  136.46970    0.30828    0.98306    2.06294   39.75715    1.34578    0.90341 -999.25000 -999.25000 -999.25000 -999.25000 -999.25000 -999.25000
 1649.87760 -999.25000 -999.25000  134.19826  141.75961    0.31173    0.98913    2.05654   39.47121    1.39044    0.84723 -999.25000 -999.25000 -999.25000 -999.25000 -999.25000 -999.25000
 1650.37760 -999.25000 -999.25000  134.83676  138.91206    0.36206    0.97788    2.03829   39.75410    1.36894    0.88524 -999.25000 -999.25000 -999.25000 -999.25000 -999.25000 -999.25000
 1650.87760 -999.25000 -999.25000  133.43671  128.93220    0.32123    0.97036    1.99252   39.47123    1.33095    0.89342 -999.25000 -999.25000 -999.25000 -999.25000 -999.25000 -999.25000
 1651.37760 -999.25000 -999.25000  137.93679  140.80092    0.34517    0.96211    2.03291   39.75560    1.24917    0.88725 -999.25000 -999.25000 -999.25000 -999.25000 -999.25000 -999.25000
 1651.87760 -999.25000 -999.25000  130.26806  135.13661    0.30549    0.97870    1.95835   39.47142    1.08651    0.85558 -999.25000 -999.25000 -999.25000 -999.25000 -999.25000 -999.25000
 1652.37760 -999.25000 -999.25000  132.73342  128.34372    0.26649    0.97971    2.01273   39.75865    1.20111    0.91149 -999.25000 -999.25000 -999.25000 -999.25000 -999.25000 -999.25000
 1652.87760 -999.25000 -999.25000  133.76094  128.29970    0.53486    0.96915    1.94307   39.47072    1.17013    0.89458 -999.25000 -999.25000 -999.25000 -999.25000 -999.25000 -999.25000
 1653.37760 -999.25000 -999.25000  136.66862  125.18632    0.37618    0.95974    1.90847   39.74459    1.22076    0.86225 -999.25000 -999.25000 -999.25000 -999.25000 -999.25000 -999.25000
 1653.87760 -999.25000 -999.25000  134.27228  123.78215    0.35639    0.96361    1.91341   39.46826    1.16149    0.86860 -999.25000 -999.25000 -999.25000 -999.25000 -999.25000 -999.25000
 1654.37760 -999.25000 -999.25000  136.63485  128.22759    0.50431    0.98150    1.97927   39.75860    1.10677    0.89824 -999.25000 -999.25000 -999.25000 -999.25000 -999.25000 -999.25000
 1654.87760 -999.25000 -999.25000  131.39965  120.07956    0.45681    0.99370    1.98613   39.53393    1.33403    0.88821 -999.25000 -999.25000 -999.25000 -999.25000 -999.25000 -999.25000
 1655.37760 -999.25000 -999.25000  132.64957  122.92756    0.58652    1.00873    1.98782   39.75707    1.39472    0.86889 -999.25000 -999.25000 -999.25000 -999.25000 -999.25000 -999.25000
 1655.87760 -999.25000 -999.25000  134.39792  121.34634    0.42084    1.03366    1.96808   39.46806    1.20284    0.88339 -999.25000 -999.25000 -999.25000 -999.25000 -999.25000 -999.25000
 1656.37760 -999.25000 -999.25000  134.13304  116.19450    0.36909    0.99409    1.98830   39.73689    1.06186    0.89152 -999.25000 -999.25000 -999.25000 -999.25000 -999.25000 -999.25000
 1656.87760 -999.25000 -999.25000  133.89963  134.75793    0.40798    0.96904    1.98423   39.49839    1.08009    0.86018 -999.25000 -999.25000 -999.25000 -999.25000 -999.25000 -999.25000
 1657.37760 -999.25000 -999.25000  136.65468  130.37457    0.34188    0.97328    1.94936   39.75744    1.26511    0.88503 -999.25000 -999.25000 -999.25000 -999.25000 -999.25000 -999.25000
 1657.87760 -999.25000 -999.25000  132.66856  122.46679    0.35319    0.96497    1.99778   39.51956    1.09921    0.86552 -999.25000 -999.25000 -999.25000 -999.25000 -999.25000 -999.25000
 1658.37760 -999.25000 -999.25000  136.06840  132.80082    0.32040    0.95479    2.00754   40.04899    1.19042    0.81294 -999.25000 -999.25000 -999.25000 -999.25000 -999.25000 -999.25000
