~Version ---------------------------------------------------
VERS.   2.0 : CWLS log ASCII Standard -VERSION 2.0
WRAP.    NO : One line per depth step
DLM . SPACE : Column Data Section Delimiter
~Well ------------------------------------------------------
STRT.ft          145.90000 : START DEPTH
STOP.ft         4684.90000 : STOP DEPTH
STEP.ft            0.50000 : STEP
NULL.              -999.25 : NULL VALUE
COMP. STATOIL PETROLEUM AS : COMPANY
WELL.          15/9-F-15 D : WELL
FLD .                VOLVE : FIELD
LOC .                      : LOCATION
PROV.                      : PROVINCE
CNTY.      MAERSK INSPIRER : COUNTY
STAT.                      : STATE
CTRY.                      : COUNTRY
SRVC.                      : SERVICE COMPANY
DATE.                      : DATE
UWI .                      : UNIQUE WELL ID
API .                      : API NUMBER
~Curve Information -----------------------------------------
DEPT     .ft        : 
ABDCQF01 .g/cm3     : 
ABDCQF02 .g/cm3     : 
ABDCQF03 .g/cm3     : 
ABDCQF04 .g/cm3     : 
BS       .inches    : 
CALI     .inches    : 
DRHO     .g/cm3     : 
GR       .API       : 
NBGRCFM  .API       : 
NPHI     .v/v       : 
PEF      .b/elec    : 
RACEHM   .ohm.m     : 
RACELM   .ohm.m     : 
RD       .ohm.m     : 
RHOB     .g/cm3     : 
RM       .ohm.m     : 
ROP      .m/hr      : 
RPCEHM   .ohm.m     : 
RPCELM   .ohm.m     : 
RT       .ohm.m     : 
BVW      .v/v       : 
COAL_FLAG.unitless  : 
KLOGH    .mD        : 
PHIF     .v/v       : 
SAND_FLAG.unitless  : 
SW       .v/v       : 
VCARB    .v/v       : 
VSH      .v/v       : 
~Params ----------------------------------------------------
~Other -----------------------------------------------------
PETROPHYSICAL INTERPRETATION: INPUT

# --- LOG MNEMONICS AND UNITS ---
#Depth          ABDCQF01        ABDCQF02        ABDCQF03        ABDCQF04        BS              CALI            DRHO            GR              NBGRCFM         NPHI            PEF             RACEHM          RACELM          RD              RHOB            RM              ROP             RPCEHM          RPCELM          RT
#M              g/cm3           g/cm3           g/cm3           g/cm3           inches          inches          g/cm3           API             API             v/v             b/elec          ohm.m           ohm.m           ohm.m           g/cm3           ohm.m           m/hr            ohm.m           ohm.m           ohm.m
~ASCII -----------------------------------------------------
# ...
 3533.40000    2.54080    2.39040    2.41610    2.40730    8.50000    8.50000    0.07390   44.82540   42.30980    0.19010    5.76760    3.86030    6.18000    5.88520    2.44630    8.21300   16.30720    8.21290    5.88520    8.26690    0.05380    0.00000    0.30160    0.11630    1.00000    0.46280    0.00000    0.38350
 3533.90000    2.40980    2.43350    2.52930    2.42280    8.50000    8.54680    0.04850   40.84830   41.57560    0.17340    5.82990    4.20090    6.08980    6.21300    2.42830    8.86780   23.29070    8.86780    6.21300    8.79530    0.05470    0.00000    1.53880    0.15540    1.00000    0.35210    0.00000    0.33960
 3534.40000    2.58280    2.52060    2.48120    2.48300    8.50000    8.48450    0.04250   42.97410   44.89530    0.15020    5.99450    3.69040    6.12970    5.83850    2.50450    7.86190   26.54450    7.86170    5.83840    8.27890    0.05070    0.00000    0.31710    0.08320    0.00000    0.60920    0.03200    0.35160
 3534.90000    2.65740    2.52990    2.45320    2.56450    8.50000    8.56240    0.05380   45.15580   44.32890    0.15670    6.55580    4.15190    6.53820    5.80630    2.53490    6.67370   26.60620    6.67370    5.80630    6.70610    0.05220    0.00000    0.11600    0.06580    0.00000    0.79390    0.05180    0.38460
 3535.40000    2.59310    2.55710    2.48900    2.57920    8.50000    8.50000    0.03940   51.62070   49.13810    0.17100    6.61720    4.75780    7.04910    5.37990    2.54150    5.23350   27.33860    5.23350    5.38000    5.22000    0.05820    0.00000    0.03250    0.06200    0.00000    0.93910    0.01280    0.44270
 3535.90000    2.62520    2.49240    2.43850    2.53370    8.50000    8.57810    0.06870   56.74020   59.14860    0.18030    6.50190    5.50280    7.38670    5.80530    2.54320    5.81050   27.71160    5.81010    5.80510    6.51240    0.05680    0.00000    0.01030    0.06100    0.00000    0.93170    0.00000    0.49740
 3536.40000    2.52940    2.46960    2.45600    2.48310    8.50000    8.57810    0.06610   61.66080   57.57410    0.18060    6.19460    5.48280    7.20600    6.39280    2.47870    7.03440   29.40790    7.03460    6.39290    6.64500    0.05820    0.00000    0.00760    0.09790    0.00000    0.59480    0.00000    0.54450
 3536.90000    2.50090    2.50560    2.57310    2.48670    8.50000    8.57810    0.05630   65.35430   61.78550    0.18720    5.88900    6.79100    7.90310    7.33640    2.51020    7.43910   30.88560    7.43890    7.33630    7.66370    0.05550    0.00000    0.00290    0.07990    0.00000    0.69390    0.00000    0.57470
 3537.40000    2.51410    2.54310    2.63150    2.49000    8.50000    8.57790    0.04240   64.17190   65.51010    0.19270    6.12750    7.58370    8.05330    7.52150    2.54120    7.41250   31.73930    7.41250    7.52140    7.37480    0.05290    0.00000    0.00260    0.06220    0.00000    0.85140    0.00000    0.56530
 3537.90000    2.50900    2.58730    2.63270    2.48750    8.50000    8.57810    0.04630   59.85420   57.80980    0.19030    6.32280    8.89090    8.92930    7.84760    2.56050    6.71000   31.70690    6.71000    7.84750    6.47280    0.05110    0.00000    0.00620    0.05110    0.00000    1.00000    0.00000    0.51330
 3538.40000    2.50200    2.58630    2.58590    2.51670    8.50000    8.57810    0.04180   60.49640   54.53750    0.18580    6.51650   11.77830    8.32930    8.91190    2.55580    7.72420   31.69350    7.72400    8.91170    7.70490    0.05000    0.00000    0.00470    0.05380    0.00000    0.92890    0.00000    0.52890
 3538.90000    2.52800    2.51780    2.41110    2.54960    8.50000    8.57790    0.02730   47.89000   47.77270    0.17550    6.48090   49.60690    6.84670   24.60710    2.49990   66.83970   31.75070   66.79680   24.60490 12292.29980    0.01890    0.00000    0.09240    0.08570    0.00000    0.22010    0.00000    0.41330
 3539.40000    2.63560    2.36470    2.20880    2.55010    8.50000    8.54690    0.03380   37.43660   36.88930    0.17020    5.27890 6381.09910    5.93390   69.76730    2.40170 62290.76950   31.79510 62290.76950   69.74970 62290.76950    0.01620    0.00000    2.69380    0.16320    1.00000    0.09960    0.00000    0.31950
 3539.90000    2.62650    2.26650    2.18700    2.39370    8.50000    8.50030    0.05550   34.30930   32.05050    0.17740    4.94890 6381.09910    5.78140 1509.28490    2.33530 62290.76950   31.76220 62290.76950 1509.40840 62290.76950    0.01600    0.00000   10.59830    0.18880    1.00000    0.08490    0.00000    0.27610
 3540.40000    2.45990    2.21430    2.19440    2.29150    8.50000    8.54690    0.04280   26.37270   25.26470    0.17790    5.08120 6381.09910    5.93090  387.44260    2.26950 62290.76950   31.75040 62290.76950  387.43920 62290.76950    0.01570    0.00000   75.65490    0.21160    1.00000    0.07420    0.00000    0.20150
 3540.90000    2.29090    2.20770    2.18660    2.23130    8.50000    8.54660    0.03340   26.73020   27.06400    0.18660    4.89760 6381.09910    6.26820 6206.42630    2.22360 62290.76950   31.76400 62290.76950 6207.68410 62290.76950    0.01630    0.00000   93.78590    0.23080    1.00000    0.07040    0.00000    0.20830
 3541.40000    2.32420    2.22030    2.18040    2.26970    8.50000    8.50000    0.02750   28.44640   31.03770    0.20380    5.14930 6381.09910    6.58940  372.30950    2.22890 62290.76950   31.75860 62290.76950  372.34830 62290.76950    0.01640    0.00000   59.45540    0.23590    1.00000    0.06960    0.00000    0.23480
 3541.90000    2.46810    2.21920    2.15790    2.29680    8.50000    8.52350    0.03730   28.09430   28.77900    0.21440    5.76070 6381.09910    7.25270 1081.18970    2.25660 62290.76950   31.72240 62290.76950 1081.13680 62290.76950    0.01810    0.00000   64.39580    0.23060    1.00000    0.07840    0.00000    0.22630
 3542.40000    2.34620    2.17400    2.15520    2.24130    8.50000    8.52330    0.04680   28.64180   28.51790    0.21160    5.20760 6381.09910    6.56520   54.22870    2.22490   92.56330   31.69190   92.56290   54.23180  103.03800    0.02120    0.00000   73.57040    0.24040    1.00000    0.08820    0.00000    0.22850
 3542.90000    2.17920    2.15380    2.15260    2.17200    8.50000    8.54660    0.03740   25.24070   27.15450    0.20210    4.83670 6348.51610    6.28870   38.27120    2.16760   94.47710   31.73230   94.47880   38.27220   91.86480    0.02260    0.00000  194.47980    0.25620    1.00000    0.08810    0.00000    0.19570
 3543.40000    2.16290    2.16800    2.16290    2.16410    8.50000    8.50000    0.02910   27.66310   28.46100    0.21530    4.61260   20.87140    6.13000   20.19400    2.16010   44.47100   31.73900   44.47170   20.19420   43.89760    0.03100    0.00000  188.45290    0.26410    1.00000    0.11720    0.00000    0.20420
 3543.90000    2.18310    2.17810    2.16400    2.18630    8.50000    8.54660    0.03200   29.95070   30.20700    0.19670    4.87060   14.81350    6.19150   16.99270    2.17440   33.29900   31.75180   33.29960   16.99280   33.31360    0.03470    0.00000   67.50470    0.25170    1.00000    0.13770    0.00000    0.24270
 3544.40000    2.18300    2.17870    2.16380    2.18500    8.50000    8.50000    0.03110   28.94750   26.46580    0.20260    4.77650   13.16430    6.33070   15.51610    2.17560   27.72530   31.74730   27.72550   15.51620   27.60970    0.03740    0.00000   85.96180    0.25370    1.00000    0.14730    0.00000    0.23280
 3544.90000    2.17790    2.17670    2.16110    2.18800    8.50000    8.50000    0.03070   28.45160   29.93890    0.20100    4.79700   12.60250    6.36740   14.94030    2.17270   25.49390   31.71280   25.49400   14.94030   25.32670    0.03860    0.00000  109.75320    0.25400    1.00000    0.15200    0.00000    0.22130
 3545.40000    2.19980    2.19150    2.17040    2.19540    8.50000    8.50000    0.03230   30.66740   30.70750    0.20370    4.86080   12.39230    6.48200   14.59300    2.18320   24.08890   31.70070   24.08890   14.59300   24.08560    0.03950    0.00000   87.00940    0.25150    1.00000    0.15700    0.00000    0.23030
