~Version ---------------------------------------------------
VERS.   2.0 : CWLS log ASCII Standard -VERSION 2.0
WRAP.    NO : One line per depth step
DLM . SPACE : Column Data Section Delimiter
~Well ------------------------------------------------------
STRT.ft  239.87760 : START DEPTH
STOP.ft 4186.87760 : STOP DEPTH
STEP.ft    0.50000 : STEP
NULL.      -999.25 : NULL VALUE
COMP. STATOILHYDRO : COMPANY
WELL.    15/9-F-12 : WELL
FLD .        VOLVE : FIELD
LOC .      UNKNOWN : LOCATION
PROV.              : PROVINCE
CNTY.      UNKNOWN : COUNTY
STAT.      UNKNOWN : STATE
CTRY.       Norway : COUNTRY
SRVC.      UNKNOWN : SERVICE COMPANY
DATE.      UNKNOWN : DATE
UWI . NO 15/9-F-12 : UNIQUE WELL ID
API .              : API NUMBER
~Curve Information -----------------------------------------
DEPT     .ft           : 
CARB_FLAG.UNKNOWN      : 
COAL_FLAG.UNKNOWN      : 
DT       .us/ft        : 
GR       .API          : 
NPHI     .v/v_decimal  : 
RD       .UNKNOWN      : 
RHOB     .g/cm3        : 
ROP5_RM  .UNKNOWN      : 
RS       .UNKNOWN      : 
RT       .ohm.m        : 
SAND_FLAG.UNKNOWN      : 
BVW      .v/v_decimal  : 
KLOGH    .mD           : 
PHIF     .v/v_decimal  : 
SW       .v/v_decimal  : 
VSH      .v/v_decimal  : 
~Params ----------------------------------------------------
~Other -----------------------------------------------------
~ASCII -----------------------------------------------------
# ...
 3378.87760    0.00000    0.00000   80.76970   94.57553    0.17501    1.50700    2.49509   24.36911    1.36933    1.48676    0.00000    0.10103    0.00845    0.10103    1.00000    0.66098
 3379.37760    0.00000    0.00000   75.98777   97.47460    0.17565    1.36898    2.51510   24.65122    1.27470    1.37201    0.00000    0.09010    0.00417    0.09010    1.00000    0.69965
 3379.87760    0.00000    0.00000   85.94202   96.20501    0.16784    1.29736    2.52000   24.71000    1.29023    1.32736    0.00000    0.08740    0.00417    0.08740    1.00000    0.68276
 3380.37760    0.00000    0.00000   79.48453  103.27188    0.16687    1.32772    2.52756   24.59674    1.39067    1.41067    0.00000    0.08328    0.00184    0.08328    1.00000    0.77700
 3380.87760    0.00000    0.00000   75.78292   98.29314    0.16951    1.46836    2.46956   23.99360    1.58615    1.70430    0.00000    0.11427    0.03877    0.14678    0.77893    0.71061
 3381.37760    0.00000    0.00000   72.53157   87.01416    0.16033    1.56287    2.48021   22.26939    2.44807    2.43192    0.00000    0.09596    0.07934    0.13960    0.68705    0.56019
 3381.87760    0.00000    0.00000   77.36990   89.68567    0.15506    2.31254    2.45977   21.08276    7.81517   18.88437    0.00000    0.03526    0.07451    0.14425    0.24452    0.59578
 3382.37760    0.00000    0.00000   82.64642   99.48115    0.16399    2.96798    2.45743   20.73587    4.59664   23.58531    0.00000    0.03135    0.03605    0.14858    0.21073    0.72645
 3382.87760    0.00000    0.00000   86.60655   99.04883    0.17401    2.21128    2.43733   23.68571    1.52737    7.33382    0.00000    0.06144    0.05780    0.15917    0.38455    0.72063
 3383.37760    0.00000    0.00000   83.40322   97.07579    0.18817    1.60283    2.43000   26.05713    0.90652    1.38253    0.00000    0.12717    0.09492    0.16722    0.76004    0.69437
 3383.87760    0.00000    0.00000   86.05007   93.09730    0.19181    1.24326    2.43000   27.75610    0.82976    0.93096    0.00000    0.15396    0.14495    0.16870    0.91281    0.64126
 3384.37760    0.00000    0.00000   79.95545   97.03777    0.17951    1.03163    2.45266   27.82017    0.94084    0.94307    0.00000    0.15287    0.06225    0.15639    0.97799    0.69388
 3384.87760    0.00000    0.00000   84.45624   99.09274    0.18439    0.94466    2.46000   27.81572    1.05553    1.02289    0.00000    0.12020    0.01200    0.12020    1.00000    0.72121
 3385.37760    0.00000    0.00000   84.17672   95.65545    0.20035    0.90735    2.39207   27.78956    1.11022    1.24386    0.00000    0.13354    0.22220    0.18458    0.72439    0.67544
 3385.87760    0.00000    0.00000   83.99353   81.09824    0.20930    0.84733    2.36996   27.61925    1.17954    1.35426    1.00000    0.12801    1.28447    0.19535    0.65548    0.48132
 3386.37760    0.00000    0.00000   85.03220   64.45534    0.22107    0.84509    2.35491   27.51713    0.95076    1.03015    1.00000    0.14675    9.06807    0.20500    0.71582    0.25939
 3386.87760    0.00000    0.00000   88.46039   62.47883    0.22205    0.81222    2.35000   27.55287    0.77941    0.82941    1.00000    0.16312   11.30890    0.20702    0.78796    0.23305
 3387.37760    0.00000    0.00000   85.94606   60.04120    0.22972    0.79245    2.35000   27.78146    0.74245    0.75467    1.00000    0.17087   16.02100    0.21014    0.81321    0.20057
 3387.87760    0.00000    0.00000   82.72731   58.09343    0.23088    0.82784    2.35754   27.85000    0.76266    0.77775    1.00000    0.16833   17.65444    0.20808    0.80895    0.17459
 3388.37760    0.00000    0.00000   84.17568   59.35840    0.22599    0.91549    2.37514   27.85000    0.80777    0.82777    1.00000    0.16314    8.05295    0.18508    0.89002    0.19141
 3388.87760    0.00000    0.00000   80.90461   60.92724    0.21917    0.97776    2.38756   27.85000    0.82756    0.89284    1.00000    0.15721    7.60444    0.19351    0.81229    0.21236
 3389.37760    0.00000    0.00000   82.19258   60.51864    0.21849    1.04283    2.37495   27.85004    0.86775    0.96282    1.00000    0.15148    9.20823    0.19741    0.76726    0.20691
 3389.87760    0.00000    0.00000   84.55313   64.37070    0.20690    1.12041    2.37000   27.90291    0.91023    1.03283    1.00000    0.14629    5.75147    0.19435    0.75267    0.25824
 3390.37760    0.00000    0.00000   83.07162   65.76798    0.21320    1.20040    2.36243   27.86711    0.95018    1.08775    1.00000    0.14263    6.15595    0.19939    0.71540    0.27693
 3390.87760    0.00000    0.00000   78.19975   64.11346    0.21734    1.26531    2.36756   27.91041    0.99777    1.17552    1.00000    0.13726    7.15479    0.19933    0.68858    0.25482
 3391.37760    0.00000    0.00000   83.22283   66.20120    0.21024    1.32550    2.36257   27.86983    1.06262    1.25285    1.00000    0.13305    5.63269    0.19816    0.67127    0.28271
 3391.87760    0.00000    0.00000   85.97079   74.99735    0.21128    1.43064    2.37513   27.85000    1.06487    1.32287    1.00000    0.12949    2.18986    0.19448    0.66593    0.39999
 3392.37760    0.00000    0.00000   84.06830   76.99097    0.20768    1.36186    2.38000   27.85000    1.00712    1.18897    1.00000    0.13646    1.58869    0.19144    0.71316    0.42657
 3392.87760    0.00000    0.00000   82.16631   76.80000    0.21769    1.21668    2.37247   27.90289    0.96732    1.04936    1.00000    0.14514    2.09909    0.19793    0.73336    0.42400
 3393.37760    0.00000    0.00000   80.27753   67.97928    0.20109    1.11205    2.41531   27.97288    1.01288    1.05774    1.00000    0.14452    2.06377    0.17721    0.81580    0.30638
 3393.87760    0.00000    0.00000   77.03929   63.11871    0.19155    1.11265    2.42243   27.88428    0.99222    1.08508    1.00000    0.14268    2.52507    0.17107    0.83406    0.24159
 3394.37760    0.00000    0.00000   73.85557   58.42217    0.18687    1.15019    2.42000   27.63855    1.01019    1.05225    1.00000    0.14482    3.73004    0.17001    0.85197    0.17895
 3394.87760    0.00000    0.00000   70.88362   56.40270    0.17671    1.16712    2.44247   26.68525    1.04223    1.08521    1.00000    0.14259    2.83762    0.15854    0.89950    0.15205
 3395.37760    0.00000    0.00000   76.42917   54.21649    0.18447    1.07937    2.43488   25.21436    0.97449    1.11512    1.00000    0.14075    4.36853    0.16415    0.85738    0.12287
 3395.87760    0.00000    0.00000   85.94973   53.28546    0.19678    1.07268    2.39983   24.29377    0.88201    1.03694    1.00000    0.14592    9.18445    0.18057    0.80826    0.11044
 3396.37760    0.00000    0.00000   91.64961   54.46626    0.20117    1.05733    2.39753   24.65620    0.87515    0.97980    1.00000    0.15005    9.05769    0.18305    0.81963    0.12620
 3396.87760    0.00000    0.00000   85.15516   54.72899    0.18644    1.04243    2.45285   25.90236    1.09902    1.50618    1.00000    0.12137    0.84688    0.12411    0.97801    0.12972
 3397.37760    0.00000    0.00000   79.08238   54.32509    0.16042    1.18348    2.49264   27.35255    1.80436    2.50316    1.00000    0.09458    1.37903    0.13557    0.69710    0.12434
 3397.87760    0.00000    0.00000   68.82739   55.87902    0.14790    1.27528    2.53773   27.71000    2.81048    4.29549    0.00000    0.07226    0.11841    0.07771    0.92998    0.14506
 3398.37760    0.00000    0.00000   71.35732   56.02607    0.14419    1.28198    2.54989   26.61158    2.84149    4.15324    0.00000    0.07106    0.08833    0.07106    1.00000    0.14705
 3398.87760    0.00000    0.00000   73.42433   50.84505    0.15349    1.15165    2.51977   24.18320    1.99215    2.63594    0.00000    0.08752    0.28188    0.08752    1.00000    0.07794
 3399.37760    0.00000    0.00000   82.34126   51.43535    0.14774    1.01934    2.54773   22.06759    1.78528    2.27799    0.00000    0.07229    0.14419    0.07229    1.00000    0.08583
 3399.87760    0.00000    0.00000   87.50411   52.55274    0.16043    0.97486    2.53734   20.58050    1.69431    2.08854    0.00000    0.07794    0.16026    0.07794    1.00000    0.10071
