~Version ---------------------------------------------------
VERS.   2.0 : CWLS log ASCII Standard -VERSION 2.0
WRAP.    NO : One line per depth step
DLM . SPACE : Column Data Section Delimiter
~Well ------------------------------------------------------
STRT.ft       145.90000 : START DEPTH
STOP.ft      3464.90000 : STOP DEPTH
STEP.ft         0.50000 : STEP
NULL.           -999.25 : NULL VALUE
COMP. Statoil Petroleum : COMPANY
WELL.        15/9-F-1 B : WELL
FLD .             VOLVE : FIELD
LOC .   Maersk Inspirer : LOCATION
PROV.                   : PROVINCE
CNTY.                   : COUNTY
STAT.                   : STATE
CTRY.                   : COUNTRY
SRVC.                   : SERVICE COMPANY
DATE.                   : DATE
UWI .                   : UNIQUE WELL ID
API .                   : API NUMBER
~Curve Information -----------------------------------------
DEPT     .ft        : 
ABDCQF01 .g/cm3     : 
ABDCQF02 .g/cm3     : 
ABDCQF03 .g/cm3     : 
ABDCQF04 .g/cm3     : 
BS       .inches    : 
CALI     .inches    : 
DRHO     .g/cm3     : 
DT       .us/ft     : 
DTS      .us/ft     : 
GR       .API       : 
NBGRCFM  .API       : 
NPHI     .v/v       : 
PEF      .b/elec    : 
RACEHM   .ohm.m     : 
RACELM   .ohm.m     : 
RD       .ohm.m     : 
RHOB     .g/cm3     : 
RM       .ohm.m     : 
ROP      .m/hr      : 
RPCEHM   .ohm.m     : 
RPCELM   .ohm.m     : 
RT       .ohm.m     : 
BVW      .V/V       : 
CARB_FLAG.V/V       : 
COAL_FLAG.UNITLESS  : 
KLOGH    .mD        : 
PHIF     .V/V       : 
SAND_FLAG.UNITLESS  : 
SW       .V/V       : 
VCARB    .V/V       : 
VSH      .V/V       : 
~Params ----------------------------------------------------
~Other -----------------------------------------------------
PETROPHYSICAL INTERPRETATION: INPUT

# --- LOG MNEMONICS AND UNITS ---
#Depth          ABDCQF01        ABDCQF02        ABDCQF03        ABDCQF04        BS              CALI            DRHO            DT              DTS             GR              NBGRCFM         NPHI            PEF             RACEHM          RACELM          RD              RHOB            RM              ROP             RPCEHM          RPCELM          RT
#M              g/cm3           g/cm3           g/cm3           g/cm3           inches          inches          g/cm3           us/ft           us/ft           API             API             v/v             b/elec          ohm.m           ohm.m           ohm.m           g/cm3           ohm.m           m/hr            ohm.m           ohm.m           ohm.m
~ASCII -----------------------------------------------------
# ...
 3262.40000    2.36160    2.35580    2.36720    2.34100    8.50000    8.61300    0.04930   87.58280  143.23130   46.60950 -999.25000    0.22980    5.86680    1.15590    1.31060    1.21570    2.34720    1.20680   30.03090    1.20670    1.21570    1.20670    0.12690    0.00000    0.00000   32.16560    0.20570    1.00000    0.61710    0.00000    0.23760
 3262.90000    2.42500    2.46070    2.49950    2.50740    8.50000    8.66380    0.04750   86.28730  138.95190   67.94230 -999.25000    0.21000    6.54380    1.09100    1.22960    1.02470    2.46650    1.02760   29.97690    1.02760    1.02470    1.02760    0.10490    0.00000    0.00000    0.39960    0.10490    1.00000    1.00000    0.00000    0.35970
 3263.40000    2.44810    2.43040    2.43830    2.43580    8.50000    8.68050    0.03800   85.92600  147.38920   65.84310 -999.25000    0.25240    6.70910    1.18200    1.54040    0.80100    2.43570    0.49680   29.97580    0.49700    0.80110    0.49700    0.12250    0.00000    0.00000    0.71430    0.12250    1.00000    1.00000    0.00000    0.34740
 3263.90000    2.56600    2.54920    2.57010    2.56540    8.50000    8.66370    0.06040   86.52520  141.91740   99.09500 -999.25000    0.29010    7.29010    2.25980    2.14530    2.05540    2.55890    1.88710   28.37320    1.88710    2.05550    1.88710    0.05200    0.00000    0.00000    0.00370    0.05200    0.00000    1.00000    0.00000    0.53820
 3264.40000    2.32290    2.29070    2.22520    2.25980    8.50000    8.61340    0.06360   85.93220  136.43110   12.84820 -999.25000    0.15620    5.90480    4.60120    3.42270    6.98270    2.26260   12.56870   28.43970   12.57050    6.98350   12.57050    0.04690    0.00000    0.00000 1722.26920    0.20510    1.00000    0.22890    0.00000    0.04500
 3264.90000    2.15490    2.15550    2.18920    2.18000    8.50000    8.69760    0.02770   85.37700  134.77520    9.00990 -999.25000    0.16040    6.13520   10.74400    6.09110   15.70410    2.16570   29.13130   29.16010   29.13290   15.70590   29.13290    0.03450    0.00000    0.00000 5194.23440    0.24020    1.00000    0.14370    0.00000    0.02290
 3265.40000    2.16980    2.15730    2.15850    2.16520    8.50000    8.79910    0.03710   85.25850  134.95550    9.53380 -999.25000    0.14860    5.50720   21.92250   10.00770   35.27540    2.15730   63.26610   29.88990   63.26870   35.27720   63.26870    0.02510    0.00000    0.00000 4717.11620    0.23840    1.00000    0.10530    0.00000    0.02590
 3265.90000    2.17050    2.16220    2.16540    2.16630    8.50000    8.66370    0.02830   85.38590  134.87080    9.67990 -999.25000    0.14620    5.30630   38.79660   14.52810   51.14060    2.16310   79.25810   29.59890   79.26020   51.14510   79.26020    0.02280    0.00000    0.00000 4392.42380    0.23550    1.00000    0.09700    0.00000    0.02680
 3266.40000    2.21390    2.18940    2.19270    2.20490    8.50000    8.66400    0.02430   85.65010  135.98360    8.37590 -999.25000    0.14490    6.10760   40.76830   15.38240   52.83420    2.19500   73.87720   28.25070   73.87690   52.83390   73.87690    0.02320    0.00000    0.00000 4153.13620    0.22400    1.00000    0.10340    0.00000    0.01930
 3266.90000    2.18630    2.17480    2.16920    2.17110    8.50000    8.66370    0.03390   85.75540  136.16650    9.03520 -999.25000    0.14550    4.94810   30.34500   13.42660   46.02650    2.17090   70.24320   28.13610   70.24050   46.02440   70.24050    0.02390    0.00000    0.00000 4492.59080    0.23250    1.00000    0.10280    0.00000    0.02300
 3267.40000    2.16050    2.15880    2.16090    2.15960    8.50000    8.66370    0.02240   85.98020  135.70550    9.87260 -999.25000    0.15350    5.31130   20.15190   10.74260   27.60890    2.15770   44.17000   28.07530   44.16700   27.60690   44.16700    0.02910    0.00000    0.00000 4687.63280    0.24020    1.00000    0.12130    0.00000    0.02780
 3267.90000    2.22200    2.25010    2.26210    2.24360    8.50000    8.66370    0.03450   85.60670  135.71040   15.03330 -999.25000    0.16940    5.80790   10.43370    7.69540   13.88960    2.24940   17.43290   28.06580   17.42820   13.88760   17.42820    0.04160    0.00000    0.00000 1603.72230    0.21510    1.00000    0.19340    0.00000    0.05730
 3268.40000    2.23130    2.20080    2.20660    2.21960    8.50000    8.66370    0.03780   84.72660  135.15040   14.95820 -999.25000    0.17700    5.23010    6.57240    5.23630    8.73960    2.21020   13.27650   27.73900   13.27470    8.73870   13.27470    0.04740    0.00000    0.00000 2193.34640    0.23160    1.00000    0.20450    0.00000    0.05680
 3268.90000    2.26110    2.30690    2.35650    2.30890    8.50000    8.66370    0.02710   80.78120  129.99300   27.96180 -999.25000    0.15430    5.61320    4.46610    3.65170    4.39930    2.32280    4.87780   24.60190    4.87750    4.39900    4.87750    0.06840    0.00000    0.00000  195.51450    0.18400    1.00000    0.37180    0.00000    0.13120
 3269.40000    2.43680    2.44860    2.52820    2.49890    8.50000    8.66370    0.02750   74.59140  122.08050   28.07130 -999.25000    0.14010    6.37700    2.70890    2.89420    3.31760    2.48730    4.44080   20.48950    4.44090    3.31750    4.44090    0.06450    0.00000    0.00000   61.57490    0.12190    1.00000    0.52950    0.14420    0.13170
 3269.90000    2.53520    2.50720    2.63190    2.63700    8.50000    8.69730    0.05820   76.85330  129.89700   54.73400 -999.25000    0.18710    6.74270    1.75470    2.64740    1.60110    2.58080    1.03480   21.29630    1.03450    1.60080    1.03450    0.03950    0.00000    0.00000    0.57510    0.03950    0.00000    1.00000    0.25470    0.28400
 3270.40000    2.47810    2.42100    2.30240    2.39140    8.50000    8.66330    0.07300   85.07370  139.66830   51.62290 -999.25000    0.18650    5.64940    2.90700    3.03750    2.14780    2.38990    1.84320   24.68560    1.84390    2.14820    1.84390    0.10360    0.00000    0.00000    9.77470    0.17360    1.00000    0.59660    0.00000    0.26660
 3270.90000    2.21800    2.22560    2.24250    2.23450    8.50000    8.61300    0.03820   87.64970  139.65860   28.15660 -999.25000    0.16860    5.12890    3.31140    3.25020    3.64030    2.22490    4.93270   26.57230    4.93410    3.64090    4.93410    0.07140    0.00000    0.00000  392.75750    0.22320    1.00000    0.31980    0.00000    0.13240
 3271.40000    2.25020    2.25120    2.26660    2.26100    8.50000    8.61300    0.04020   85.49250  133.39460   21.79870 -999.25000    0.15740    5.15800    5.03110    4.06700    5.66990    2.25420    7.10560   27.81390    7.10540    5.67000    7.10540    0.06000    0.00000    0.00000  637.60390    0.20860    1.00000    0.28780    0.00000    0.09600
 3271.90000    2.26400    2.25150    2.25990    2.26110    8.50000    8.61300    0.05210   84.66450  136.46180   23.46500 -999.25000    0.17150    5.27810    5.54810    5.15670    5.40980    2.25720    5.26400   28.08210    5.26440    5.41000    5.26440    0.06840    0.00000    0.00000  570.19800    0.21330    1.00000    0.32050    0.00000    0.10560
 3272.40000    2.25520    2.26210    2.25880    2.25210    8.50000    8.66370    0.03920   83.67150  134.93890   17.64620 -999.25000    0.15230    5.12620    5.36870    5.63180    6.02890    2.25480    5.99960   28.33140    5.99950    6.02870    5.99950    0.06390    0.00000    0.00000 1004.62010    0.20650    1.00000    0.30930    0.00000    0.07220
 3272.90000    2.29360    2.28130    2.25630    2.29380    8.50000    8.61300    0.05010   83.64110  132.21170   18.75150 -999.25000    0.15100    4.96220    5.23970    6.14180    5.48790    2.27360    5.17300   29.09770    5.17400    5.48840    5.17400    0.06740    0.00000    0.00000  772.18460    0.19940    1.00000    0.33800    0.00000    0.07860
 3273.40000    2.22050    2.22910    2.22020    2.22130    8.50000    8.66370    0.03730   83.76740  132.25730   15.58030 -999.25000    0.16000    5.05530    5.67900    6.37380    6.88680    2.21920    8.04360   29.77560    8.04270    6.88660    8.04270    0.05750    0.00000    0.00000 1698.91750    0.22170    1.00000    0.25940    0.00000    0.06040
