~Version ---------------------------------------------------
VERS.   2.0 : CWLS log ASCII Standard -VERSION 2.0
WRAP.    NO : One line per depth step
DLM . SPACE : Column Data Section Delimiter
~Well ------------------------------------------------------
STRT.ft       145.90000 : START DEPTH
STOP.ft      3464.90000 : STOP DEPTH
STEP.ft         0.50000 : STEP
NULL.           -999.25 : NULL VALUE
COMP. Statoil Petroleum : COMPANY
WELL.        15/9-F-1 B : WELL
FLD .             VOLVE : FIELD
LOC .   Maersk Inspirer : LOCATION
PROV.                   : PROVINCE
CNTY.                   : COUNTY
STAT.                   : STATE
CTRY.                   : COUNTRY
SRVC.                   : SERVICE COMPANY
DATE.                   : DATE
UWI .                   : UNIQUE WELL ID
API .                   : API NUMBER
~Curve Information -----------------------------------------
DEPT     .ft        : 
ABDCQF01 .g/cm3     : 
ABDCQF02 .g/cm3     : 
ABDCQF03 .g/cm3     : 
ABDCQF04 .g/cm3     : 
BS       .inches    : 
CALI     .inches    : 
DRHO     .g/cm3     : 
DT       .us/ft     : 
DTS      .us/ft     : 
GR       .API       : 
NBGRCFM  .API       : 
NPHI     .v/v       : 
PEF      .b/elec    : 
RACEHM   .ohm.m     : 
RACELM   .ohm.m     : 
RD       .ohm.m     : 
RHOB     .g/cm3     : 
RM       .ohm.m     : 
ROP      .m/hr      : 
RPCEHM   .ohm.m     : 
RPCELM   .ohm.m     : 
RT       .ohm.m     : 
BVW      .V/V       : 
CARB_FLAG.V/V       : 
COAL_FLAG.UNITLESS  : 
KLOGH    .mD        : 
PHIF     .V/V       : 
SAND_FLAG.UNITLESS  : 
SW       .V/V       : 
VCARB    .V/V       : 
VSH      .V/V       : 
~Params ----------------------------------------------------
~Other -----------------------------------------------------
PETROPHYSICAL INTERPRETATION: INPUT

# --- LOG MNEMONICS AND UNITS ---
#Depth          ABDCQF01        ABDCQF02        ABDCQF03        ABDCQF04        BS              CALI            DRHO            DT              DTS             GR              NBGRCFM         NPHI            PEF             RACEHM          RACELM          RD              RHOB            RM              ROP             RPCEHM          RPCELM          RT
#M              g/cm3           g/cm3           g/cm3           g/cm3           inches          inches          g/cm3           us/ft           us/ft           API             API             v/v             b/elec          ohm.m           ohm.m           ohm.m           g/cm3           ohm.m           m/hr            ohm.m           ohm.m           ohm.m
~ASCII -----------------------------------------------------
# ...
 3388.90000    2.39450    2.42490    2.42710    2.39110    8.50000    8.61330    0.05290   76.85640  133.71060   40.83580 -999.25000    0.19290    5.36630    1.10430    1.22140    1.03270    2.40900    0.87280   28.07920    0.87290    1.03270    0.87290    0.12920    0.00000    0.00000    8.13870    0.13770    1.00000    0.93860    0.00000    0.24720
 3389.40000    2.46610    2.43090    2.44590    2.47060    8.50000    8.69760    0.04090   75.96930  129.31440   37.14970 -999.25000    0.14750    5.83200    1.15670    1.17040    1.28540    2.45230    1.44780   28.05870    1.44770    1.28540    1.44770    0.10230    0.00000    0.00000    1.49890    0.11310    1.00000    0.90470    0.06810    0.22150
 3389.90000    2.50700    2.50280    2.46920    2.48190    8.50000    8.69760    0.05460   74.27360  127.61520   60.69320 -999.25000    0.16850    6.29280    1.33360    1.25520    1.48440    2.49180    1.78520   28.06050    1.78520    1.48440    1.78520    0.09050    0.00000    0.00000    0.13380    0.09050    0.00000    1.00000    0.00000    0.38410
 3390.40000    2.47070    2.46030    2.47610    2.47500    8.50000    8.66380    0.04790   73.72890  127.29490   55.51690 -999.25000    0.16650    5.84900    1.46050    1.40230    1.41040    2.46580    1.31770   28.00300    1.31780    1.41040    1.31780    0.10530    0.00000    0.00000    0.46940    0.10530    1.00000    1.00000    0.00000    0.34830
 3390.90000    2.51460    2.51730    2.49930    2.51830    8.50000    8.69780    0.06000   73.21740  127.72620   63.63810 -999.25000    0.15960    6.32050    1.62150    1.53540    1.70200    2.51100    1.75050   27.85080    1.75060    1.70200    1.75060    0.07940    0.00000    0.00000    0.05410    0.07940    0.00000    1.00000    0.00000    0.40430
 3391.40000    2.55280    2.55380    2.55040    2.52430    8.50000    8.69760    0.06340   72.10200  124.30350   60.43300 -999.25000    0.15390    6.40480    1.71880    1.60320    1.88140    2.54630    2.07830   28.05260    2.07830    1.88130    2.07830    0.05930    0.00000    0.00000    0.01350    0.05930    0.00000    1.00000    0.07270    0.38230
 3391.90000    2.49600    2.53040    2.51770    2.51040    8.50000    8.69760    0.05630   73.09790  123.22650   59.79380 -999.25000    0.15530    6.28990    1.67870    1.58580    1.74970    2.50810    1.86940   28.08950    1.86940    1.74970    1.86940    0.08110    0.00000    0.00000    0.06900    0.08110    0.00000    1.00000    0.01490    0.37800
 3392.40000    2.48940    2.50410    2.49330    2.47700    8.50000    8.74790    0.06330   74.56920  130.49990   52.91470 -999.25000    0.16200    6.19250    1.48190    1.51590    1.48490    2.48680    1.39420   27.84340    1.39420    1.48490    1.39420    0.09320    0.00000    0.00000    0.20960    0.09320    0.00000    1.00000    0.02200    0.33050
 3392.90000    2.45060    2.46280    2.47640    2.44970    8.50000    8.74790    0.05820   75.20650  131.03270   55.69490 -999.25000    0.16610    6.25100    1.43410    1.45930    1.34030    2.45810    1.20100   28.07700    1.20100    1.34040    1.20100    0.10970    0.00000    0.00000    0.64840    0.10970    1.00000    1.00000    0.00000    0.34950
 3393.40000    2.50050    2.50560    2.48500    2.46990    8.50000    8.72270    0.06510   75.07840  131.59920   53.22380 -999.25000    0.16460    6.21010    1.41140    1.39140    1.46090    2.48940    1.51690   28.08480    1.51690    1.46090    1.51690    0.09170    0.00000    0.00000    0.18610    0.09170    0.00000    1.00000    0.02450    0.33260
 3393.90000    2.44950    2.47420    2.47590    2.46880    8.50000    8.74830    0.06640   75.50180  135.88960   53.87410 -999.25000    0.18330    6.55650    1.32970    1.36580    1.32410    2.46540    1.25580   28.08050    1.25570    1.32410    1.25570    0.10550    0.00000    0.00000    0.50290    0.10550    1.00000    1.00000    0.00000    0.33700
 3394.40000    2.46240    2.48420    2.48100    2.46040    8.50000    8.69760    0.05570   75.15330  131.27020   52.76640 -999.25000    0.16430    6.51150    1.39980    1.36000    1.41000    2.46930    1.44350   28.11390    1.44350    1.41000    1.44350    0.10200    0.00000    0.00000    0.44370    0.10330    1.00000    0.98700    0.00000    0.32950
 3394.90000    2.47180    2.49440    2.49430    2.48490    8.50000    8.69760    0.05450   74.24170  129.93910   57.11800 -999.25000    0.17420    6.13870    1.42430    1.35610    1.46160    2.48260    1.49200   28.10730    1.49200    1.46170    1.49200    0.09570    0.00000    0.00000    0.21990    0.09570    0.00000    1.00000    0.00000    0.35940
 3395.40000    2.48960    2.47400    2.48400    2.49950    8.50000    8.66400    0.05480   73.90690  138.61460   62.80810 -999.25000    0.17100    6.03550    1.42900    1.31380    1.49680    2.48330    1.57590   28.07690    1.57590    1.49680    1.57590    0.09530    0.00000    0.00000    0.17810    0.09530    0.00000    1.00000    0.00000    0.39880
 3395.90000    2.50700    2.48770    2.48090    2.49380    8.50000    8.69760    0.07020   74.21260  133.35820   57.13540 -999.25000    0.17380    6.23500    1.28400    1.22090    1.35350    2.49470    1.43830   28.09700    1.43820    1.35350    1.43820    0.08870    0.00000    0.00000    0.13210    0.08870    0.00000    1.00000    0.00950    0.35940
 3396.40000    2.45100    2.46960    2.46190    2.45420    8.50000    8.69800    0.06950   76.34090  136.05350   58.42470 -999.25000    0.19320    6.28940    1.06970    1.11350    1.12230    2.45920    1.13480   28.11710    1.13470    1.12230    1.13470    0.10900    0.00000    0.00000    0.56230    0.10900    1.00000    1.00000    0.00000    0.36850
 3396.90000    2.40210    2.40220    2.40430    2.38180    8.50000    8.69760    0.05640   80.03970  142.70380   46.80860 -999.25000    0.19990    6.11460    0.97040    1.06050    0.94860    2.39550    0.84940   28.10130    0.84950    0.94860    0.84950    0.13180    0.00000    0.00000   11.99210    0.14550    1.00000    0.90570    0.00000    0.28830
 3397.40000    2.47630    2.45970    2.46490    2.47270    8.50000    8.69800    0.06850   77.98650  137.53940   40.97860 -999.25000    0.14500    6.39300    1.09690    1.07140    1.15280    2.46460    1.23660   27.93800    1.23650    1.15280    1.23650    0.10590    0.00000    0.00000    0.78330    0.10590    1.00000    1.00000    0.06340    0.24810
 3397.90000    2.42810    2.45320    2.45430    2.43370    8.50000    8.69760    0.06400   76.30690  135.04370   43.88910 -999.25000    0.17870    6.26290    1.12370    1.12710    1.15350    2.43600    1.12640   28.10070    1.12640    1.15350    1.12640    0.11470    0.00000    0.00000    2.38230    0.12230    1.00000    0.93820    0.00000    0.26810
 3398.40000    2.46280    2.45830    2.45710    2.45980    8.50000    8.69760    0.06010   76.36690  131.59150   51.06210 -999.25000    0.17680    6.34190    1.22490    1.19000    1.28070    2.45930    1.30880   28.10830    1.30880    1.28070    1.30880    0.10670    0.00000    0.00000    0.71410    0.10900    1.00000    0.97870    0.00000    0.31760
 3398.90000    2.45880    2.45650    2.44760    2.46260    8.50000    8.69760    0.05570   75.91280  135.32370   61.01200 -999.25000    0.19200    6.31710    1.28040    1.23140    1.32400    2.45070    1.32600   27.92470    1.32600    1.32400    1.32600    0.10720    0.00000    0.00000    0.74430    0.11390    1.00000    0.94110    0.00000    0.38630
 3399.40000    2.43620    2.45480    2.46650    2.46600    8.50000    8.69760    0.05570   75.57060  133.67090   58.70900 -999.25000    0.19900    6.01470    1.25820    1.22930    1.30180    2.45450    1.28620   28.10120    1.28620    1.30180    1.28620    0.10810    0.00000    0.00000    0.68250    0.11170    1.00000    0.96800    0.00000    0.37040
 3399.90000    2.46860    2.44740    2.46670    2.49600    8.50000    8.69760    0.05380   75.35410  130.05040   59.37510 -999.25000    0.17800    6.15200    1.22990    1.19350    1.31800    2.47140    1.40600   28.05010    1.40600    1.31800    1.40600    0.10210    0.00000    0.00000    0.32930    0.10210    1.00000    1.00000    0.00000    0.37500
