~Version ---------------------------------------------------
VERS.   2.0 : CWLS log ASCII Standard -VERSION 2.0
WRAP.    NO : One line per depth step
DLM . SPACE : Column Data Section Delimiter
~Well ------------------------------------------------------
STRT.ft       145.90000 : START DEPTH
STOP.ft      4093.90000 : STOP DEPTH
STEP.ft         0.50000 : STEP
NULL.           -999.25 : NULL VALUE
COMP. Statoil Petroleum : COMPANY
WELL.        15/9-F-1 C : WELL
FLD .             VOLVE : FIELD
LOC .   Maersk Inspirer : LOCATION
PROV.                   : PROVINCE
CNTY.                   : COUNTY
STAT.                   : STATE
CTRY.                   : COUNTRY
SRVC.                   : SERVICE COMPANY
DATE.                   : DATE
UWI .                   : UNIQUE WELL ID
API .                   : API NUMBER
~Curve Information -----------------------------------------
DEPT        .ft        : 
ABDCQF01    .g/cm3     : 
ABDCQF02    .g/cm3     : 
ABDCQF03    .g/cm3     : 
ABDCQF04    .g/cm3     : 
BS          .inches    : 
CALI        .inches    : 
DRHO        .g/cm3     : 
GR          .API       : 
NBGRCFM     .API       : 
NPHI        .v/v       : 
PEF         .b/elec    : 
RACEHM      .ohm.m     : 
RACELM      .ohm.m     : 
RD          .ohm.m     : 
RHOB        .g/cm3     : 
RM          .ohm.m     : 
ROP         .m/hr      : 
RPCEHM      .ohm.m     : 
RPCELM      .ohm.m     : 
RT          .ohm.m     : 
BADDATA_FLAG.unitless  : 
BVW         .v/v       : 
COAL_FLAG   .unitless  : 
KLOGH       .mD        : 
PHIF        .v/v       : 
SAND_FLAG   .unitless  : 
SW          .v/v       : 
VCARB       .v/v       : 
VSH         .v/v       : 
~Params ----------------------------------------------------
~Other -----------------------------------------------------
PETROPHYSICAL INTERPRETATION: INPUT

# --- LOG MNEMONICS AND UNITS ---
#Depth          ABDCQF01        ABDCQF02        ABDCQF03        ABDCQF04        BS              CALI            DRHO            GR              NBGRCFM         NPHI            PEF             RACEHM          RACELM          RD              RHOB            RM              ROP             RPCEHM          RPCELM          RT
#M              g/cm3           g/cm3           g/cm3           g/cm3           inches          inches          g/cm3           API             API             v/v             b/elec          ohm.m           ohm.m           ohm.m           g/cm3           ohm.m           m/hr            ohm.m           ohm.m           ohm.m
~ASCII -----------------------------------------------------
# ...
 3795.90000    2.22980    2.23950    2.30570    2.28510    8.50000    8.52430    0.04040   33.78310   35.65590    0.18450    4.86920    8.58410    8.10020    8.81470    2.26490    9.11870   29.95210    9.11870    8.81470    9.11870    0.00000    0.05610    0.00000   39.19860    0.21580    1.00000    0.26010    0.00000    0.23700
 3796.40000    2.25260    2.24220    2.27320    2.24980    8.50000    8.52440    0.03910   34.49150   35.69430    0.19290    4.77610    8.48910    7.97180    8.76240    2.25110    9.25570   30.03970    9.25560    8.76240    9.25570    0.00000    0.05630    0.00000   39.96100    0.22390    1.00000    0.25160    0.00000    0.24330
 3796.90000    2.23370    2.23910    2.27270    2.25120    8.50000    8.52430    0.03820   33.31810   38.09760    0.19190    4.88040    8.56590    7.82040    8.71010    2.24680    9.21560   30.01320    9.21560    8.71010    9.21560    0.00000    0.05640    0.00000   50.59290    0.22500    1.00000    0.25060    0.00000    0.23290
 3797.40000    2.25010    2.23970    2.27030    2.24080    8.50000    8.52430    0.04100   28.79520   34.11330    0.17890    4.81680    8.33220    7.66330    8.81500    2.24690    9.62510   29.97270    9.62500    8.81490    9.62510    0.00000    0.05470    0.00000  105.25630    0.21980    1.00000    0.24880    0.00000    0.19290
 3797.90000    2.24180    2.23560    2.27130    2.23010    8.50000    8.52440    0.04150   27.68120   30.98580    0.17730    4.72730    8.18670    7.58580    9.07400    2.24080   10.30860   30.01320   10.30850    9.07390   10.30860    0.00000    0.05310    0.00000  132.55270    0.22120    1.00000    0.24020    0.00000    0.18300
 3798.40000    2.25780    2.22260    2.24340    2.22460    8.50000    8.52430    0.03860   29.39130   33.25090    0.17380    4.74220    8.19480    7.56840    9.15500    2.23270   10.48110   29.97310   10.48120    9.15510   10.48110    0.00000    0.05300    0.00000   99.37420    0.22260    1.00000    0.23820    0.00000    0.19820
 3798.90000    2.26350    2.22970    2.25130    2.23700    8.50000    8.55690    0.04130   29.99150   31.41450    0.17650    4.84080    8.11710    7.56680    9.19960    2.24330   10.72230   30.01310   10.72230    9.19960   10.72230    0.00000    0.05240    0.00000   84.94510    0.22000    1.00000    0.23830    0.00000    0.20350
 3799.40000    2.25040    2.26140    2.37330    2.25130    8.50000    8.55690    0.03360   29.81340   35.31570    0.15920    5.04950    8.17190    7.57490    8.93640    2.28960   10.04330   29.97270   10.04370    8.93650   10.04330    0.00000    0.05250    0.00000   57.74670    0.19730    1.00000    0.26620    0.00000    0.20190
 3799.90000    2.24130    2.29910    2.38630    2.28180    8.50000    8.55690    0.05430   36.92700   36.40640    0.18270    5.20000    7.71850    7.55920    8.11020    2.30730    8.46030   29.90610    8.46040    8.11020    8.46030    0.00000    0.05730    0.00000   16.61390    0.20050    1.00000    0.28550    0.00000    0.26490
 3800.40000    2.25040    2.24140    2.25940    2.24810    8.50000    8.52430    0.03940   34.42430   38.40320    0.19150    5.06520    6.99430    7.32660    8.13110    2.24850    9.00230   17.69330    9.00210    8.13110    9.00230    0.00000    0.05700    0.00000   40.76650    0.22430    1.00000    0.25410    0.00000    0.24260
 3800.90000    2.23220    2.23010    2.24810    2.24740    8.50000    8.55680    0.04160   34.15790   37.66500    0.19730    5.05440    6.87810    7.17650    8.82060    2.23860   11.20560   21.27760   11.20550    8.82060   11.20560    0.00000    0.05240    0.00000   47.52730    0.23000    1.00000    0.22780    0.00000    0.24030
 3801.40000    2.23110    2.22010    2.25140    2.23190    8.50000    8.52430    0.03680   33.01890   33.50150    0.18630    4.97320    7.02400    7.19900    9.40220    2.23260   13.04450   27.56930   13.04440    9.40210   13.04450    0.00000    0.04900    0.00000   56.01850    0.22760    1.00000    0.21540    0.00000    0.23030
 3801.90000    2.23290    2.22270    2.27180    2.24840    8.50000    8.52430    0.03730   30.82840   34.31130    0.18480    4.89160    7.58070    7.42870    9.53710    2.24250   12.22650   30.97250   12.22650    9.53710   12.22650    0.00000    0.04990    0.00000   77.98390    0.22360    1.00000    0.22340    0.00000    0.21080
 3802.40000    2.22490    2.23560    2.32700    2.28330    8.50000    8.52440    0.01980   35.16580   36.72060    0.13170    4.81900    9.60690    8.18720    7.90190    2.27200    7.46050   30.82560    7.46060    7.90180    7.46050    0.00000    0.05950    0.00000   19.73230    0.19230    1.00000    0.30950    0.00000    0.24930
 3802.90000    2.26710    2.35640    2.57180    2.50530    8.50000    8.55700    0.01970   35.03050   34.50140    0.10220    5.63590    8.83240    8.03680    9.59180    2.40410   10.94000   30.10660   10.93990    9.59190   10.94000    0.00000    0.04710    0.00000    7.06320    0.13520    1.00000    0.34830    0.00000    0.24810
 3803.40000    2.34410    2.58600    2.69770    2.59570    8.50000    8.60570    0.01860   31.93530   34.49030    0.09920    6.43700    8.46210    7.97350    9.48240    2.54470   11.32900   21.01720   11.32910    9.48250   11.32900    0.00000    0.04160    0.00000    5.02010    0.08580    0.00000    0.48520    0.16640    0.22060
 3803.90000    2.42750    2.57800    2.65480    2.67220    8.50000    8.55690    0.07170   36.73450   41.06280    0.15300    6.30510    8.36800    8.14610    9.11710    2.58800   10.13130   16.54170   10.13140    9.11720   10.13130    0.00000    0.03540    0.00000    0.82190    0.03540    0.00000    1.00000    0.30060    0.26310
 3804.40000    2.28440    2.39960    2.37340    2.45850    8.50000    8.52440    0.04870   43.86490   47.45890    0.17510    5.47280    8.16360    8.26310    8.80890    2.37300    9.55070   18.56410    9.55070    8.80890    9.55070    0.00000    0.05360    0.00000    2.90790    0.17500    1.00000    0.30650    0.00000    0.32620
 3804.90000    2.28040    2.37680    2.32570    2.34680    8.50000    8.55690    0.04060   43.34880   46.52500    0.17300    5.11050    8.30910    8.68690    8.86760    2.32510    9.37570   23.34270    9.37570    8.86760    9.37570    0.00000    0.05500    0.00000    4.26330    0.19060    1.00000    0.28830    0.00000    0.32170
 3805.40000    2.29330    2.37350    2.32010    2.35740    8.50000    8.55690    0.03710   43.53040   47.68680    0.17410    5.10110    8.46110    9.09120    8.89120    2.33820    8.82730   28.00950    8.82740    8.89130    8.82730    0.00000    0.05610    0.00000    3.82620    0.18650    1.00000    0.30070    0.00000    0.32330
 3805.90000    2.32540    2.37100    2.31870    2.35970    8.50000    8.52440    0.03730   45.12270   50.64650    0.17920    5.16600    8.99350    9.56210    8.76250    2.34150    8.43050   29.74500    8.43050    8.76240    8.43050    0.00000    0.05740    0.00000    2.90830    0.18750    1.00000    0.30610    0.00000    0.33730
 3806.40000    2.31730    2.35590    2.31570    2.36110    8.50000    8.52440    0.03960   45.83930   49.99820    0.18810    5.13670    9.40660   10.00170    8.94530    2.33360    8.23340   29.91880    8.23340    8.94530    8.23340    0.00000    0.05840    0.00000    2.86060    0.19370    1.00000    0.30160    0.00000    0.34370
 3806.90000    2.28470    2.34410    2.31580    2.33450    8.50000    8.55690    0.03000   45.62470   50.90150    0.18950    5.05220    9.83050   10.31060    9.21910    2.32180    8.41580   29.92830    8.41580    9.21900    8.41580    0.00000    0.05820    0.00000    3.23920    0.19830    1.00000    0.29330    0.00000    0.34180
 3807.40000    2.28610    2.34810    2.34310    2.33970    8.50000    8.52430    0.04060   45.15640   47.41040    0.18360    5.28800    9.99020   10.44610    9.52410    2.33290    8.84010   29.86250    8.84000    9.52400    8.84010    0.00000    0.05660    0.00000    3.15110    0.19220    1.00000    0.29440    0.00000    0.33760
 3807.90000    2.29790    2.37930    2.33630    2.38600    8.50000    8.55680    0.03790   44.52380   46.61010    0.17570    5.19320    9.80930   10.21710   10.04200    2.35000    9.75490   29.87170    9.75500   10.04200    9.75490    0.00000    0.05370    0.00000    2.99450    0.18310    1.00000    0.29340    0.00000    0.33210
