~Version ---------------------------------------------------
VERS.   2.0 : CWLS log ASCII Standard -VERSION 2.0
WRAP.    NO : One line per depth step
DLM . SPACE : Column Data Section Delimiter
~Well ------------------------------------------------------
STRT.ft          188.50000 : START DEPTH
STOP.ft         3762.00000 : STOP DEPTH
STEP.ft            0.50000 : STEP
NULL.              -999.25 : NULL VALUE
COMP. Statoil Petroleum AS : COMPANY
WELL.          15/9-F-11 A : WELL
FLD .                VOLVE : FIELD
LOC .      Maersk Inspirer : LOCATION
PROV.                      : PROVINCE
CNTY.                      : COUNTY
STAT.                      : STATE
CTRY.                      : COUNTRY
SRVC.                      : SERVICE COMPANY
DATE.                      : DATE
UWI .                      : UNIQUE WELL ID
API .                      : API NUMBER
~Curve Information -----------------------------------------
DEPT     .ft       : 
ABDCQF01 .g/cm3    : 
ABDCQF02 .g/cm3    : 
ABDCQF03 .g/cm3    : 
ABDCQF04 .g/cm3    : 
BS       .inches   : 
CALI     .inches   : 
DRHO     .g/cm3    : 
DT       .us/ft    : 
DTS      .us/ft    : 
GR       .API      : 
NPHI     .v/v      : 
PEF      .b/elec   : 
RACEHM   .ohm.m    : 
RACELM   .ohm.m    : 
RD       .ohm.m    : 
RHOB     .g/cm3    : 
RM       .ohm.m    : 
ROP      .m/hr     : 
RPCEHM   .ohm.m    : 
RPCELM   .ohm.m    : 
RT       .ohm.m    : 
BVW      .v/v      : 
CARB_FLAG.UNKNOWN  : 
COAL_FLAG.UNKNOWN  : 
KLOGH    .mD       : 
PHIF     .v/v      : 
SAND_FLAG.UNKNOWN  : 
SW       .v/v      : 
VSH      .v/v      : 
~Params ----------------------------------------------------
~Other -----------------------------------------------------
PETROPHYSICAL_INTERPRETATION: INPUT

# --- LOG MNEMONICS AND UNITS ---
#Depth     ABDCQF01   ABDCQF02   ABDCQF03   ABDCQF04   BS         CALI       DRHO       DT         DTS        GR         NPHI       PEF        RACEHM     RACELM     RD         RHOB       RM         ROP        RPCEHM     RPCELM     RT
#M         g/cm3      g/cm3      g/cm3      g/cm3      inches     inches     g/cm3      us/ft      us/ft      API        v/v        b/elec     ohm.m      ohm.m      ohm.m      g/cm3      ohm.m      m/hr       ohm.m      ohm.m      ohm.m
~ASCII -----------------------------------------------------
# ...
 3038.50000    2.62100    2.64400    2.63500    2.62300    8.50000    8.57800    0.05800   62.06600  113.25000    5.68900    0.06200    8.34100    5.12700    5.13900    5.71600    2.63200    6.31900   19.77000    6.31900    5.71600    6.31900 -999.25000 -999.25000 -999.25000 -999.25000 -999.25000 -999.25000 -999.25000 -999.25000
 3039.00000    2.60800    2.64400    2.64200    2.63700    8.50000    8.62500    0.06600   63.26100  116.29600    6.91700    0.05700    8.46200    5.28000    5.23300    5.94100    2.63200    6.49400   19.72500    6.49400    5.94100    6.49400 -999.25000 -999.25000 -999.25000 -999.25000 -999.25000 -999.25000 -999.25000 -999.25000
 3039.50000    2.64000    2.62700    2.64000    2.63800    8.50000    8.57800    0.06500   63.35100  114.73300    6.57600    0.06400    8.43200    5.46200    5.32600    5.99700    2.63200    6.50800   19.44000    6.50800    5.99700    6.50800 -999.25000 -999.25000 -999.25000 -999.25000 -999.25000 -999.25000 -999.25000 -999.25000
 3040.00000    2.61500    2.61400    2.59800    2.62400    8.50000    8.62500    0.06100   63.74200  109.70600    7.99000    0.06600    8.41400    5.59500    5.43700    6.13400    2.60900    6.59900   19.63200    6.59900    6.13400    6.59900 -999.25000 -999.25000 -999.25000 -999.25000 -999.25000 -999.25000 -999.25000 -999.25000
 3040.50000    2.62900    2.60700    2.59700    2.63600    8.50000    8.62500    0.06500   62.33600  108.99000    7.66500    0.06800    8.36700    5.74300    5.48600    6.21200    2.61400    6.66200   19.98200    6.66200    6.21200    6.66200 -999.25000 -999.25000 -999.25000 -999.25000 -999.25000 -999.25000 -999.25000 -999.25000
 3041.00000    2.61200    2.60400    2.62300    2.59400    8.50000    8.62500    0.06700   61.01200  104.80100    7.21600    0.06500    8.59500    5.95200    5.55200    6.23300    2.60500    6.52700   20.51300    6.52800    6.23300    6.52700 -999.25000 -999.25000 -999.25000 -999.25000 -999.25000 -999.25000 -999.25000 -999.25000
 3041.50000    2.59300    2.63000    2.62600    2.60500    8.50000    8.62500    0.05700   61.28300  105.40800    6.83500    0.06500    8.20800    5.91900    5.53600    6.42000    2.61600    6.95000   20.06800    6.95000    6.42000    6.95000 -999.25000 -999.25000 -999.25000 -999.25000 -999.25000 -999.25000 -999.25000 -999.25000
 3042.00000    2.59900    2.61500    2.61200    2.61200    8.50000    8.62500    0.05300   60.35700  102.02000    6.98900    0.05600    8.24400    5.97300    5.49700    6.62100    2.61200    7.32100   18.95800    7.32100    6.62100    7.32100 -999.25000 -999.25000 -999.25000 -999.25000 -999.25000 -999.25000 -999.25000 -999.25000
 3042.50000    2.63000    2.65900    2.65400    2.62300    8.50000    8.62500    0.06600   59.84500  105.51400    6.04700    0.05200    8.48000    6.04600    5.47000    6.73300    2.64300    7.51000   19.02100    7.51000    6.73300    7.51000 -999.25000 -999.25000 -999.25000 -999.25000 -999.25000 -999.25000 -999.25000 -999.25000
 3043.00000    2.61400    2.64500    2.65500    2.62600    8.50000    8.64100    0.05900   60.26300  106.33200    6.54900    0.05100    8.48600    6.09900    5.39200    6.94900    2.63700    7.85300   19.11000    7.85300    6.94900    7.85300 -999.25000 -999.25000 -999.25000 -999.25000 -999.25000 -999.25000 -999.25000 -999.25000
 3043.50000    2.63000    2.63300    2.63900    2.63700    8.50000    8.62500    0.06400   59.28200  102.29000    7.30300    0.05300    8.47600    6.12300    5.34700    6.97300    2.63500    8.02500   19.74200    8.02500    6.97300    8.02500 -999.25000 -999.25000 -999.25000 -999.25000 -999.25000 -999.25000 -999.25000 -999.25000
 3044.00000    2.65300    2.64100    2.64300    2.64400    8.50000    8.62500    0.06200   59.17700  107.17100    5.36700    0.04800    8.47300    6.07200    5.25200    6.87800    2.64100    7.97100   20.44800    7.97100    6.87800    7.97100 -999.25000 -999.25000 -999.25000 -999.25000 -999.25000 -999.25000 -999.25000 -999.25000
 3044.50000    2.63600    2.64200    2.64700    2.62900    8.50000    8.62500    0.06200   60.74200  107.83800    5.21900    0.05400    8.46100    5.98900    5.10900    6.77400    2.63800    7.79000   21.17500    7.79000    6.77400    7.79000 -999.25000 -999.25000 -999.25000 -999.25000 -999.25000 -999.25000 -999.25000 -999.25000
 3045.00000    2.61600    2.63400    2.64500    2.63000    8.50000    8.62500    0.06000   61.85600  108.70400    6.44800    0.05600    8.36400    5.83200    4.93500    6.57700    2.63300    7.66400   22.59500    7.66400    6.57700    7.66400 -999.25000 -999.25000 -999.25000 -999.25000 -999.25000 -999.25000 -999.25000 -999.25000
 3045.50000    2.62300    2.62900    2.63500    2.63000    8.50000    8.62500    0.05800   58.96900  109.05900    5.96600    0.05000    8.33400    5.53700    4.72900    6.29600    2.62900    7.53000   22.12400    7.53000    6.29600    7.53000 -999.25000 -999.25000 -999.25000 -999.25000 -999.25000 -999.25000 -999.25000 -999.25000
 3046.00000    2.63400    2.64900    2.64500    2.63100    8.50000    8.62500    0.06300   59.31400  113.69800    5.14200    0.05400    8.23100    5.05600    4.44900    5.79700    2.63700    7.11700   20.89400    7.11600    5.79700    7.11700 -999.25000 -999.25000 -999.25000 -999.25000 -999.25000 -999.25000 -999.25000 -999.25000
 3046.50000    2.60800    2.60800    2.59700    2.58400    8.50000    8.62500    0.06400   64.45300  115.82000    8.95800    0.09100    8.23500    4.58600    4.20500    5.16600    2.59700    6.15500   20.99700    6.15500    5.16600    6.15500 -999.25000 -999.25000 -999.25000 -999.25000 -999.25000 -999.25000 -999.25000 -999.25000
 3047.00000    2.58600    2.59600    2.57600    2.61800    8.50000    8.62500    0.06500   66.47600  120.77500   11.18500    0.09100    8.36900    4.14100    3.97200    4.31000    2.59100    4.73100   22.94600    4.73100    4.31000    4.73100 -999.25000 -999.25000 -999.25000 -999.25000 -999.25000 -999.25000 -999.25000 -999.25000
 3047.50000    2.59900    2.58000    2.58000    2.59100    8.50000    8.62500    0.07100   66.53400  118.13300    7.66600    0.10200    8.28800    3.64700    3.67300    3.91000    2.58500    4.36800   23.92000    4.36800    3.91000    4.36800 -999.25000 -999.25000 -999.25000 -999.25000 -999.25000 -999.25000 -999.25000 -999.25000
 3048.00000    2.56200    2.56700    2.55900    2.55900    8.50000    8.62500    0.06200   67.01600  123.35500    6.59600    0.10200    8.51500    3.26100    3.45700    3.43500    2.55900    3.71200   24.07100    3.71200    3.43500    3.71200 -999.25000 -999.25000 -999.25000 -999.25000 -999.25000 -999.25000 -999.25000 -999.25000
 3048.50000    2.54700    2.56000    2.56600    2.55000    8.50000    8.67200    0.06000   68.16600  125.12300    7.30300    0.10700    8.32400    2.97000    3.28100    3.14600    2.55600    3.38700   23.43900    3.38700    3.14600    3.38700 -999.25000 -999.25000 -999.25000 -999.25000 -999.25000 -999.25000 -999.25000 -999.25000
 3049.00000    2.55700    2.55300    2.53700    2.54000    8.50000    8.67200    0.06000   68.67400  124.98200    8.48200    0.11600    8.28600    2.75900    3.10600    2.94800    2.54200    3.15700   22.31800    3.15700    2.94800    3.15700 -999.25000 -999.25000 -999.25000 -999.25000 -999.25000 -999.25000 -999.25000 -999.25000
 3049.50000    2.53100    2.54000    2.53600    2.53200    8.50000    8.70300    0.06500   69.86500  127.54200    9.23000    0.12500    8.32900    2.69600    3.05300    2.86300    2.53300    3.04300   22.89300    3.04300    2.86300    3.04300 -999.25000 -999.25000 -999.25000 -999.25000 -999.25000 -999.25000 -999.25000 -999.25000
 3050.00000    2.53900    2.51600    2.50400    2.53000    8.50000    8.67200    0.06600   70.61200  130.29500    9.54100    0.13300    8.53300    2.71400    3.05700    2.82000    2.51800    2.90300   24.06400    2.90300    2.82000    2.90300 -999.25000 -999.25000 -999.25000 -999.25000 -999.25000 -999.25000 -999.25000 -999.25000
 3050.50000    2.52900    2.50200    2.51700    2.51300    8.50000    8.70300    0.06800   69.48800  130.11300    8.23000    0.12300    8.44100    2.84300    3.09800    2.80300    2.51400    2.76700   24.37400    2.76600    2.80300    2.76700 -999.25000 -999.25000 -999.25000 -999.25000 -999.25000 -999.25000 -999.25000 -999.25000
