~Version ---------------------------------------------------
VERS.   2.0 : CWLS log ASCII Standard -VERSION 2.0
WRAP.    NO : One line per depth step
DLM . SPACE : Column Data Section Delimiter
~Well ------------------------------------------------------
STRT.ft          145.90000 : START DEPTH
STOP.ft         3681.90000 : STOP DEPTH
STEP.ft            0.50000 : STEP
NULL.              -999.25 : NULL VALUE
COMP. Statoil Petroleum AS : COMPANY
WELL.           15/9-F-1 A : WELL
FLD .                VOLVE : FIELD
LOC .      Maersk Inspirer : LOCATION
PROV.                      : PROVINCE
CNTY.               Unused : COUNTY
STAT.                      : STATE
CTRY.                      : COUNTRY
SRVC.                      : SERVICE COMPANY
DATE.                      : DATE
UWI .                      : UNIQUE WELL ID
API .                      : API NUMBER
~Curve Information -----------------------------------------
DEPT     .ft        : 
ABDCQF01 .g/cm3     : 
ABDCQF02 .g/cm3     : 
ABDCQF03 .g/cm3     : 
ABDCQF04 .g/cm3     : 
BS       .inches    : 
CALI     .inches    : 
DRHO     .g/cm3     : 
DT       .us/ft     : 
DTS      .us/ft     : 
GR       .API       : 
NPHI     .v/v       : 
PEF      .b/elec    : 
RACEHM   .UNKNOWN   : 
RACELM   .UNKNOWN   : 
RHOB     .g/cm3     : 
ROP      .m/hr      : 
RPCEHM   .UNKNOWN   : 
RPCELM   .UNKNOWN   : 
RT       .ohm.m     : 
BVW      .V/V       : 
COAL_FLAG.unitless  : 
KLOGH    .mD        : 
PHIF     .V/V       : 
SAND_FLAG.unitless  : 
SW       .V/V       : 
VCARB    .V/V       : 
VSH      .V/V       : 
~Params ----------------------------------------------------
~Other -----------------------------------------------------
PETROPHYSICAL INTERPRETATION: INPUT

# --- LOG MNEMONICS AND UNITS ---
#Depth          ABDCQF01        ABDCQF02        ABDCQF03        ABDCQF04        BS              CALI            DRHO            DT              DTS             GR              NPHI            PEF             RACEHM          RACELM          RHOB            ROP             RPCEHM          RPCELM          RT
#M              g/cm3           g/cm3           g/cm3           g/cm3           inches          inches          g/cm3           us/ft           us/ft           API             v/v             b/elec          UNKNOWN         UNKNOWN         g/cm3           m/hr            UNKNOWN         UNKNOWN         ohm.m
~ASCII -----------------------------------------------------
# ...
 2888.90000    2.53830    2.54010    2.53540    2.57010    8.50000    8.57810    0.05210   67.46480  125.80160    3.59470    0.09730    7.89250    4.09360    3.96150    2.54370   22.52090    4.71490    4.33690    4.71490 -999.25000 -999.25000 -999.25000 -999.25000 -999.25000 -999.25000 -999.25000 -999.25000
 2889.40000    2.54790    2.57150    2.58690    2.56800    8.50000    8.57810    0.04620   66.61030  123.85920    3.90670    0.08080    8.00190    5.28120    4.82880    2.57300   20.70490    7.03070    5.97340    7.03070 -999.25000 -999.25000 -999.25000 -999.25000 -999.25000 -999.25000 -999.25000 -999.25000
 2889.90000    2.61130    2.63440    2.63770    2.62080    8.50000    8.57810    0.04970   64.59720  120.09310    4.38570    0.05150    7.96010    6.60770    5.91680    2.62750   19.85220    8.16850    7.22200    8.16850 -999.25000 -999.25000 -999.25000 -999.25000 -999.25000 -999.25000 -999.25000 -999.25000
 2890.40000    2.61190    2.63460    2.62810    2.62620    8.50000    8.57810    0.04400   61.95560  115.76070    3.63890    0.04150    7.68760    7.50150    7.00210    2.62470   15.71030    8.25050    7.88020    8.25050 -999.25000 -999.25000 -999.25000 -999.25000 -999.25000 -999.25000 -999.25000 -999.25000
 2890.90000    2.64160    2.62690    2.64560    2.61490    8.50000    8.57810    0.05280   60.16350  113.32840    5.05490    0.04680    7.92640    7.86500    7.76730    2.63270   15.73600    8.20210    8.15620    8.20210 -999.25000 -999.25000 -999.25000 -999.25000 -999.25000 -999.25000 -999.25000 -999.25000
 2891.40000    2.60170    2.63550    2.62720    2.61730    8.50000    8.57810    0.04860   59.91170  112.73940    5.09500    0.04590    7.93750    8.04440    8.30270    2.62080   17.08980    8.22990    8.36090    8.22990 -999.25000 -999.25000 -999.25000 -999.25000 -999.25000 -999.25000 -999.25000 -999.25000
 2891.90000    2.63220    2.65330    2.62880    2.61870    8.50000    8.57810    0.05100   60.23380  112.80050    5.12480    0.04420    8.09140    8.28320    8.67960    2.63340   17.92950    8.59570    8.69990    8.59570 -999.25000 -999.25000 -999.25000 -999.25000 -999.25000 -999.25000 -999.25000 -999.25000
 2892.40000    2.62730    2.62470    2.64180    2.59920    8.50000    8.57810    0.04340   60.42270  114.27720    3.99080    0.04460    8.01180    8.35850    8.94810    2.62100   17.78590    8.81130    8.81030    8.81130 -999.25000 -999.25000 -999.25000 -999.25000 -999.25000 -999.25000 -999.25000 -999.25000
 2892.90000    2.63540    2.63150    2.63570    2.61670    8.50000    8.57810    0.04310   60.78650  115.78880    5.09250    0.04480    7.73660    8.54030    9.12570    2.62850   17.63740    8.92730    8.94410    8.92730 -999.25000 -999.25000 -999.25000 -999.25000 -999.25000 -999.25000 -999.25000 -999.25000
 2893.40000    2.64200    2.64640    2.64560    2.62880    8.50000    8.57810    0.04920   60.53810  115.56740    5.47660    0.03900    7.93430    8.73240    9.13490    2.63900   17.39150    9.11770    9.06760    9.11770 -999.25000 -999.25000 -999.25000 -999.25000 -999.25000 -999.25000 -999.25000 -999.25000
 2893.90000    2.64370    2.62780    2.63340    2.63080    8.50000    8.57810    0.04350   60.18060  114.82780    4.90940    0.03980    7.82410    8.80870    9.16780    2.62880   17.38160    9.41620    9.23260    9.41620 -999.25000 -999.25000 -999.25000 -999.25000 -999.25000 -999.25000 -999.25000 -999.25000
 2894.40000    2.62350    2.63020    2.62210    2.64760    8.50000    8.57810    0.04360   60.24620  114.68080    5.51410    0.04220    7.75670    8.64910    9.12080    2.62740   17.45990    9.29030    9.06840    9.29030 -999.25000 -999.25000 -999.25000 -999.25000 -999.25000 -999.25000 -999.25000 -999.25000
 2894.90000    2.62210    2.65010    2.64620    2.62350    8.50000    8.57810    0.04240   59.87540  114.54880    4.91510    0.03870    7.72590    8.29500    8.86800    2.63460   17.55590    9.08420    8.85270    9.08420 -999.25000 -999.25000 -999.25000 -999.25000 -999.25000 -999.25000 -999.25000 -999.25000
 2895.40000    2.65150    2.66160    2.65330    2.63100    8.50000    8.57810    0.05000   60.11580  114.52180    5.60280    0.03830    7.94050    8.00160    8.78350    2.64900   17.44460    8.03720    8.15430    8.03720 -999.25000 -999.25000 -999.25000 -999.25000 -999.25000 -999.25000 -999.25000 -999.25000
 2895.90000    2.65660    2.64030    2.62780    2.64670    8.50000    8.57810    0.05260   61.10290  115.68650    7.17310    0.04180    7.85930    7.74110    8.58110    2.64000   17.57630    7.54300    7.80230    7.54300 -999.25000 -999.25000 -999.25000 -999.25000 -999.25000 -999.25000 -999.25000 -999.25000
 2896.40000    2.62380    2.62150    2.64530    2.62540    8.50000    8.57810    0.05220   61.78830  116.61610    5.79630    0.04980    7.84500    7.57880    8.39590    2.63010   18.32540    7.63230    7.77940    7.63230 -999.25000 -999.25000 -999.25000 -999.25000 -999.25000 -999.25000 -999.25000 -999.25000
 2896.90000    2.60600    2.62760    2.63710    2.61410    8.50000    8.57810    0.05110   61.46570  115.61820    5.25410    0.05280    7.87100    7.50100    8.33780    2.62400   18.62940    7.68330    7.72290    7.68330 -999.25000 -999.25000 -999.25000 -999.25000 -999.25000 -999.25000 -999.25000 -999.25000
 2897.40000    2.60430    2.60370    2.62020    2.60360    8.50000    8.57810    0.04990   60.42650  113.62880    5.41800    0.05420    7.96800    7.43950    8.21240    2.60720   18.32450    8.22850    7.99100    8.22850 -999.25000 -999.25000 -999.25000 -999.25000 -999.25000 -999.25000 -999.25000 -999.25000
 2897.90000    2.60450    2.62970    2.62880    2.59480    8.50000    8.57810    0.04520   60.34410  113.26590    5.25660    0.04900    7.81510    7.36610    8.18250    2.61370   18.80510    7.50850    7.58120    7.50850 -999.25000 -999.25000 -999.25000 -999.25000 -999.25000 -999.25000 -999.25000 -999.25000
 2898.40000    2.61430    2.62110    2.62990    2.61640    8.50000    8.57810    0.05000   60.73460  114.31560    4.48000    0.04810    7.87400    7.28240    8.19290    2.62190   19.99750    7.36710    7.49550    7.36710 -999.25000 -999.25000 -999.25000 -999.25000 -999.25000 -999.25000 -999.25000 -999.25000
 2898.90000    2.62450    2.61690    2.62500    2.61090    8.50000    8.57810    0.05120   60.87230  115.28730    6.65900    0.05400    7.87730    7.25740    8.18930    2.61840   20.11300    7.19440    7.38690    7.19440 -999.25000 -999.25000 -999.25000 -999.25000 -999.25000 -999.25000 -999.25000 -999.25000
 2899.40000    2.59530    2.60500    2.61080    2.59920    8.50000    8.57810    0.04520   60.86770  115.30260    6.25570    0.06090    7.72010    7.17340    8.20500    2.60070   18.67150    7.49080    7.54690    7.49080 -999.25000 -999.25000 -999.25000 -999.25000 -999.25000 -999.25000 -999.25000 -999.25000
 2899.90000    2.62940    2.61930    2.63200    2.60640    8.50000    8.57810    0.05000   60.42180  114.53360    3.59090    0.05500    7.98700    7.31660    8.27640    2.62020   17.97270    7.25280    7.47970    7.25280 -999.25000 -999.25000 -999.25000 -999.25000 -999.25000 -999.25000 -999.25000 -999.25000
 2900.40000    2.62930    2.63990    2.62830    2.62780    8.50000    8.57810    0.05450   60.00990  113.99150    5.38050    0.05000    7.89480    7.53270    8.38190    2.63120   18.19290    7.18310    7.48420    7.18310 -999.25000 -999.25000 -999.25000 -999.25000 -999.25000 -999.25000 -999.25000 -999.25000
 2900.90000    2.61830    2.60880    2.64050    2.59950    8.50000    8.57810    0.05190   59.40670  112.81930    5.63240    0.05330    7.82340    7.71470    8.49080    2.61940   16.19020    7.89050    7.93590    7.89050 -999.25000 -999.25000 -999.25000 -999.25000 -999.25000 -999.25000 -999.25000 -999.25000
 2901.40000    2.61470    2.61000    2.63120    2.62180    8.50000    8.57810    0.05210   58.95450  111.80870    2.82740    0.05680    7.93250    7.83130    8.64570    2.61890   26.70440    8.60370    8.36200    8.60370 -999.25000 -999.25000 -999.25000 -999.25000 -999.25000 -999.25000 -999.25000 -999.25000
