~Version ---------------------------------------------------
VERS.   2.0 : CWLS log ASCII Standard -VERSION 2.0
WRAP.    NO : One line per depth step
DLM . SPACE : Column Data Section Delimiter
~Well ------------------------------------------------------
STRT.ft       145.90000 : START DEPTH
STOP.ft      3464.90000 : STOP DEPTH
STEP.ft         0.50000 : STEP
NULL.           -999.25 : NULL VALUE
COMP. Statoil Petroleum : COMPANY
WELL.        15/9-F-1 B : WELL
FLD .             VOLVE : FIELD
LOC .   Maersk Inspirer : LOCATION
PROV.                   : PROVINCE
CNTY.                   : COUNTY
STAT.                   : STATE
CTRY.                   : COUNTRY
SRVC.                   : SERVICE COMPANY
DATE.                   : DATE
UWI .                   : UNIQUE WELL ID
API .                   : API NUMBER
~Curve Information -----------------------------------------
DEPT     .ft        : 
ABDCQF01 .g/cm3     : 
ABDCQF02 .g/cm3     : 
ABDCQF03 .g/cm3     : 
ABDCQF04 .g/cm3     : 
BS       .inches    : 
CALI     .inches    : 
DRHO     .g/cm3     : 
DT       .us/ft     : 
DTS      .us/ft     : 
GR       .API       : 
NBGRCFM  .API       : 
NPHI     .v/v       : 
PEF      .b/elec    : 
RACEHM   .ohm.m     : 
RACELM   .ohm.m     : 
RD       .ohm.m     : 
RHOB     .g/cm3     : 
RM       .ohm.m     : 
ROP      .m/hr      : 
RPCEHM   .ohm.m     : 
RPCELM   .ohm.m     : 
RT       .ohm.m     : 
BVW      .V/V       : 
CARB_FLAG.V/V       : 
COAL_FLAG.UNITLESS  : 
KLOGH    .mD        : 
PHIF     .V/V       : 
SAND_FLAG.UNITLESS  : 
SW       .V/V       : 
VCARB    .V/V       : 
VSH      .V/V       : 
~Params ----------------------------------------------------
~Other -----------------------------------------------------
PETROPHYSICAL INTERPRETATION: INPUT

# --- LOG MNEMONICS AND UNITS ---
#Depth          ABDCQF01        ABDCQF02        ABDCQF03        ABDCQF04        BS              CALI            DRHO            DT              DTS             GR              NBGRCFM         NPHI            PEF             RACEHM          RACELM          RD              RHOB            RM              ROP             RPCEHM          RPCELM          RT
#M              g/cm3           g/cm3           g/cm3           g/cm3           inches          inches          g/cm3           us/ft           us/ft           API             API             v/v             b/elec          ohm.m           ohm.m           ohm.m           g/cm3           ohm.m           m/hr            ohm.m           ohm.m           ohm.m
~ASCII -----------------------------------------------------
# ...
 3101.40000 -999.25000 -999.25000 -999.25000 -999.25000    8.50000    8.66370    0.05950   74.16150  150.45220   39.71140 -999.25000    0.12900    7.34850    2.87570    2.78700    2.95370    2.59620    2.98320    8.77210    2.98290    2.95350    2.98290 -999.25000 -999.25000 -999.25000 -999.25000 -999.25000 -999.25000 -999.25000 -999.25000 -999.25000
 3101.90000 -999.25000 -999.25000 -999.25000 -999.25000    8.50000    8.66370    0.05030   79.06440  152.60960   29.98520 -999.25000    0.13180    7.59060    2.33140    2.36490    2.37190    2.56150    2.37300   10.76010    2.37300    2.37180    2.37300 -999.25000 -999.25000 -999.25000 -999.25000 -999.25000 -999.25000 -999.25000 -999.25000 -999.25000
 3102.40000 -999.25000 -999.25000 -999.25000 -999.25000    8.50000    8.66370    0.05410   83.74660  159.39520   39.24530 -999.25000    0.15220    7.45790    2.00760    2.03960    1.85330    2.55560    1.72330   12.28270    1.72330    1.85330    1.72330 -999.25000 -999.25000 -999.25000 -999.25000 -999.25000 -999.25000 -999.25000 -999.25000 -999.25000
 3102.90000 -999.25000 -999.25000 -999.25000 -999.25000    8.50000    8.68640    0.06000   85.93370  168.24680   42.91140 -999.25000    0.15920    7.67310    1.76610    1.82790    1.70300    2.55740    1.66600   12.38290    1.66600    1.70300    1.66600 -999.25000 -999.25000 -999.25000 -999.25000 -999.25000 -999.25000 -999.25000 -999.25000 -999.25000
 3103.40000 -999.25000 -999.25000 -999.25000 -999.25000    8.50000    8.69760    0.05330   86.46360  170.66830   45.06400 -999.25000    0.16110    7.52350    1.72270    1.74330    1.58540    2.54770    1.50750   13.53330    1.50750    1.58540    1.50750 -999.25000 -999.25000 -999.25000 -999.25000 -999.25000 -999.25000 -999.25000 -999.25000 -999.25000
 3103.90000 -999.25000 -999.25000 -999.25000 -999.25000    8.50000    8.68610    0.05300   86.50620  167.92810   44.25590 -999.25000    0.17230    7.54330    1.74940    1.75360    1.63220    2.54190    1.54770   14.19200    1.54770    1.63220    1.54770 -999.25000 -999.25000 -999.25000 -999.25000 -999.25000 -999.25000 -999.25000 -999.25000 -999.25000
 3104.40000 -999.25000 -999.25000 -999.25000 -999.25000    8.50000    8.66370    0.04750   82.06410  160.15170   38.87850 -999.25000    0.13200    7.60470    1.91630    1.82410    1.78290    2.54760    1.74660   14.18350    1.74680    1.78300    1.74680 -999.25000 -999.25000 -999.25000 -999.25000 -999.25000 -999.25000 -999.25000 -999.25000 -999.25000
 3104.90000 -999.25000 -999.25000 -999.25000 -999.25000    8.50000    8.66370    0.05060   78.11110  153.39190   32.28400 -999.25000    0.13310    7.70030    2.06810    1.93390    2.03340    2.55970    2.10620   13.10630    2.10620    2.03340    2.10620 -999.25000 -999.25000 -999.25000 -999.25000 -999.25000 -999.25000 -999.25000 -999.25000 -999.25000
 3105.40000 -999.25000 -999.25000 -999.25000 -999.25000    8.50000    8.66370    0.05050   78.17150  152.31400   33.49060 -999.25000    0.13210    7.55050    2.13100    2.02280    2.14570    2.56080    2.21190   13.02610    2.21190    2.14570    2.21190 -999.25000 -999.25000 -999.25000 -999.25000 -999.25000 -999.25000 -999.25000 -999.25000 -999.25000
 3105.90000 -999.25000 -999.25000 -999.25000 -999.25000    8.50000    8.66370    0.05730   79.21880  151.87430   36.12780 -999.25000    0.13290    7.67530    2.17120    2.09030    2.11290    2.57390    2.08530   13.59950    2.08530    2.11290    2.08530 -999.25000 -999.25000 -999.25000 -999.25000 -999.25000 -999.25000 -999.25000 -999.25000 -999.25000
 3106.40000 -999.25000 -999.25000 -999.25000 -999.25000    8.50000    8.66370    0.05500   78.84980  153.59250   35.62060 -999.25000    0.12940    7.61350    2.17940    2.11370    2.11750    2.56760    2.10740   13.95240    2.10740    2.11750    2.10740 -999.25000 -999.25000 -999.25000 -999.25000 -999.25000 -999.25000 -999.25000 -999.25000 -999.25000
 3106.90000 -999.25000 -999.25000 -999.25000 -999.25000    8.50000    8.66370    0.05510   79.12090  156.82190   34.04500 -999.25000    0.13110    7.56380    2.15850    2.09950    2.14850    2.57300    2.18910   14.15030    2.18910    2.14850    2.18910 -999.25000 -999.25000 -999.25000 -999.25000 -999.25000 -999.25000 -999.25000 -999.25000 -999.25000
 3107.40000 -999.25000 -999.25000 -999.25000 -999.25000    8.50000    8.66370    0.05010   80.26080  153.57460   36.33260 -999.25000    0.13050    7.59820    2.13700    2.09760    2.09750    2.56290    2.11040   14.59690    2.11040    2.09750    2.11040 -999.25000 -999.25000 -999.25000 -999.25000 -999.25000 -999.25000 -999.25000 -999.25000 -999.25000
 3107.90000 -999.25000 -999.25000 -999.25000 -999.25000    8.50000    8.66370    0.05490   80.67850  150.73740   39.52290 -999.25000    0.13500    7.58020    2.13880    2.11250    2.01660    2.56050    1.94040   14.85360    1.94040    2.01660    1.94040 -999.25000 -999.25000 -999.25000 -999.25000 -999.25000 -999.25000 -999.25000 -999.25000 -999.25000
 3108.40000 -999.25000 -999.25000 -999.25000 -999.25000    8.50000    8.66370    0.04790   79.39590  152.68530   32.61830 -999.25000    0.12820    7.55530    2.12400    2.12030    2.18570    2.56760    2.29290   14.14310    2.29280    2.18570    2.29280 -999.25000 -999.25000 -999.25000 -999.25000 -999.25000 -999.25000 -999.25000 -999.25000 -999.25000
 3108.90000 -999.25000 -999.25000 -999.25000 -999.25000    8.50000    8.66370    0.05120   77.61280  152.02060   34.12600 -999.25000    0.12150    7.81650    2.22320    2.17070    2.15430    2.57640    2.19870   13.36260    2.19880    2.15440    2.19880 -999.25000 -999.25000 -999.25000 -999.25000 -999.25000 -999.25000 -999.25000 -999.25000 -999.25000
 3109.40000 -999.25000 -999.25000 -999.25000 -999.25000    8.50000    8.66370    0.05060   77.30060  151.12510   35.54290 -999.25000    0.12670    7.63210    2.29850    2.17950    2.17230    2.57110    2.12780   12.63120    2.12780    2.17230    2.12780 -999.25000 -999.25000 -999.25000 -999.25000 -999.25000 -999.25000 -999.25000 -999.25000 -999.25000
 3109.90000 -999.25000 -999.25000 -999.25000 -999.25000    8.50000    8.66370    0.05680   78.59890  151.78870   35.07990 -999.25000    0.12610    7.82760    2.23150    2.15310    2.30710    2.58340    2.44790   12.67220    2.44790    2.30700    2.44790 -999.25000 -999.25000 -999.25000 -999.25000 -999.25000 -999.25000 -999.25000 -999.25000 -999.25000
 3110.40000 -999.25000 -999.25000 -999.25000 -999.25000    8.50000    8.66370    0.05780   79.48000  154.35750   40.40950 -999.25000    0.13960    7.80600    2.23340    2.10960    2.07150    2.57770    1.94450   13.57150    1.94460    2.07160    1.94460 -999.25000 -999.25000 -999.25000 -999.25000 -999.25000 -999.25000 -999.25000 -999.25000 -999.25000
 3110.90000 -999.25000 -999.25000 -999.25000 -999.25000    8.50000    8.66370    0.05250   78.35680  155.77500   37.99030 -999.25000    0.13980    7.72470    2.15690    2.03030    2.03090    2.56660    1.95210   14.50540    1.95210    2.03090    1.95210 -999.25000 -999.25000 -999.25000 -999.25000 -999.25000 -999.25000 -999.25000 -999.25000 -999.25000
 3111.40000 -999.25000 -999.25000 -999.25000 -999.25000    8.50000    8.66370    0.05300   80.77150  157.06320   35.99350 -999.25000    0.13300    7.72490    2.03450    1.90050    1.99170    2.56670    2.01830   14.73210    2.01830    1.99170    2.01830 -999.25000 -999.25000 -999.25000 -999.25000 -999.25000 -999.25000 -999.25000 -999.25000 -999.25000
 3111.90000 -999.25000 -999.25000 -999.25000 -999.25000    8.50000    8.66370    0.05180   84.97650  166.50910   37.92400 -999.25000    0.15850    7.51100    1.86880    1.75860    1.85580    2.56270    1.94460   14.68860    1.94450    1.85580    1.94450 -999.25000 -999.25000 -999.25000 -999.25000 -999.25000 -999.25000 -999.25000 -999.25000 -999.25000
 3112.40000 -999.25000 -999.25000 -999.25000 -999.25000    8.50000    8.66400    0.05500   89.54760  180.41690   48.95710 -999.25000    0.19500    7.49590    1.66250    1.65290    1.51760    2.54230    1.39370   14.75600    1.39370    1.51760    1.39370 -999.25000 -999.25000 -999.25000 -999.25000 -999.25000 -999.25000 -999.25000 -999.25000 -999.25000
