~Version ---------------------------------------------------
VERS.   2.0 : CWLS log ASCII Standard -VERSION 2.0
WRAP.    NO : One line per depth step
DLM . SPACE : Column Data Section Delimiter
~Well ------------------------------------------------------
STRT.ft  239.87760 : START DEPTH
STOP.ft 4186.87760 : STOP DEPTH
STEP.ft    0.50000 : STEP
NULL.      -999.25 : NULL VALUE
COMP. STATOILHYDRO : COMPANY
WELL.    15/9-F-12 : WELL
FLD .        VOLVE : FIELD
LOC .      UNKNOWN : LOCATION
PROV.              : PROVINCE
CNTY.      UNKNOWN : COUNTY
STAT.      UNKNOWN : STATE
CTRY.       Norway : COUNTRY
SRVC.      UNKNOWN : SERVICE COMPANY
DATE.      UNKNOWN : DATE
UWI . NO 15/9-F-12 : UNIQUE WELL ID
API .              : API NUMBER
~Curve Information -----------------------------------------
DEPT     .ft           : 
CARB_FLAG.UNKNOWN      : 
COAL_FLAG.UNKNOWN      : 
DT       .us/ft        : 
GR       .API          : 
NPHI     .v/v_decimal  : 
RD       .UNKNOWN      : 
RHOB     .g/cm3        : 
ROP5_RM  .UNKNOWN      : 
RS       .UNKNOWN      : 
RT       .ohm.m        : 
SAND_FLAG.UNKNOWN      : 
BVW      .v/v_decimal  : 
KLOGH    .mD           : 
PHIF     .v/v_decimal  : 
SW       .v/v_decimal  : 
VSH      .v/v_decimal  : 
~Params ----------------------------------------------------
~Other -----------------------------------------------------
~ASCII -----------------------------------------------------
# ...
 2088.87760 -999.25000 -999.25000  128.84453  117.48607    0.42394    0.45401    2.10035   39.30403    0.50361    0.41067 -999.25000 -999.25000 -999.25000 -999.25000 -999.25000 -999.25000
 2089.37760 -999.25000 -999.25000  124.17220  114.98639    0.48031    0.47944    2.09779   39.46660    0.52939    0.44625 -999.25000 -999.25000 -999.25000 -999.25000 -999.25000 -999.25000
 2089.87760 -999.25000 -999.25000  135.68831  104.14005    0.43817    0.51577    2.11956   39.46745    0.55810    0.48837 -999.25000 -999.25000 -999.25000 -999.25000 -999.25000 -999.25000
 2090.37760 -999.25000 -999.25000  130.18679  115.42991    0.41954    0.50631    2.07863   39.38638    0.57506    0.47855 -999.25000 -999.25000 -999.25000 -999.25000 -999.25000 -999.25000
 2090.87760 -999.25000 -999.25000  133.98024  115.96321    0.44541    0.53741    2.09842   39.19130    0.55571    0.48350 -999.25000 -999.25000 -999.25000 -999.25000 -999.25000 -999.25000
 2091.37760 -999.25000 -999.25000  130.90034  119.22579    0.31511    0.52310    2.11951   39.19130    0.53127    0.50333 -999.25000 -999.25000 -999.25000 -999.25000 -999.25000 -999.25000
 2091.87760 -999.25000 -999.25000  134.00095  110.28350    0.39434    0.53823    2.10322   39.32165    0.59131    0.51713 -999.25000 -999.25000 -999.25000 -999.25000 -999.25000 -999.25000
 2092.37760 -999.25000 -999.25000  136.23174  117.57652    0.38354    0.56152    2.12497   39.47259    0.64248    0.57192 -999.25000 -999.25000 -999.25000 -999.25000 -999.25000 -999.25000
 2092.87760 -999.25000 -999.25000  132.51707  120.53835    0.33948    0.53208    2.14200   39.46684    0.55180    0.51907 -999.25000 -999.25000 -999.25000 -999.25000 -999.25000 -999.25000
 2093.37760 -999.25000 -999.25000  130.74052  110.57248    0.38003    0.54287    2.15332   39.38866    0.62464    0.49579 -999.25000 -999.25000 -999.25000 -999.25000 -999.25000 -999.25000
 2093.87760 -999.25000 -999.25000  131.90917  114.64938    0.31572    0.55281    2.15682   39.19130    0.63027    0.49607 -999.25000 -999.25000 -999.25000 -999.25000 -999.25000 -999.25000
 2094.37760 -999.25000 -999.25000  131.67985  118.98844    0.30451    0.55267    2.13638   39.19111    0.65509    0.52762 -999.25000 -999.25000 -999.25000 -999.25000 -999.25000 -999.25000
 2094.87760 -999.25000 -999.25000  133.25960  121.75991    0.50222    0.54839    2.02648   39.46348    0.61507    0.54711 -999.25000 -999.25000 -999.25000 -999.25000 -999.25000 -999.25000
 2095.37760 -999.25000 -999.25000  133.03782  117.79922    0.39587    0.55798    2.00191   39.47130    0.61903    0.53154 -999.25000 -999.25000 -999.25000 -999.25000 -999.25000 -999.25000
 2095.87760 -999.25000 -999.25000  129.26954  110.61465    0.39469    0.56089    1.99932   39.46660    0.61809    0.49425 -999.25000 -999.25000 -999.25000 -999.25000 -999.25000 -999.25000
 2096.37760 -999.25000 -999.25000  130.80547  114.24463    0.37339    0.54115    2.07133   39.20678    0.56409    0.53348 -999.25000 -999.25000 -999.25000 -999.25000 -999.25000 -999.25000
 2096.87760 -999.25000 -999.25000  124.67405  113.24101    0.35071    0.55173    2.06790   39.18727    0.56134    0.51209 -999.25000 -999.25000 -999.25000 -999.25000 -999.25000 -999.25000
 2097.37760 -999.25000 -999.25000  129.39022  121.03828    0.34025    0.55411    1.95613   39.19130    0.64547    0.49240 -999.25000 -999.25000 -999.25000 -999.25000 -999.25000 -999.25000
 2097.87760 -999.25000 -999.25000  128.74388  120.45404    0.38285    0.56004    1.95975   39.46720    0.65456    0.47259 -999.25000 -999.25000 -999.25000 -999.25000 -999.25000 -999.25000
 2098.37760 -999.25000 -999.25000  132.87859  113.71236    0.35050    0.57217    1.97597   39.46933    0.62875    0.54217 -999.25000 -999.25000 -999.25000 -999.25000 -999.25000 -999.25000
 2098.87760 -999.25000 -999.25000  130.70645  112.07023    0.35076    0.58098    2.05394   39.46850    0.65554    0.53634 -999.25000 -999.25000 -999.25000 -999.25000 -999.25000 -999.25000
 2099.37760 -999.25000 -999.25000  135.90594  122.05930    0.56010    0.59022    2.06136   39.19130    0.67110    0.56153 -999.25000 -999.25000 -999.25000 -999.25000 -999.25000 -999.25000
 2099.87760 -999.25000 -999.25000  131.53813  121.07748    0.39866    0.59154    2.07930   39.18927    0.65912    0.56698 -999.25000 -999.25000 -999.25000 -999.25000 -999.25000 -999.25000
 2100.37760 -999.25000 -999.25000  132.26815  119.11233    0.42107    0.56552    1.99299   39.30388    0.69831    0.51082 -999.25000 -999.25000 -999.25000 -999.25000 -999.25000 -999.25000
 2100.87760 -999.25000 -999.25000  128.87402  118.22771    0.49281    0.58659    2.00408   39.47622    0.65458    0.52049 -999.25000 -999.25000 -999.25000 -999.25000 -999.25000 -999.25000
 2101.37760 -999.25000 -999.25000  128.89610  120.64386    0.44161    0.64133    2.02652   39.46751    0.68806    0.57654 -999.25000 -999.25000 -999.25000 -999.25000 -999.25000 -999.25000
 2101.87760 -999.25000 -999.25000  129.35938  120.83145    0.41152    0.64098    2.01298   39.70225    0.76011    0.61652 -999.25000 -999.25000 -999.25000 -999.25000 -999.25000 -999.25000
 2102.37760 -999.25000 -999.25000  131.13576  122.33277    0.43954    0.61515    2.02692   40.07425    0.62446    0.55199 -999.25000 -999.25000 -999.25000 -999.25000 -999.25000 -999.25000
 2102.87760 -999.25000 -999.25000  122.52561  121.09763    0.35963    0.57780    2.03578   40.70749    0.64983    0.52740 -999.25000 -999.25000 -999.25000 -999.25000 -999.25000 -999.25000
 2103.37760 -999.25000 -999.25000  130.08527  110.19865    0.45063    0.57260    2.06250   41.12925    0.70307    0.52320 -999.25000 -999.25000 -999.25000 -999.25000 -999.25000 -999.25000
 2103.87760 -999.25000 -999.25000  122.68341  117.78713    0.33287    0.53556    2.07664   41.10690    0.63816    0.58183 -999.25000 -999.25000 -999.25000 -999.25000 -999.25000 -999.25000
 2104.37760 -999.25000 -999.25000  119.48191  118.75531    0.36170    0.54046    2.07478   41.14930    0.62388    0.52898 -999.25000 -999.25000 -999.25000 -999.25000 -999.25000 -999.25000
 2104.87760 -999.25000 -999.25000  130.95176  116.89352    0.48722    0.54010    2.06986   41.18966    0.65742    0.50991 -999.25000 -999.25000 -999.25000 -999.25000 -999.25000 -999.25000
 2105.37760 -999.25000 -999.25000  120.96469  122.61206    0.40758    0.53880    2.05084   41.22313    0.60326    0.49593 -999.25000 -999.25000 -999.25000 -999.25000 -999.25000 -999.25000
 2105.87760 -999.25000 -999.25000  112.62884  120.22587    0.44741    0.54028    2.11789   41.24311    0.59721    0.53396 -999.25000 -999.25000 -999.25000 -999.25000 -999.25000 -999.25000
 2106.37760 -999.25000 -999.25000  133.82863  112.11038    0.50250    0.63878    2.05197   39.10740    0.71373    0.69145 -999.25000 -999.25000 -999.25000 -999.25000 -999.25000 -999.25000
 2106.87760 -999.25000 -999.25000  133.74703  120.33071    0.46949    0.49797    2.08121   37.32600    0.57666    0.47954 -999.25000 -999.25000 -999.25000 -999.25000 -999.25000 -999.25000
 2107.37760 -999.25000 -999.25000  131.41583  121.83603    0.37592    0.49481    2.05957   37.32275    0.56574    0.46500 -999.25000 -999.25000 -999.25000 -999.25000 -999.25000 -999.25000
 2107.87760 -999.25000 -999.25000  132.08765  120.10640    0.33762    0.48919    2.11230   38.74060    0.56801    0.42796 -999.25000 -999.25000 -999.25000 -999.25000 -999.25000 -999.25000
 2108.37760 -999.25000 -999.25000  130.03779  111.31598    0.39489    0.52280    2.06384   41.24870    0.54519    0.46125 -999.25000 -999.25000 -999.25000 -999.25000 -999.25000 -999.25000
 2108.87760 -999.25000 -999.25000  131.28793  116.95296    0.33995    0.51154    2.16269   41.24870    0.57749    0.47913 -999.25000 -999.25000 -999.25000 -999.25000 -999.25000 -999.25000
 2109.37760 -999.25000 -999.25000  131.58135  124.07523    0.23379    0.53619    2.11424   41.24874    0.54829    0.49134 -999.25000 -999.25000 -999.25000 -999.25000 -999.25000 -999.25000
 2109.87760 -999.25000 -999.25000  130.70614  118.36159    0.42627    0.51152    2.10724   41.16712    0.55349    0.49556 -999.25000 -999.25000 -999.25000 -999.25000 -999.25000 -999.25000
