~Version ---------------------------------------------------
VERS.   2.0 : CWLS log ASCII Standard -VERSION 2.0
WRAP.    NO : One line per depth step
DLM . SPACE : Column Data Section Delimiter
~Well ------------------------------------------------------
STRT.ft          145.90000 : START DEPTH
STOP.ft         4684.90000 : STOP DEPTH
STEP.ft            0.50000 : STEP
NULL.              -999.25 : NULL VALUE
COMP. STATOIL PETROLEUM AS : COMPANY
WELL.          15/9-F-15 D : WELL
FLD .                VOLVE : FIELD
LOC .                      : LOCATION
PROV.                      : PROVINCE
CNTY.      MAERSK INSPIRER : COUNTY
STAT.                      : STATE
CTRY.                      : COUNTRY
SRVC.                      : SERVICE COMPANY
DATE.                      : DATE
UWI .                      : UNIQUE WELL ID
API .                      : API NUMBER
~Curve Information -----------------------------------------
DEPT     .ft        : 
ABDCQF01 .g/cm3     : 
ABDCQF02 .g/cm3     : 
ABDCQF03 .g/cm3     : 
ABDCQF04 .g/cm3     : 
BS       .inches    : 
CALI     .inches    : 
DRHO     .g/cm3     : 
GR       .API       : 
NBGRCFM  .API       : 
NPHI     .v/v       : 
PEF      .b/elec    : 
RACEHM   .ohm.m     : 
RACELM   .ohm.m     : 
RD       .ohm.m     : 
RHOB     .g/cm3     : 
RM       .ohm.m     : 
ROP      .m/hr      : 
RPCEHM   .ohm.m     : 
RPCELM   .ohm.m     : 
RT       .ohm.m     : 
BVW      .v/v       : 
COAL_FLAG.unitless  : 
KLOGH    .mD        : 
PHIF     .v/v       : 
SAND_FLAG.unitless  : 
SW       .v/v       : 
VCARB    .v/v       : 
VSH      .v/v       : 
~Params ----------------------------------------------------
~Other -----------------------------------------------------
PETROPHYSICAL INTERPRETATION: INPUT

# --- LOG MNEMONICS AND UNITS ---
#Depth          ABDCQF01        ABDCQF02        ABDCQF03        ABDCQF04        BS              CALI            DRHO            GR              NBGRCFM         NPHI            PEF             RACEHM          RACELM          RD              RHOB            RM              ROP             RPCEHM          RPCELM          RT
#M              g/cm3           g/cm3           g/cm3           g/cm3           inches          inches          g/cm3           API             API             v/v             b/elec          ohm.m           ohm.m           ohm.m           g/cm3           ohm.m           m/hr            ohm.m           ohm.m           ohm.m
~ASCII -----------------------------------------------------
# ...
 3820.90000    2.50040    2.40730    2.38580    2.48950    8.50000    8.57790    0.04880   57.22980   58.48980    0.19790    5.16990   13.00030   13.29080    7.14360    2.43690    4.62400   31.38850    4.62400    7.14350    4.64170    0.07060    0.00000    0.02800    0.12180    0.00000    0.58010    0.00000    0.50290
 3821.40000    2.49330    2.45770    2.53720    2.46690    8.50000    8.57810    0.04090   55.33730   56.88730    0.19130    5.72180   28.21100   12.62200   10.85630    2.48310    7.72950   31.39430    7.73000   10.85660    5.87570    0.05490    0.00000    0.01430    0.09540    0.00000    0.57520    0.00000    0.51190
 3821.90000    2.38650    2.52720    2.44330    2.50110    8.50000    8.62500    0.03880   61.50420   57.92900    0.17130    5.74610   13.36510   14.36140    9.02450    2.47560    6.64480   31.37430    6.64490    9.02460    6.41960    0.05930    0.00000    0.00980    0.09960    0.00000    0.59500    0.00000    0.53410
 3822.40000    2.39130    2.48770    2.46260    2.50760    8.50000    8.57810    0.01770   60.92870   65.04050    0.18210    5.85890    7.40560   10.55280    9.28200    2.46060    8.50810   31.34550    8.50880    9.28220    7.50460    0.05440    0.00000    0.01020    0.10820    0.00000    0.50300    0.00000    0.53970
 3822.90000    2.53400    2.45160    2.31360    2.55350    8.50000    8.57800    0.03760   56.95770   62.78170    0.19100    5.80490   10.30610   10.31970   10.15560    2.44780    9.18030   31.33890    9.17910   10.15550   10.89690    0.05280    0.00000    0.02880    0.11550    1.00000    0.45740    0.00000    0.49610
 3823.40000    2.54950    2.31430    2.21570    2.45790    8.50000    8.54710    0.04110   55.05670   55.42890    0.20880    5.57540   20.38550    8.90620   14.50560    2.37210   18.98450   31.35310   18.98440   14.50570   19.15370    0.04280    0.00000    0.14860    0.18880    1.00000    0.22700    0.00000    0.48200
 3823.90000    2.77760    2.28160    2.21000    2.39670    8.50000    8.54690    0.02140   46.71410   46.78180    0.21230    5.68570   81.44440    7.57170   18.09380    2.41990  120.74680   31.33740  120.70570   18.09090  191.16660    0.02730    0.00000    0.26570    0.13150    1.00000    0.20760    0.00000    0.40310
 3824.40000    2.66030    2.20830    2.20020    2.32470    8.50000    8.50000    0.06270   41.78520   41.13530    0.20440    4.81850 6381.09910    6.93100   63.23670    2.34230 1115.76260   31.29880 1115.97390   63.23950  697.63790    0.02860    0.00000    2.43340    0.19720    1.00000    0.14490    0.00000    0.35460
 3824.90000    2.26860    2.20430    2.17450    2.20930    8.50000    8.54690    0.04440   39.10840   41.15760    0.19370    4.70970 6381.09910    6.62060   36.06850    2.21330 62290.76950   31.14750 62290.76950   36.06710 62290.76950    0.02700    0.00000   10.49310    0.23720    1.00000    0.11390    0.00000    0.31960
 3825.40000    2.21900    2.19470    2.17930    2.20290    8.50000    8.54690    0.04030   35.58080   34.06670    0.18320    4.51050 6342.67090    6.51140   25.41640    2.19530 61901.45310   31.40140 61916.50780   25.41690 51808.23830    0.02760    0.00000   18.49580    0.23920    1.00000    0.11540    0.00000    0.29400
 3825.90000    2.17780    2.18560    2.17680    2.18270    8.50000    8.54690    0.03770   29.69200   27.98830    0.19130    4.56960   16.82500    6.70200   18.87970    2.18030  119.68190   31.41010  119.68660   18.87980  113.34970    0.02830    0.00000   69.89220    0.24760    1.00000    0.11410    0.00000    0.23730
 3826.40000    2.18500    2.17790    2.16920    2.16640    8.50000    8.54690    0.03710   26.24640   25.51460    0.18880    4.51420   12.96160    6.77590   16.91790    2.17110   73.60380   31.42570   73.60420   16.91790   74.19960    0.02890    0.00000  149.96660    0.24970    1.00000    0.11590    0.00000    0.20240
 3826.90000    2.17800    2.16850    2.15530    2.16810    8.50000    8.54690    0.03240   25.18990   24.66760    0.18120    4.40120   12.20120    6.72920   16.11670    2.16280   55.09050   31.41180   55.09110   16.11670   55.10290    0.02920    0.00000  196.30110    0.24950    1.00000    0.11700    0.00000    0.18920
 3827.40000    2.16800    2.18750    2.16830    2.18050    8.50000    8.54680    0.03720   26.35700   24.11870    0.17550    4.51970   12.34780    6.79450   16.25230    2.17430   53.27310   31.37240   53.27300   16.25230   53.45680    0.02910    0.00000  123.28540    0.24330    1.00000    0.11970    0.00000    0.20620
 3827.90000    2.18000    2.17410    2.17560    2.17530    8.50000    8.54690    0.03490   25.55980   27.27590    0.17450    4.45730   13.38090    6.87330   17.10310    2.17240   57.10010   31.36970   57.09980   17.10310   57.52480    0.02910    0.00000  163.94140    0.24350    1.00000    0.11930    0.00000    0.19260
 3828.40000    2.19820    2.19400    2.18420    2.16570    8.50000    8.54660    0.03990   24.95190   25.75110    0.17390    4.70390   15.30470    6.80910   18.83980    2.18210   75.56430   32.12650   75.56420   18.83980   73.94250    0.02840    0.00000  148.43910    0.24000    1.00000    0.11830    0.00000    0.19430
 3828.90000    2.17850    2.19560    2.20420    2.17390    8.50000    8.50000    0.04210   27.33380   26.45860    0.18270    4.73910   17.99120    6.70560   21.19610    2.18770  115.48360   32.27520  115.47960   21.19610  130.67220    0.02730    0.00000   96.25930    0.24160    1.00000    0.11280    0.00000    0.21660
 3829.40000    2.17600    2.24940    2.36840    2.17810    8.50000    8.50030    0.04460   23.60490   24.84020    0.18410    4.69140   25.18820    6.46370   24.83740    2.24860  452.68460   31.68150  452.68970   24.83740  447.47940    0.02560    0.00000  151.71790    0.22130    1.00000    0.11590    0.00000    0.17660
 3829.90000    2.18330    2.23460    2.37700    2.19200    8.50000    8.54690    0.06120   26.86300   26.72530    0.16950    4.70000   36.68660    6.39340   30.49990    2.26730 62290.76950   31.39150 62290.76950   30.49920 62290.76950    0.02550    0.00000   65.29590    0.20900    1.00000    0.12180    0.00000    0.20630
 3830.40000    2.15540    2.18460    2.31250    2.18030    8.50000    8.54690    0.04440   26.71430   26.05110    0.18270    4.57770  204.96900    6.48600   41.95930    2.19940 62290.76950   31.35640 62290.76950   41.95870 62290.76950    0.02530    0.00000  107.88900    0.23760    1.00000    0.10650    0.00000    0.20750
 3830.90000    2.15360    2.22430    2.38580    2.19980    8.50000    8.54690    0.03050   28.39380   30.40990    0.18440    4.77750 6381.09910    6.58240   61.42530    2.21210 62290.76950   31.34870 62290.76950   61.42170 62290.76950    0.02500    0.00000   76.50580    0.23390    1.00000    0.10680    0.00000    0.22080
 3831.40000    2.16600    2.35370    2.41530    2.23110    8.50000    8.57810    0.03120   34.09820   32.13670    0.19440    5.18950 6381.09910    6.57780   80.80980    2.27500 62290.76950   31.26660 62290.76950   80.80650 62290.76950    0.02450    0.00000   19.89250    0.21640    1.00000    0.11330    0.00000    0.27020
 3831.90000    2.17360    2.39650    2.41720    2.27560    8.50000    8.54690    0.03080   35.06710   35.30590    0.18100    5.16100 6381.09910    6.38930  425.84680    2.32570 62290.76950   31.34260 62290.76950  425.89420 62290.76950    0.02410    0.00000    5.75950    0.19360    1.00000    0.12440    0.00000    0.30980
 3832.40000    2.20110    2.42880    2.38330    2.33390    8.50000    8.57810    0.03380   32.03220   32.46770    0.18160    5.23700 6381.09910    6.12120   80.97530    2.35280 62290.76950   31.40700 62290.76950   80.96560 62290.76950    0.02360    0.00000   15.19230    0.18450    1.00000    0.12760    0.00000    0.25500
 3832.90000    2.34960    2.42920    2.40090    2.41910    8.50000    8.57810    0.03920   37.16950   37.24170    0.19600    5.25780 6381.09910    5.95310  737.89710    2.38880 62290.76950   31.39250 62290.76950  738.01430 62290.76950    0.02350    0.00000    5.26900    0.17800    1.00000    0.13200    0.00000    0.30020
