~Version ---------------------------------------------------
VERS.   2.0 : CWLS log ASCII Standard -VERSION 2.0
WRAP.    NO : One line per depth step
DLM . SPACE : Column Data Section Delimiter
~Well ------------------------------------------------------
STRT.ft          145.90000 : START DEPTH
STOP.ft         4684.90000 : STOP DEPTH
STEP.ft            0.50000 : STEP
NULL.              -999.25 : NULL VALUE
COMP. STATOIL PETROLEUM AS : COMPANY
WELL.          15/9-F-15 D : WELL
FLD .                VOLVE : FIELD
LOC .                      : LOCATION
PROV.                      : PROVINCE
CNTY.      MAERSK INSPIRER : COUNTY
STAT.                      : STATE
CTRY.                      : COUNTRY
SRVC.                      : SERVICE COMPANY
DATE.                      : DATE
UWI .                      : UNIQUE WELL ID
API .                      : API NUMBER
~Curve Information -----------------------------------------
DEPT     .ft        : 
ABDCQF01 .g/cm3     : 
ABDCQF02 .g/cm3     : 
ABDCQF03 .g/cm3     : 
ABDCQF04 .g/cm3     : 
BS       .inches    : 
CALI     .inches    : 
DRHO     .g/cm3     : 
GR       .API       : 
NBGRCFM  .API       : 
NPHI     .v/v       : 
PEF      .b/elec    : 
RACEHM   .ohm.m     : 
RACELM   .ohm.m     : 
RD       .ohm.m     : 
RHOB     .g/cm3     : 
RM       .ohm.m     : 
ROP      .m/hr      : 
RPCEHM   .ohm.m     : 
RPCELM   .ohm.m     : 
RT       .ohm.m     : 
BVW      .v/v       : 
COAL_FLAG.unitless  : 
KLOGH    .mD        : 
PHIF     .v/v       : 
SAND_FLAG.unitless  : 
SW       .v/v       : 
VCARB    .v/v       : 
VSH      .v/v       : 
~Params ----------------------------------------------------
~Other -----------------------------------------------------
PETROPHYSICAL INTERPRETATION: INPUT

# --- LOG MNEMONICS AND UNITS ---
#Depth          ABDCQF01        ABDCQF02        ABDCQF03        ABDCQF04        BS              CALI            DRHO            GR              NBGRCFM         NPHI            PEF             RACEHM          RACELM          RD              RHOB            RM              ROP             RPCEHM          RPCELM          RT
#M              g/cm3           g/cm3           g/cm3           g/cm3           inches          inches          g/cm3           API             API             v/v             b/elec          ohm.m           ohm.m           ohm.m           g/cm3           ohm.m           m/hr            ohm.m           ohm.m           ohm.m
~ASCII -----------------------------------------------------
# ...
 4658.40000    2.42900    2.42810    2.44680    2.43720    8.50000    8.62500    0.05900   43.57320   42.70240    0.15560    5.25410    1.20100    1.55750    1.21030    2.43530    1.09560   28.85840    1.09560    1.21030    1.09090    0.13540    0.00000    0.10260    0.13540    1.00000    1.00000    0.00000    0.45240
 4658.90000    2.44400    2.42980    2.43380    2.43910    8.50000    8.67190    0.06060   41.51540   45.45450 -999.25000    5.40170    1.25790    1.55430    1.21910    2.43550    1.06360   28.78610    1.06360    1.21910    1.06420 -999.25000    0.00000 -999.25000 -999.25000    1.00000 -999.25000 -999.25000    0.42660
 4659.40000    2.45130    2.42820    2.42710    2.43980    8.50000    8.67190    0.05960   43.41760   46.59070 -999.25000    5.48600    1.39840    1.55780    1.26650    2.42920    1.13230   28.79590    1.13230    1.26650    1.12880 -999.25000    0.00000 -999.25000 -999.25000    1.00000 -999.25000 -999.25000    0.44590
 4659.90000    2.46200    2.42510    2.42420    2.45850    8.50000    8.70340    0.06570   42.72770   48.95940 -999.25000    5.99130    1.41340    1.53630    1.27190    2.43460    1.14240   25.47780    1.14240    1.27190    1.14260 -999.25000    0.00000 -999.25000 -999.25000    1.00000 -999.25000 -999.25000    0.45910
 4660.40000    2.42710    2.42090    2.43530    2.41730    8.50000    8.67580    0.06830   44.49130   44.18640 -999.25000    5.77870    1.37850    1.52930    1.30830    2.42620    1.23820   17.29140    1.23820    1.30830    1.23260 -999.25000    0.00000 -999.25000 -999.25000    1.00000 -999.25000 -999.25000    0.46560
 4660.90000    2.42800    2.42680    2.41180    2.43510    8.50000 -999.25000    0.05540   43.20600   46.02250 -999.25000    5.42400    1.39770    1.50790    1.32140    2.42070    1.26330   24.51000    1.26330    1.32140    1.25920 -999.25000    0.00000 -999.25000 -999.25000    1.00000 -999.25000 -999.25000    0.44100
 4661.40000 -999.25000 -999.25000 -999.25000 -999.25000    8.50000 -999.25000 -999.25000   45.11880   42.75490 -999.25000 -999.25000    1.44470    1.53360    1.34980 -999.25000    1.29550   30.91340    1.29550    1.34980    1.29830 -999.25000    0.00000 -999.25000 -999.25000    1.00000 -999.25000 -999.25000    0.46540
 4661.90000 -999.25000 -999.25000 -999.25000 -999.25000    8.50000 -999.25000 -999.25000   43.75240   46.39240 -999.25000 -999.25000    1.49760    1.57020    1.39360 -999.25000    1.32400   32.52390    1.32400    1.39360    1.32420 -999.25000    0.00000 -999.25000 -999.25000    1.00000 -999.25000 -999.25000    0.45350
 4662.40000 -999.25000 -999.25000 -999.25000 -999.25000    8.50000 -999.25000 -999.25000   46.48320   43.44390 -999.25000 -999.25000    1.61810    1.61960    1.44360 -999.25000    1.33790   32.35910    1.33790    1.44360    1.35310 -999.25000    0.00000 -999.25000 -999.25000    1.00000 -999.25000 -999.25000    0.49290
 4662.90000 -999.25000 -999.25000 -999.25000 -999.25000    8.50000 -999.25000 -999.25000   44.48790   44.15850 -999.25000 -999.25000    1.64170    1.66020    1.48450 -999.25000    1.43120   31.74400    1.43120    1.48450    1.40870 -999.25000    0.00000 -999.25000 -999.25000    1.00000 -999.25000 -999.25000    0.46410
 4663.40000 -999.25000 -999.25000 -999.25000 -999.25000    8.50000 -999.25000 -999.25000   44.98060   42.91070 -999.25000 -999.25000    1.72330    1.72550    1.53500 -999.25000    1.54130   31.21170    1.54130    1.53500    1.54090 -999.25000    0.00000 -999.25000 -999.25000    1.00000 -999.25000 -999.25000    0.46060
 4663.90000 -999.25000 -999.25000 -999.25000 -999.25000    8.50000 -999.25000 -999.25000   44.21740   43.22290 -999.25000 -999.25000    1.77240    1.88430    1.56450 -999.25000    1.46370   31.13840    1.46370    1.56450    1.48310 -999.25000    0.00000 -999.25000 -999.25000    1.00000 -999.25000 -999.25000    0.46820
 4664.40000 -999.25000 -999.25000 -999.25000 -999.25000    8.50000 -999.25000 -999.25000   51.89350   64.33550 -999.25000 -999.25000    1.93130    2.06610    1.76730 -999.25000    1.67050   31.11280    1.67050    1.76730    1.67310 -999.25000    0.00000 -999.25000 -999.25000    0.00000 -999.25000 -999.25000    0.50580
 4664.90000 -999.25000 -999.25000 -999.25000 -999.25000    8.50000 -999.25000 -999.25000   81.03040   80.69710 -999.25000 -999.25000    2.17340    2.18900    2.21820 -999.25000    2.51340   31.12810    2.51320    2.21810    2.74040 -999.25000    0.00000 -999.25000 -999.25000    0.00000 -999.25000 -999.25000    0.90920
 4665.40000 -999.25000 -999.25000 -999.25000 -999.25000    8.50000 -999.25000 -999.25000   84.07640   80.66500 -999.25000 -999.25000    2.68170    2.37100    2.70120 -999.25000    3.46590   31.13880    3.46590    2.70110    3.48110 -999.25000    0.00000 -999.25000 -999.25000    0.00000 -999.25000 -999.25000    0.93060
 4665.90000 -999.25000 -999.25000 -999.25000 -999.25000    8.50000 -999.25000 -999.25000   85.25300   84.44050 -999.25000 -999.25000    2.93650    2.53140    3.02610 -999.25000    3.95100   31.15820    3.95100    3.02610    3.99430 -999.25000    0.00000 -999.25000 -999.25000    0.00000 -999.25000 -999.25000    0.93280
 4666.40000 -999.25000 -999.25000 -999.25000 -999.25000    8.50000 -999.25000 -999.25000   89.39660   85.18360 -999.25000 -999.25000    3.09040    2.69360    3.41260 -999.25000    4.56290   31.15730    4.56290    3.41260    4.58990 -999.25000    0.00000 -999.25000 -999.25000    0.00000 -999.25000 -999.25000    0.99080
 4666.90000 -999.25000 -999.25000 -999.25000 -999.25000    8.50000 -999.25000 -999.25000   89.87710   90.97400 -999.25000 -999.25000    3.30810    2.85810    3.54730 -999.25000    4.55270   31.13330    4.55270    3.54730    4.57170 -999.25000    0.00000 -999.25000 -999.25000    0.00000 -999.25000 -999.25000    1.00000
 4667.40000 -999.25000 -999.25000 -999.25000 -999.25000    8.50000 -999.25000 -999.25000   90.12950   94.15600 -999.25000 -999.25000    3.38920    3.06060    3.72980 -999.25000    4.73750   31.11330    4.73750    3.72980    4.71160 -999.25000    0.00000 -999.25000 -999.25000    0.00000 -999.25000 -999.25000    0.99760
 4667.90000 -999.25000 -999.25000 -999.25000 -999.25000    8.50000 -999.25000 -999.25000   88.70590   93.45210 -999.25000 -999.25000    3.64960    3.43130    3.82730 -999.25000    4.30330   31.12030    4.30330    3.82730    4.32350 -999.25000    0.00000 -999.25000 -999.25000    0.00000 -999.25000 -999.25000    0.99730
 4668.40000 -999.25000 -999.25000 -999.25000 -999.25000    8.50000 -999.25000 -999.25000   87.40330   89.63810 -999.25000 -999.25000    3.93570    3.77680    3.78960 -999.25000    3.84180   31.13150    3.84180    3.78960    3.88580 -999.25000    0.00000 -999.25000 -999.25000    0.00000 -999.25000 -999.25000    0.98370
 4668.90000 -999.25000 -999.25000 -999.25000 -999.25000    8.50000 -999.25000 -999.25000   86.84840   84.75770 -999.25000 -999.25000    4.19180    3.97900    4.29870 -999.25000    4.73730   31.09780    4.73730    4.29870    4.77410 -999.25000    0.00000 -999.25000 -999.25000    0.00000 -999.25000 -999.25000    0.96410
 4669.40000 -999.25000 -999.25000 -999.25000 -999.25000    8.50000 -999.25000 -999.25000   92.69410   92.98060 -999.25000 -999.25000    4.54100    4.18180    4.69730 -999.25000    5.11360   31.07930    5.11350    4.69720    5.18450 -999.25000    0.00000 -999.25000 -999.25000    0.00000 -999.25000 -999.25000    1.00000
 4669.90000 -999.25000 -999.25000 -999.25000 -999.25000    8.50000 -999.25000 -999.25000   93.42150   90.61520 -999.25000 -999.25000    5.12350    4.44470    5.16030 -999.25000    5.69920   31.08780    5.69910    5.16030    5.75130 -999.25000    0.00000 -999.25000 -999.25000    0.00000 -999.25000 -999.25000    1.00000
 4670.40000 -999.25000 -999.25000 -999.25000 -999.25000    8.50000 -999.25000 -999.25000   95.23580   93.13470 -999.25000 -999.25000    5.20870    4.55450    5.63420 -999.25000    6.59050   31.10210    6.59050    5.63420    6.61070 -999.25000    0.00000 -999.25000 -999.25000    0.00000 -999.25000 -999.25000    1.00000
